{"componentChunkName":"component---src-templates-section-directory-js","path":"/section-directory/canoeing-kayaking/","webpackCompilationHash":"","result":{"data":{"markdownRemark":{"html":"","frontmatter":{"category":"Canoeing Kayaking"}},"allMarkdownRemark":{"distinct":["Antrim","Armagh","Cavan","Clare","Cork","Donegal","Down","Dublin","Fermanagh","Galway","Kerry","Leitrim","Louth","Mayo","Offaly","Roscommon","Sligo","Waterford","Wexford","Wicklow"],"edges":[{"node":{"frontmatter":{"title":"Activities Ireland","category":"Canoeing Kayaking","county":"Antrim","type":"Content","excerpt":null,"address":"187, Lower Braniel Rd, Belfast, Co. Antrim BT5 7NP","tel":"07971 087480","images":null,"lat":"054.5785630000","lng":"-005.8493020000"},"fields":{"slug":"/section-directory-content/canoeing-kayaking/activities-ireland/"}}},{"node":{"frontmatter":{"title":"Baltinglass Outdoor Education Centre","category":"Canoeing Kayaking","county":"Wicklow","type":"Content","excerpt":null,"address":"Weavers Square, Baltinglass, Co. Wicklow","tel":"+353 (0)59 648 1002","images":null,"lat":"52.93695831298828","lng":"-6.720954895019531"},"fields":{"slug":"/section-directory-content/canoeing-kayaking/baltinglass-outdoor-education-centre/"}}},{"node":{"frontmatter":{"title":"Atlantic Sea Kayaking","category":"Canoeing Kayaking","county":"Cork","type":"Content","excerpt":null,"address":"The Abbey, Skibbereen, Co. Cork","tel":"+353 (0)28 21 058","images":null,"lat":"51.54901123046875","lng":"-9.267895698547363"},"fields":{"slug":"/section-directory-content/canoeing-kayaking/atlantic-sea-kayaking/"}}},{"node":{"frontmatter":{"title":"Carlingford Adventure Centre","category":"Canoeing Kayaking","county":"Louth","type":"Content","excerpt":null,"address":"Thosel Street, Carlingford, Co. Louth","tel":"+353 (0)42 937 3100","images":null,"lat":"54.037899017333984","lng":"-6.186023712158203"},"fields":{"slug":"/section-directory-content/canoeing-kayaking/carlingford-adventure-centre/"}}},{"node":{"frontmatter":{"title":"Cappanalea Outdoor Education Centre","category":"Canoeing Kayaking","county":"Kerry","type":"Content","excerpt":null,"address":"Caragh Lake, Killorglin, Co. Kerry","tel":"+353 (0)66 976 9244","images":null,"lat":"52.04526901245117","lng":"-9.864297866821289"},"fields":{"slug":"/section-directory-content/canoeing-kayaking/cappanalea-outdoor-education-centre/"}}},{"node":{"frontmatter":{"title":"Blackwater Boating","category":"Canoeing Kayaking","county":"Waterford","type":"Content","excerpt":null,"address":"Tourin,, Cappoquin, Co. Waterford","tel":"+353 (0)58 54 382","images":null,"lat":"52.148956298828125","lng":"-7.85408878326416"},"fields":{"slug":"/section-directory-content/canoeing-kayaking/blackwater-boating/"}}},{"node":{"frontmatter":{"title":"Corrib Canoe","category":"Canoeing Kayaking","county":"Galway","type":"Content","excerpt":null,"address":"Aras Na Mac Leinn, NUI, Galway Outer City East, Co. Galway","tel":"+353 (0)87 743 5644","images":null,"lat":"53.27899932861328","lng":"-9.011503219604492"},"fields":{"slug":"/section-directory-content/canoeing-kayaking/corrib-canoe/"}}},{"node":{"frontmatter":{"title":"Dunmore East Adventure Centre","category":"Canoeing Kayaking","county":"Waterford","type":"Content","excerpt":null,"address":"Stoney Cove, Dunmore East, Co. Waterford","tel":"+353 (0)51 38 3783","images":null,"lat":"52.1484260559082","lng":"-7.005855083465576"},"fields":{"slug":"/section-directory-content/canoeing-kayaking/dunmore-east-adventure-centre/"}}},{"node":{"frontmatter":{"title":"County Dublin Outdoor Education Centre Adventure Sports","category":"Canoeing Kayaking","county":"Dublin","type":"Content","excerpt":null,"address":"Clondalkin Sports And Leisure Centre, Nangor Road, Clondalkin, Co. Dublin, Dublin 22","tel":"+353 (0)1 457 4858","images":null,"lat":"53.318946838378906","lng":"-6.3939738273620605"},"fields":{"slug":"/section-directory-content/canoeing-kayaking/county-dublin-outdoor-education-centre-adventure-sports/"}}},{"node":{"frontmatter":{"title":"Derrynane Sea Sports","category":"Canoeing Kayaking","county":"Kerry","type":"Content","excerpt":null,"address":"Derrynane, Caherdaniel, Co. Kerry","tel":"+353 (0)66 947 5266","images":null,"lat":"51.76478576660156","lng":"-10.129175186157227"},"fields":{"slug":"/section-directory-content/canoeing-kayaking/derrynane-sea-sports/"}}},{"node":{"frontmatter":{"title":"Cape Clear Island Adventure Centre","category":"Canoeing Kayaking","county":"Cork","type":"Content","excerpt":null,"address":"Cape Clear Island, Skibbereen, Co. Cork","tel":"+353 (0)28 39 198","images":null,"lat":"51.43318176269531","lng":"-9.495702743530273"},"fields":{"slug":"/section-directory-content/canoeing-kayaking/cape-clear-island-adventure-centre/"}}},{"node":{"frontmatter":{"title":"Eclipse Ireland - Kerrys Equestrian and Adventure Centre","category":"Canoeing Kayaking","county":"Kerry","type":"Content","excerpt":null,"address":"Dromore Old, Blackwater Bridge, Killarney, Co. Kerry","tel":"+353 (0)64 668 2965","images":null,"lat":"51.857234954833984","lng":"-9.750615119934082"},"fields":{"slug":"/section-directory-content/canoeing-kayaking/eclipse-ireland---kerrys-equestrian-and-adventure-centre/"}}},{"node":{"frontmatter":{"title":"Edge Adventures","category":"Canoeing Kayaking","county":"Cork","type":"Content","excerpt":null,"address":"Coomhola Lodge, Coomhola, Bantry, Co. Cork","tel":"+353 (0)87 792 4841","images":null,"lat":"51.74920654296875","lng":"-9.473201751708984"},"fields":{"slug":"/section-directory-content/canoeing-kayaking/edge-adventures/"}}},{"node":{"frontmatter":{"title":"Craigavon Watersports Centre","category":"Canoeing Kayaking","county":"Armagh","type":"Content","excerpt":null,"address":"Craigavon Waterports Centre, 1 Lake Road, Craigavon, Co. Armagh, BT64 1AS","tel":"+44 (0)28 3834 2669","images":null,"lat":"54.449581146240234","lng":"-6.383068561553955"},"fields":{"slug":"/section-directory-content/canoeing-kayaking/craigavon-watersports-centre/"}}},{"node":{"frontmatter":{"title":"Galway Sea Kayak Tours","category":"Canoeing Kayaking","county":"Galway","type":"Content","excerpt":null,"address":"The Forge, Lisheenageeha, Headford, Co. Galway","tel":"+353 (0)93 36 097","images":null,"lat":"53.27194595336914","lng":"-9.04888916015625"},"fields":{"slug":"/section-directory-content/canoeing-kayaking/galway-sea-kayak-tours/"}}},{"node":{"frontmatter":{"title":"Hidden Ireland Tours","category":"Canoeing Kayaking","county":"Kerry","type":"Content","excerpt":null,"address":"Killarney and Dingle, Co. Kerry","tel":"+353 (0)87 221 4002","images":null,"lat":"52.05767822265625","lng":"-9.508379936218262"},"fields":{"slug":"/section-directory-content/canoeing-kayaking/hidden-ireland-tours/"}}},{"node":{"frontmatter":{"title":"Irish Canoe Union","category":"Canoeing Kayaking","county":"Dublin","type":"Content","excerpt":null,"address":"13 Joyce Way, Park West, Dublin, Co. Dublin, D 12","tel":"+353 (0)14 50 9838","images":null,"lat":"53.32347106933594","lng":"-6.349064350128174"},"fields":{"slug":"/section-directory-content/canoeing-kayaking/irish-canoe-union/"}}},{"node":{"frontmatter":{"title":"Jackson Sports","category":"Canoeing Kayaking","county":"Antrim","type":"Content","excerpt":null,"address":"70, High Street, Belfast, Co. Antrim, BT1 2BE","tel":"02890 238572","images":null,"lat":"054.6003760000","lng":"-005.9258120000"},"fields":{"slug":"/section-directory-content/canoeing-kayaking/jackson-sports/"}}},{"node":{"frontmatter":{"title":"Gartan Outdoor Education Centre","category":"Canoeing Kayaking","county":"Donegal","type":"Content","excerpt":null,"address":"Church Hill, Letterkenny, Co. Donegal","tel":"+353 (0)74 913 7032","images":null,"lat":"54.99421691894531","lng":"-7.9086103439331055"},"fields":{"slug":"/section-directory-content/canoeing-kayaking/gartan-outdoor-education-centre/"}}},{"node":{"frontmatter":{"title":"Irish Adventures","category":"Canoeing Kayaking","county":"Kerry","type":"Content","excerpt":null,"address":"Ballinaboula, Dingle, Co. Kerry","tel":"+353 (0)87 419 0318","images":null,"lat":"52.14725875854492","lng":"-10.289356231689453"},"fields":{"slug":"/section-directory-content/canoeing-kayaking/irish-adventures/"}}},{"node":{"frontmatter":{"title":"Just Kayak","category":"Canoeing Kayaking","county":"Donegal","type":"Content","excerpt":null,"address":"Just Kayak, Greencastle Road, Moville, Co. Donegal","tel":"+353 (0)87 220 2577","images":null,"lat":"55.18333435058594","lng":"-7.050000190734863"},"fields":{"slug":"/section-directory-content/canoeing-kayaking/just-kayak/"}}},{"node":{"frontmatter":{"title":"Jet-Tec Performance","category":"Canoeing Kayaking","county":"Antrim","type":"Content","excerpt":null,"address":"51, Mallusk Rd, Newtownabbey, Co. Antrim BT36 4PU","tel":"028 9084 4208","images":null,"lat":"54.677382","lng":"-5.995223"},"fields":{"slug":"/section-directory-content/canoeing-kayaking/jet-tec-performance/"}}},{"node":{"frontmatter":{"title":"Donegal Adventure Centre","category":"Canoeing Kayaking","county":"Donegal","type":"Content","excerpt":null,"address":"Bay View Avenue, Bundoran, Co. Donegal","tel":"+353 (0)71 984 2418","images":null,"lat":"54.47653579711914","lng":"-8.282201766967773"},"fields":{"slug":"/section-directory-content/canoeing-kayaking/donegal-adventure-centre/"}}},{"node":{"frontmatter":{"title":"Ireland West Sea Kayaking Canoeing - Saoirse na Mara","category":"Canoeing Kayaking","county":"Mayo","type":"Content","excerpt":null,"address":"Westport, Co. Mayo","tel":"+353 (0)86 173 3610","images":null,"lat":"53.79999923706055","lng":"-9.516666412353516"},"fields":{"slug":"/section-directory-content/canoeing-kayaking/ireland-west-sea-kayaking-canoeing---saoirse-na-mara/"}}},{"node":{"frontmatter":{"title":"Hostelling International Northern Ireland - Canoeing Enniskillen and Newcastle","category":"Canoeing Kayaking","county":"Antrim","type":"Content","excerpt":null,"address":"Hostelling International Northern Ireland, 22 Donegall Road, Belfast, Co. Antrim, BT12 5JN","tel":"+44 (0)28 9032 4733","images":null,"lat":"54.59572982788086","lng":"-5.936308860778809"},"fields":{"slug":"/section-directory-content/canoeing-kayaking/hostelling-international-northern-ireland---canoeing-enniskillen-and-newcastle/"}}},{"node":{"frontmatter":{"title":"Lakeside Leisure Blessington","category":"Canoeing Kayaking","county":"Wicklow","type":"Content","excerpt":null,"address":"Burgage, Blessington, Co. Wicklow","tel":"+353 (0)45 86 5092","images":null,"lat":"53.16781997680664","lng":"-6.53480863571167"},"fields":{"slug":"/section-directory-content/canoeing-kayaking/lakeside-leisure-blessington/"}}},{"node":{"frontmatter":{"title":"John Hubbucks Kayaking School","category":"Canoeing Kayaking","county":"Down","type":"Content","excerpt":null,"address":"29, Ash Grove, Newtownards, Co. Down BT23 4HA","tel":"028 9180 0809","images":null,"lat":"54.599337","lng":"-5.699825"},"fields":{"slug":"/section-directory-content/canoeing-kayaking/john-hubbucks-kayaking-school/"}}},{"node":{"frontmatter":{"title":"Life","category":"Canoeing Kayaking","county":"Down","type":"Content","excerpt":null,"address":"The Grange Yard, Forest Park, Castlewellen, Co. Down, BT31 9BU","tel":"0 2843443175","images":null,"lat":"054.2644120000","lng":"-005.9554100000"},"fields":{"slug":"/section-directory-content/canoeing-kayaking/life/"}}},{"node":{"frontmatter":{"title":"McDowells Hotel And Activity Centre","category":"Canoeing Kayaking","county":"Mayo","type":"Content","excerpt":null,"address":"McDowells Hotel And Activity Centre, Slieve Mor Road, Achill Island, Co. Mayo","tel":"+353 (0)90 649 4801","images":null,"lat":"53.968955993652344","lng":"-10.011978149414062"},"fields":{"slug":"/section-directory-content/canoeing-kayaking/mcdowells-hotel-and-activity-centre/"}}},{"node":{"frontmatter":{"title":"National Water Sports Centre","category":"Canoeing Kayaking","county":"Donegal","type":"Content","excerpt":null,"address":"Lakeside Centre, Belleek Road, Ballyshannon, Co. Donegal","tel":"+353 (0)71 982 2922","images":null,"lat":"54.502723693847656","lng":"-8.18855094909668"},"fields":{"slug":"/section-directory-content/canoeing-kayaking/national-water-sports-centre/"}}},{"node":{"frontmatter":{"title":"NORTH WEST ADVENTURE OUTDOOR EDUCATION CENTRE","category":"Canoeing Kayaking","county":"Sligo","type":"Content","excerpt":null,"address":"Ballinafad, Co. Sligo","tel":"+353 (0)71 966 7055","images":null,"lat":"53.84805679321289","lng":"-8.529073715209961"},"fields":{"slug":"/section-directory-content/canoeing-kayaking/north-west-adventure-outdoor-education-centre/"}}},{"node":{"frontmatter":{"title":"Paddlemonkey  Cleasa Ceasla","category":"Canoeing Kayaking","county":"Leitrim","type":"Content","excerpt":null,"address":"Killavoggy, Dromahair, Co. Leitrim","tel":"+353 (0)71 913 4977","images":null,"lat":"54.26826095581055","lng":"-8.456899642944336"},"fields":{"slug":"/section-directory-content/canoeing-kayaking/paddlemonkey-cleasa-ceasla/"}}},{"node":{"frontmatter":{"title":"Ruddock Sea Kayaking and Canoeing","category":"Canoeing Kayaking","county":"Antrim","type":"Content","excerpt":null,"address":"12, Glenvale Avenue, Portrush, Co. Antrim BT56 8HL","tel":"07858 404801","images":null,"lat":"55.196101","lng":"-6.65302"},"fields":{"slug":"/section-directory-content/canoeing-kayaking/ruddock-sea-kayaking-and-canoeing/"}}},{"node":{"frontmatter":{"title":"Kinsale Outdoor Education Centre","category":"Canoeing Kayaking","county":"Cork","type":"Content","excerpt":null,"address":"St. John's Hill, Kinsale, Co. Cork","tel":"+353 (0)21 477 2896","images":null,"lat":"51.70191955566406","lng":"-8.521291732788086"},"fields":{"slug":"/section-directory-content/canoeing-kayaking/kinsale-outdoor-education-centre/"}}},{"node":{"frontmatter":{"title":"Munster Dive and Canoe","category":"Canoeing Kayaking","county":"Cork","type":"Content","excerpt":null,"address":"30 Saint Finbarr's Road, Cork City","tel":"+353 (0)21 431 2510","images":null,"lat":"51.89232635498047","lng":"-8.484301567077637"},"fields":{"slug":"/section-directory-content/canoeing-kayaking/munster-dive-and-canoe/"}}},{"node":{"frontmatter":{"title":"Shearwater Sea Kayaking","category":"Canoeing Kayaking","county":"Wicklow","type":"Content","excerpt":null,"address":"c/o Manor Kilbride, Blessington, Co. Wicklow","tel":"NOVAL","images":null,"lat":"52.85069274902344","lng":"-6.789027690887451"},"fields":{"slug":"/section-directory-content/canoeing-kayaking/shearwater-sea-kayaking/"}}},{"node":{"frontmatter":{"title":"NORTH SOUTH MARINE and LEISURE","category":"Canoeing Kayaking","county":"Fermanagh","type":"Content","excerpt":null,"address":"Dp1, Farranasculloge, Lisnaskea, Enniskillen, Co. Fermanagh BT92 0AW","tel":"028 6744 9390","images":null,"lat":"054.2408210000","lng":"-007.4412000000"},"fields":{"slug":"/section-directory-content/canoeing-kayaking/north-south-marine-and-leisure/"}}},{"node":{"frontmatter":{"title":"Petersburg Outdoor Education Centre","category":"Canoeing Kayaking","county":"Galway","type":"Content","excerpt":null,"address":"Clonbur, Co. Galway","tel":"+353 (0)94 954 6483","images":null,"lat":"53.53742980957031","lng":"-9.372231483459473"},"fields":{"slug":"/section-directory-content/canoeing-kayaking/petersburg-outdoor-education-centre/"}}},{"node":{"frontmatter":{"title":"Shielbaggan Outdoor Education Centre","category":"Canoeing Kayaking","county":"Wexford","type":"Content","excerpt":null,"address":"Ramsgrange, New Ross, Co. Wexford","tel":"+353 (0)51 38 9550","images":null,"lat":"52.39106369018555","lng":"-6.942417144775391"},"fields":{"slug":"/section-directory-content/canoeing-kayaking/shielbaggan-outdoor-education-centre/"}}},{"node":{"frontmatter":{"title":"Schull Watersport Centre","category":"Canoeing Kayaking","county":"Cork","type":"Content","excerpt":null,"address":"The Pier, Schull, Co. Cork","tel":"+353 (0)28 28 554","images":null,"lat":"51.525325775146484","lng":"-9.544656753540039"},"fields":{"slug":"/section-directory-content/canoeing-kayaking/schull-watersport-centre/"}}},{"node":{"frontmatter":{"title":"Taggart and Co.Ltd","category":"Canoeing Kayaking","county":"Antrim","type":"Content","excerpt":null,"address":"38-44, Main St, Ballymoney, Co. Antrim BT53 6AP","tel":"02827 662130","images":null,"lat":"055.0690790000","lng":"-006.5161920000"},"fields":{"slug":"/section-directory-content/canoeing-kayaking/taggart-and-coltd/"}}},{"node":{"frontmatter":{"title":"Shannon Adventure Canoeing and Camping Holidays","category":"Canoeing Kayaking","county":"Offaly","type":"Content","excerpt":null,"address":"The Marina, Banagher, Co. Offaly","tel":"+353 (0)57 915 1411","images":null,"lat":"53.18663024902344","lng":"-7.999864101409912"},"fields":{"slug":"/section-directory-content/canoeing-kayaking/shannon-adventure-canoeing-and-camping-holidays/"}}},{"node":{"frontmatter":{"title":"Tanagh Outdoor Education Centre","category":"Canoeing Kayaking","county":"Cavan","type":"Content","excerpt":null,"address":"Dartrey Forest, Rockcorry, Cootehill, Co. Cavan","tel":"+353 (0)49 555 2988","images":null,"lat":"54.10715866088867","lng":"-7.022310256958008"},"fields":{"slug":"/section-directory-content/canoeing-kayaking/tanagh-outdoor-education-centre/"}}},{"node":{"frontmatter":{"title":"Star Outdoors Adventure Centre","category":"Canoeing Kayaking","county":"Kerry","type":"Content","excerpt":null,"address":"Dauros, Kenmare, Co. Kerry","tel":"+353 (0)64 664 1222","images":null,"lat":"51.84984588623047","lng":"-9.631325721740723"},"fields":{"slug":"/section-directory-content/canoeing-kayaking/star-outdoors-adventure-centre/"}}},{"node":{"frontmatter":{"title":"Tollymore National Outdoor Centre","category":"Canoeing Kayaking","county":"Down","type":"Content","excerpt":null,"address":"Bryansford Village, Newcastle, Co. Down BT33 0PT","tel":"02843 443246","images":null,"lat":"054.2299970000","lng":"-005.9322200000"},"fields":{"slug":"/section-directory-content/canoeing-kayaking/tollymore-national-outdoor-centre/"}}},{"node":{"frontmatter":{"title":"Total Experience - Mobile Activities Events Company","category":"Canoeing Kayaking","county":"Wicklow","type":"Content","excerpt":null,"address":"Blessington, Co. Wicklow","tel":"+353 (0)86 872 4894","images":null,"lat":"53.170413970947266","lng":"-6.534420967102051"},"fields":{"slug":"/section-directory-content/canoeing-kayaking/total-experience---mobile-activities-events-company/"}}},{"node":{"frontmatter":{"title":"Tralee Bay Sailing School","category":"Canoeing Kayaking","county":"Kerry","type":"Content","excerpt":null,"address":"Fenit, Tralee, Co. Kerry","tel":"+353 (0)87 760 6795","images":null,"lat":"52.275726318359375","lng":"-9.868711471557617"},"fields":{"slug":"/section-directory-content/canoeing-kayaking/tralee-bay-sailing-school/"}}},{"node":{"frontmatter":{"title":"Burren Outdoor Education Centre","category":"Canoeing Kayaking","county":"Clare","type":"Content","excerpt":null,"address":"Turlough, Bellharbour, Co. Clare","tel":"+353 (0)65 707 8066","images":null,"lat":"53.09101867675781","lng":"-9.075420379638672"},"fields":{"slug":"/section-directory-content/canoeing-kayaking/burren-outdoor-education-centre/"}}},{"node":{"frontmatter":{"title":"Wolfhound Adventure Tours","category":"Canoeing Kayaking","county":"Roscommon","type":"Content","excerpt":null,"address":"Lee's Cottage, Ballymore West, Boyle, Co. Roscommon","tel":"+353 (0)87 666 5049","images":null,"lat":"53.96666717529297","lng":"-8.300000190734863"},"fields":{"slug":"/section-directory-content/canoeing-kayaking/wolfhound-adventure-tours/"}}},{"node":{"frontmatter":{"title":"Valentia Island Sea Sports and Adventure Centre","category":"Canoeing Kayaking","county":"Kerry","type":"Content","excerpt":null,"address":"Knightstown, Valentia Island, Co. Kerry","tel":"+353 (0)66 947 6204","images":null,"lat":"51.92509460449219","lng":"-10.290797233581543"},"fields":{"slug":"/section-directory-content/canoeing-kayaking/valentia-island-sea-sports-and-adventure-centre/"}}}]}},"pageContext":{"isCreatedByStatefulCreatePages":false,"slug":"/section-directory/canoeing-kayaking/","category":"Canoeing Kayaking"}}}