{"componentChunkName":"component---src-templates-section-directory-js","path":"/section-directory/french-restaurants/","webpackCompilationHash":"","result":{"data":{"markdownRemark":{"html":"","frontmatter":{"category":"French Restaurants"}},"allMarkdownRemark":{"distinct":["Cavan","Cork","Donegal","Dublin","Kildare","Limerick","Meath","Monaghan","Sligo","Waterford","Wexford","Wicklow"],"edges":[{"node":{"frontmatter":{"title":"Azur Brasserie and Cafe","category":"French Restaurants","county":"Limerick","type":"Content","excerpt":null,"address":"36 O'Connell Street, Limerick City Centre, Co. Limerick","tel":"+353 (0)61 31 4994","images":null,"lat":"52.66472244262695","lng":"-8.623055458068848"},"fields":{"slug":"/section-directory-content/french-restaurants/azur-brasserie-and-cafe/"}}},{"node":{"frontmatter":{"title":"Bon Appetit Restaurant","category":"French Restaurants","county":"Dublin","type":"Content","excerpt":null,"address":"9 St. James Terrace, Malahide, Co. Dublin, Fingal","tel":"+353 (0)1 845 0314","images":null,"lat":"53.44115447998047","lng":"-6.163462162017822"},"fields":{"slug":"/section-directory-content/french-restaurants/bon-appetit-restaurant/"}}},{"node":{"frontmatter":{"title":"Bodga Restaurant","category":"French Restaurants","county":"Waterford","type":"Content","excerpt":null,"address":"54 John Street, Waterford City, Waterford","tel":"+353 (0)51 84 4177","images":null,"lat":"52.2578239440918","lng":"-7.111546039581299"},"fields":{"slug":"/section-directory-content/french-restaurants/bodga-restaurant/"}}},{"node":{"frontmatter":{"title":"Bells and Bianconi Room","category":"French Restaurants","county":"Waterford","type":"Content","excerpt":null,"address":"Granville Hotel, The Quay, Waterford City Centre, Co. Waterford","tel":"+353 (0)51 85 5111","images":null,"lat":"52.26203536987305","lng":"-7.108635425567627"},"fields":{"slug":"/section-directory-content/french-restaurants/bells-and-bianconi-room/"}}},{"node":{"frontmatter":{"title":"Charters","category":"French Restaurants","county":"Dublin","type":"Content","excerpt":null,"address":"5 Saint James Terrace, Malahide, Co. Dublin","tel":"+353 (0)18 45 0833","images":null,"lat":"53.44162368774414","lng":"-6.164646148681641"},"fields":{"slug":"/section-directory-content/french-restaurants/charters/"}}},{"node":{"frontmatter":{"title":"Blueberrys","category":"French Restaurants","county":"Dublin","type":"Content","excerpt":null,"address":"15 Main Street, Blackrock, Co. Dublin","tel":"+353 (0)12 78 8900","images":null,"lat":"53.30147933959961","lng":"-6.177946090698242"},"fields":{"slug":"/section-directory-content/french-restaurants/blueberrys/"}}},{"node":{"frontmatter":{"title":"Cafe Rouge","category":"French Restaurants","county":"Dublin","type":"Content","excerpt":null,"address":"1 Saint Andrews Street, Dublin City Centre, Co. Dublin, Dublin 2","tel":"+353 (0)16 79 1357","images":null,"lat":"53.34434509277344","lng":"-6.261751651763916"},"fields":{"slug":"/section-directory-content/french-restaurants/cafe-rouge/"}}},{"node":{"frontmatter":{"title":"Brunos Temple Bar","category":"French Restaurants","county":"Dublin","type":"Content","excerpt":null,"address":"30 East Essex Street, Temple Bar, Dublin City Centre, Co. Dublin","tel":"+353 (0)16 70 6767","images":null,"lat":"53.34520721435547","lng":"-6.265440464019775"},"fields":{"slug":"/section-directory-content/french-restaurants/brunos-temple-bar/"}}},{"node":{"frontmatter":{"title":"Castle Murray House","category":"French Restaurants","county":"Donegal","type":"Content","excerpt":null,"address":"Saint Johns Point, Dunkineely, Co. Donegal","tel":"+353 (0)74 973 7022","images":null,"lat":"54.56935501098633","lng":"-8.459567070007324"},"fields":{"slug":"/section-directory-content/french-restaurants/castle-murray-house/"}}},{"node":{"frontmatter":{"title":"Fitzers Cafe Dawson Street","category":"French Restaurants","county":"Dublin","type":"Content","excerpt":null,"address":"51 Dawson Street, Dublin City Centre, Co. Dublin, Dublin 2","tel":"+353 (0)16 77 1155","images":null,"lat":"53.34147644042969","lng":"-6.2585649490356445"},"fields":{"slug":"/section-directory-content/french-restaurants/fitzers-cafe-dawson-street/"}}},{"node":{"frontmatter":{"title":"Fitzers Cafe National Gallery","category":"French Restaurants","county":"Dublin","type":"Content","excerpt":null,"address":"Millennium Wing National Gallery, Merrion Square, Dublin City Centre, Co. Dublin, Dublin 2","tel":"+353 (0)16 63 3500","images":null,"lat":"53.3414192199707","lng":"-6.252036094665527"},"fields":{"slug":"/section-directory-content/french-restaurants/fitzers-cafe-national-gallery/"}}},{"node":{"frontmatter":{"title":"Hacketts Bar","category":"French Restaurants","county":"Cork","type":"Content","excerpt":null,"address":"Main Street, Schull, Co. Cork","tel":"+353 (0)28 28 625","images":null,"lat":"51.526336669921875","lng":"-9.548206329345703"},"fields":{"slug":"/section-directory-content/french-restaurants/hacketts-bar/"}}},{"node":{"frontmatter":{"title":"Footprints Restaurant","category":"French Restaurants","county":"Wexford","type":"Content","excerpt":null,"address":"Whitford House Hotel, New Line Road, Wexford, Co. Wexford","tel":"+353 (0)53 914 3444","images":null,"lat":"52.331398010253906","lng":"-6.474421977996826"},"fields":{"slug":"/section-directory-content/french-restaurants/footprints-restaurant/"}}},{"node":{"frontmatter":{"title":"La Boheme Restaurant","category":"French Restaurants","county":"Waterford","type":"Content","excerpt":null,"address":"La Boh??me, 2 George Street, Co. Waterford","tel":"+353 (0)51 87 5645","images":null,"lat":"52.262943267822266","lng":"-7.117288112640381"},"fields":{"slug":"/section-directory-content/french-restaurants/la-boheme-restaurant/"}}},{"node":{"frontmatter":{"title":"Franzini OBriens","category":"French Restaurants","county":"Meath","type":"Content","excerpt":null,"address":"Trim, Co. Meath","tel":"+353 (0)46 943 1002","images":null,"lat":"53.55360794067383","lng":"-6.780640125274658"},"fields":{"slug":"/section-directory-content/french-restaurants/franzini-obriens/"}}},{"node":{"frontmatter":{"title":"La Cave Wine Bar and Restaurant","category":"French Restaurants","county":"Dublin","type":"Content","excerpt":null,"address":"28 South Anne Street, Co. Dublin, 2","tel":"+353 (0)1 679 4409","images":null,"lat":"53.34286117553711","lng":"-6.260340213775635"},"fields":{"slug":"/section-directory-content/french-restaurants/la-cave-wine-bar-and-restaurant/"}}},{"node":{"frontmatter":{"title":"Lawlors Of Naas","category":"French Restaurants","county":"Kildare","type":"Content","excerpt":null,"address":"Lawlors Restaurant, Poplar Square, Naas, Co. Kildare","tel":"+353 (0)45 89 7332","images":null,"lat":"53.21431350708008","lng":"-6.667946815490723"},"fields":{"slug":"/section-directory-content/french-restaurants/lawlors-of-naas/"}}},{"node":{"frontmatter":{"title":"La Mere Zou","category":"French Restaurants","county":"Dublin","type":"Content","excerpt":null,"address":"22 St Stephens Green, Co. Dublin, 2","tel":"+353 (0)1 661 6669","images":null,"lat":"53.33931350708008","lng":"-6.257452011108398"},"fields":{"slug":"/section-directory-content/french-restaurants/la-mere-zou/"}}},{"node":{"frontmatter":{"title":"Jolly Roger Tavern","category":"French Restaurants","county":"Cork","type":"Content","excerpt":null,"address":"Sherkin Island, Co. Cork","tel":"+353 (0)28 20 379","images":null,"lat":"51.460662841796875","lng":"-9.425224304199219"},"fields":{"slug":"/section-directory-content/french-restaurants/jolly-roger-tavern/"}}},{"node":{"frontmatter":{"title":"LAthmosphere","category":"French Restaurants","county":"Waterford","type":"Content","excerpt":null,"address":"19 Henrietta Street, Waterford City, Co. Waterford","tel":"+353 (0)51 85 8426","images":null,"lat":"52.26154327392578","lng":"-7.121082782745361"},"fields":{"slug":"/section-directory-content/french-restaurants/lathmosphere/"}}},{"node":{"frontmatter":{"title":"Colannade Restaurant","category":"French Restaurants","county":"Dublin","type":"Content","excerpt":null,"address":"The Grand Hotel, Malahide, Co. Dublin","tel":"+353 (0)18 45 0000","images":null,"lat":"53.45074462890625","lng":"-6.147271633148193"},"fields":{"slug":"/section-directory-content/french-restaurants/colannade-restaurant/"}}},{"node":{"frontmatter":{"title":"Jacobs Ladder","category":"French Restaurants","county":"Dublin","type":"Content","excerpt":null,"address":"4 Nassau Street, Dublin City Centre, Co. Dublin, Dubilin 2","tel":"+353 (0)16 70 3865","images":null,"lat":"53.34212875366211","lng":"-6.255040168762207"},"fields":{"slug":"/section-directory-content/french-restaurants/jacobs-ladder/"}}},{"node":{"frontmatter":{"title":"Markree Castle Restaurant","category":"French Restaurants","county":"Sligo","type":"Content","excerpt":null,"address":"Collooney, Co. Sligo","tel":"+353 (0)71 916 7800","images":null,"lat":"54.18256759643555","lng":"-8.505581855773926"},"fields":{"slug":"/section-directory-content/french-restaurants/markree-castle-restaurant/"}}},{"node":{"frontmatter":{"title":"Nuremore Hotel","category":"French Restaurants","county":"Monaghan","type":"Content","excerpt":null,"address":"Nuremore Hotel, Carrickmacross, Co. Monaghan","tel":"+353 (0)42 966 1438","images":null,"lat":"53.96293258666992","lng":"-6.694983005523682"},"fields":{"slug":"/section-directory-content/french-restaurants/nuremore-hotel/"}}},{"node":{"frontmatter":{"title":"Patrick Guilbaud","category":"French Restaurants","county":"Dublin","type":"Content","excerpt":null,"address":"The Merrion Hotel, 21 Upper Merrion Street, Co. Dublin, 2","tel":"+353 (0)1 676 4192","images":null,"lat":"53.340938568115234","lng":"-6.251710414886475"},"fields":{"slug":"/section-directory-content/french-restaurants/patrick-guilbaud/"}}},{"node":{"frontmatter":{"title":"Pizzas N Cream","category":"French Restaurants","county":"Wicklow","type":"Content","excerpt":null,"address":"98 Albert Walk, Bray, Co. Wicklow","tel":"+353 (0)12 86 1606","images":null,"lat":"53.19833755493164","lng":"-6.100098133087158"},"fields":{"slug":"/section-directory-content/french-restaurants/pizzas-n-cream/"}}},{"node":{"frontmatter":{"title":"Rafters Restaurant","category":"French Restaurants","county":"Wexford","type":"Content","excerpt":null,"address":"Boggans, Kilmuckridge, Gorey, Co. Wexford","tel":"+353 (0)53 913 0181","images":null,"lat":"52.670711517333984","lng":"-6.300334930419922"},"fields":{"slug":"/section-directory-content/french-restaurants/rafters-restaurant/"}}},{"node":{"frontmatter":{"title":"Old Mill Restaurant","category":"French Restaurants","county":"Dublin","type":"Content","excerpt":null,"address":"14 Temple Bar, Dublin city centre, Co. Dublin, Dublin 2","tel":"+353 (0)16 71 9262","images":null,"lat":"53.34564971923828","lng":"-6.263004779815674"},"fields":{"slug":"/section-directory-content/french-restaurants/old-mill-restaurant/"}}},{"node":{"frontmatter":{"title":"Pearl Brasserie","category":"French Restaurants","county":"Dublin","type":"Content","excerpt":null,"address":"20 Merrion Street Upper,, Dublin city centre, Co. Dublin, Dublin 2","tel":"+353 (0)16 61 3572","images":null,"lat":"53.3382568359375","lng":"-6.253246784210205"},"fields":{"slug":"/section-directory-content/french-restaurants/pearl-brasserie/"}}},{"node":{"frontmatter":{"title":"Poulaphouca House","category":"French Restaurants","county":"Wicklow","type":"Content","excerpt":null,"address":"Holywood, Hollywood, Co. Wicklow","tel":"+353 (0)45 86 4412","images":null,"lat":"53.097572326660156","lng":"-6.59616756439209"},"fields":{"slug":"/section-directory-content/french-restaurants/poulaphouca-house/"}}},{"node":{"frontmatter":{"title":"Strand Seafood Restaurant","category":"French Restaurants","county":"Waterford","type":"Content","excerpt":null,"address":"Strand Inn, Dunmore East, Co. Waterford","tel":"+353 (0)51 38 3174","images":null,"lat":"52.148162841796875","lng":"-7.006591320037842"},"fields":{"slug":"/section-directory-content/french-restaurants/strand-seafood-restaurant/"}}},{"node":{"frontmatter":{"title":"Tante Zoes","category":"French Restaurants","county":"Dublin","type":"Content","excerpt":null,"address":"1a Crowe Street, Temple Bar, Co. Dublin, 2","tel":"+353 (0)1 679 4407","images":null,"lat":"53.339393615722656","lng":"-6.262884140014648"},"fields":{"slug":"/section-directory-content/french-restaurants/tante-zoes/"}}},{"node":{"frontmatter":{"title":"Le Montmartre","category":"French Restaurants","county":"Sligo","type":"Content","excerpt":null,"address":"Market Yard, Sligo Town, Co. Sligo","tel":"+353 (0)71 916 9901","images":null,"lat":"54.26930236816406","lng":"-8.474884033203125"},"fields":{"slug":"/section-directory-content/french-restaurants/le-montmartre/"}}},{"node":{"frontmatter":{"title":"Rodneys Bistro","category":"French Restaurants","county":"Dublin","type":"Content","excerpt":null,"address":"Cabinteely, Cabinteely, Co. Dublin, Dublin 8","tel":"+353 (0)12 85 1664","images":null,"lat":"53.26106262207031","lng":"-6.1500983238220215"},"fields":{"slug":"/section-directory-content/french-restaurants/rodneys-bistro/"}}},{"node":{"frontmatter":{"title":"Reynards Restaurant at Errigal Country House Hotel","category":"French Restaurants","county":"Cavan","type":"Content","excerpt":null,"address":"Cavan Road, Cootehill, Co. Cavan","tel":"+353 (0)49 555 6901","images":null,"lat":"54.0724983215332","lng":"-7.081944465637207"},"fields":{"slug":"/section-directory-content/french-restaurants/reynards-restaurant-at-errigal-country-house-hotel/"}}},{"node":{"frontmatter":{"title":"Vino Veritas","category":"French Restaurants","county":"Dublin","type":"Content","excerpt":null,"address":"18 Exchequer Street, Co. Dublin, 2","tel":"+353 (0)1 672 7323","images":null,"lat":"53.34294891357422","lng":"-6.263234615325928"},"fields":{"slug":"/section-directory-content/french-restaurants/vino-veritas/"}}},{"node":{"frontmatter":{"title":"Les Gourmandises","category":"French Restaurants","county":"Cork","type":"Content","excerpt":null,"address":"17 Cook Street,, Cork City Centre, Co. Cork","tel":"+353 (0)21 425 1959","images":null,"lat":"51.89861297607422","lng":"-8.495833396911621"},"fields":{"slug":"/section-directory-content/french-restaurants/les-gourmandises/"}}},{"node":{"frontmatter":{"title":"The Wild Geese Restaurant","category":"French Restaurants","county":"Limerick","type":"Content","excerpt":null,"address":"Main Street, Adare, Co. Limerick","tel":"+353 (0)61 39 6451","images":null,"lat":"52.56437683105469","lng":"-8.790398597717285"},"fields":{"slug":"/section-directory-content/french-restaurants/the-wild-geese-restaurant/"}}},{"node":{"frontmatter":{"title":"Bantry Bay Hotel Restaurant","category":"French Restaurants","county":"Cork","type":"Content","excerpt":null,"address":"Wolfe Tone Square, Bantry, Co. Cork","tel":"+353 (0)27 50 062","images":null,"lat":"51.68025588989258","lng":"-9.454097747802734"},"fields":{"slug":"/section-directory-content/french-restaurants/bantry-bay-hotel-restaurant/"}}},{"node":{"frontmatter":{"title":"McGrattans In The Lane","category":"French Restaurants","county":"Dublin","type":"Content","excerpt":null,"address":"76 Fitzwilliam Lane, Dublin city cente, Co. Dublin, Dublin 2","tel":"+353 (0)16 61 8808","images":null,"lat":"53.338531494140625","lng":"-6.251298427581787"},"fields":{"slug":"/section-directory-content/french-restaurants/mcgrattans-in-the-lane/"}}},{"node":{"frontmatter":{"title":"The Barn Restaurant","category":"French Restaurants","county":"Cork","type":"Content","excerpt":null,"address":"Lotamore, Glanmire, Co. Cork","tel":"+353 (0)21 486 6211","images":null,"lat":"51.90618896484375","lng":"-8.407090187072754"},"fields":{"slug":"/section-directory-content/french-restaurants/the-barn-restaurant/"}}},{"node":{"frontmatter":{"title":"Russell Room Restaurant","category":"French Restaurants","county":"Dublin","type":"Content","excerpt":null,"address":"The Westbury Hotel, Grafton Street, Co. Dublin, 2","tel":"+353 (0)1 679 1122","images":null,"lat":"53.34161376953125","lng":"-6.260481357574463"},"fields":{"slug":"/section-directory-content/french-restaurants/russell-room-restaurant/"}}}]}},"pageContext":{"isCreatedByStatefulCreatePages":false,"slug":"/section-directory/french-restaurants/","category":"French Restaurants"}}}