{"componentChunkName":"component---src-templates-section-directory-js","path":"/section-directory/horse-racing/","webpackCompilationHash":"","result":{"data":{"markdownRemark":{"html":"","frontmatter":{"category":"Horse Racing"}},"allMarkdownRemark":{"distinct":["Antrim","Derry","Louth","Mayo"],"edges":[{"node":{"frontmatter":{"title":"Dundalk Stadium","category":"Horse Racing","county":"Louth","type":"Content","excerpt":null,"address":"Racecourse Road, Dundalk, Co. Louth","tel":"+353 (0)42 933 4438","images":null,"lat":"54.01907730102539","lng":"-6.384562015533447"},"fields":{"slug":"/section-directory-content/horse-racing/dundalk-stadium/"}}},{"node":{"frontmatter":{"title":"Oldpark Racing","category":"Horse Racing","county":"Antrim","type":"Content","excerpt":null,"address":"247, Oldpark Rd, Belfast, Co. Antrim BT14 6QR","tel":"028 9075 6734","images":null,"lat":"54.615569","lng":"-5.950778"},"fields":{"slug":"/section-directory-content/horse-racing/oldpark-racing/"}}},{"node":{"frontmatter":{"title":"McBride Racing","category":"Horse Racing","county":"Derry","type":"Content","excerpt":null,"address":"Whitehouse Retail Park, Buncrana Rd, Derry, Co. Derry BT48 8LB","tel":"028 7126 8200","images":null,"lat":"55.026528","lng":"-7.344999"},"fields":{"slug":"/section-directory-content/horse-racing/mcbride-racing/"}}},{"node":{"frontmatter":{"title":"Ballinrobe Race Meetings","category":"Horse Racing","county":"Mayo","type":"Content","excerpt":null,"address":"Ballinrobe Racecourse, Ballinrobe, Co. Mayo","tel":"+353 (0)94 954 1811","images":null,"lat":"53.63333511352539","lng":"-9.233333587646484"},"fields":{"slug":"/section-directory-content/horse-racing/ballinrobe-race-meetings/"}}},{"node":{"frontmatter":{"title":"P.J McCartan Racing","category":"Horse Racing","county":"Antrim","type":"Content","excerpt":null,"address":"94, Shaws Rd, Belfast, Co. Antrim BT11 9PR","tel":"028 9028 2803","images":null,"lat":"54.576625","lng":"-6.010759"},"fields":{"slug":"/section-directory-content/horse-racing/pj-mccartan-racing/"}}},{"node":{"frontmatter":{"title":"Star Racing","category":"Horse Racing","county":"Antrim","type":"Content","excerpt":null,"address":"7, Donegall Lane, Belfast, Co. Antrim BT1 2LZ","tel":"028 9031 4445","images":null,"lat":"54.604948","lng":"-5.930795"},"fields":{"slug":"/section-directory-content/horse-racing/star-racing/"}}}]}},"pageContext":{"isCreatedByStatefulCreatePages":false,"slug":"/section-directory/horse-racing/","category":"Horse Racing"}}}