{"componentChunkName":"component---src-templates-section-directory-js","path":"/section-directory/swimming-pools/","webpackCompilationHash":"","result":{"data":{"markdownRemark":{"html":"","frontmatter":{"category":"Swimming Pools"}},"allMarkdownRemark":{"distinct":["Antrim","Clare","Cork","Derry","Donegal","Down","Dublin","Kildare","Leitrim","Louth","Offaly","Sligo","Tipperary","Tyrone","Waterford","Westmeath","Wexford","Wicklow"],"edges":[{"node":{"frontmatter":{"title":"Aquasun Leisure Products","category":"Swimming Pools","county":"Antrim","type":"Content","excerpt":null,"address":"Unit 17, Pennybridge Industrial Estate, Ballymena, Co. Antrim, BT42 3HB","tel":"028 2565 9123","images":null,"lat":"054.8483360000","lng":"-006.2576440000"},"fields":{"slug":"/section-directory-content/swimming-pools/aquasun-leisure-products/"}}},{"node":{"frontmatter":{"title":"Andersonstown Leisure Centre","category":"Swimming Pools","county":"Antrim","type":"Content","excerpt":null,"address":"Andersonstown Road, Belfast, Co. Antrim, BT11 9BY","tel":"028 9072 6311","images":null,"lat":"054.5734980000","lng":"-005.9887870000"},"fields":{"slug":"/section-directory-content/swimming-pools/andersonstown-leisure-centre/"}}},{"node":{"frontmatter":{"title":"Activities Ireland","category":"Swimming Pools","county":"Antrim","type":"Content","excerpt":null,"address":"187 Lower Braniel Road, Belfast, Co. Antrim, BT5 7NP","tel":"+44 (0)84 5439 2048","images":null,"lat":"54.59572982788086","lng":"-5.936308860778809"},"fields":{"slug":"/section-directory-content/swimming-pools/activities-ireland/"}}},{"node":{"frontmatter":{"title":"Archview Physiotherapy Pain and Sports Injury Clinic","category":"Swimming Pools","county":"Dublin","type":"Content","excerpt":null,"address":"32 Ranelagh rd, Dublin 6 Co. Dublin","tel":"(01)4913228","images":null,"lat":"53.328406","lng":"-6.258946"},"fields":{"slug":"/section-directory-content/swimming-pools/archview-physiotherapy-pain-and-sports-injury-clinic/"}}},{"node":{"frontmatter":{"title":"Aura Drogheda Leisure Centre","category":"Swimming Pools","county":"Louth","type":"Content","excerpt":null,"address":"Marley Lane, Drogheda, Co. Louth","tel":"+353 (0)41 987 4478","images":null,"lat":"53.71587371826172","lng":"-6.3499531745910645"},"fields":{"slug":"/section-directory-content/swimming-pools/aura-drogheda-leisure-centre/"}}},{"node":{"frontmatter":{"title":"Aura Leitrim Leisure","category":"Swimming Pools","county":"Leitrim","type":"Content","excerpt":null,"address":"Attifinlay, Carrick On Shannon, Co. Leitrim","tel":"+353 (0)71 967 1771","images":null,"lat":"53.94853210449219","lng":"-8.080466270446777"},"fields":{"slug":"/section-directory-content/swimming-pools/aura-leitrim-leisure/"}}},{"node":{"frontmatter":{"title":"Benone Tourist Complex","category":"Swimming Pools","county":"Derry","type":"Content","excerpt":null,"address":"Benone Tourist Complex, 53 Benone Avenue, Limavady, Co. Derry, BT49 0LQ","tel":"+44 (0)28 7775 0555","images":null,"lat":"55.05282974243164","lng":"-6.949748992919922"},"fields":{"slug":"/section-directory-content/swimming-pools/benone-tourist-complex/"}}},{"node":{"frontmatter":{"title":"Ards Leisure Centre","category":"Swimming Pools","county":"Down","type":"Content","excerpt":null,"address":"Ards Leisure Centre, William Street, Newtownards, Down, BT23 4EJ","tel":"+44 (0)28 9181 2837","images":null,"lat":"54.594329833984375","lng":"-5.70030403137207"},"fields":{"slug":"/section-directory-content/swimming-pools/ards-leisure-centre/"}}},{"node":{"frontmatter":{"title":"Aura Tullamore Leisure Centre","category":"Swimming Pools","county":"Offaly","type":"Content","excerpt":null,"address":"Hophill Road, Tullamore, Co. Offaly","tel":"+353 (0)57 932 9392","images":null,"lat":"53.26710510253906","lng":"-7.4875969886779785"},"fields":{"slug":"/section-directory-content/swimming-pools/aura-tullamore-leisure-centre/"}}},{"node":{"frontmatter":{"title":"Athlone Regional Sports Centre","category":"Swimming Pools","county":"Westmeath","type":"Content","excerpt":null,"address":"Ballymahon Road, Athlone, Co. Westmeath","tel":"+353 (0)90 64 70975","images":null,"lat":"53.435699462890625","lng":"-7.8958353996276855"},"fields":{"slug":"/section-directory-content/swimming-pools/athlone-regional-sports-centre/"}}},{"node":{"frontmatter":{"title":"Ballysillan Leisure Centre","category":"Swimming Pools","county":"Antrim","type":"Content","excerpt":null,"address":"Ballysillan Road, Belfast, Co. Antrim, BT14 7QP","tel":"028 9091 8731","images":null,"lat":"054.6212510000","lng":"-005.9739910000"},"fields":{"slug":"/section-directory-content/swimming-pools/ballysillan-leisure-centre/"}}},{"node":{"frontmatter":{"title":"City Swimming Baths","category":"Swimming Pools","county":"Derry","type":"Content","excerpt":null,"address":"City Swimming Baths, William Street, Derry, Derry, BT48 9AD","tel":"+44 (0)28 7126 4459","images":null,"lat":"54.9918098449707","lng":"-7.320168972015381"},"fields":{"slug":"/section-directory-content/swimming-pools/city-swimming-baths/"}}},{"node":{"frontmatter":{"title":"Cascade Swimming Pools and Hot Tubs Ltd","category":"Swimming Pools","county":"Dublin","type":"Content","excerpt":null,"address":"12 Leopardstown Lawn Blackrock Co. Dublin Co. Dublin","tel":"(01)2825055","images":null,"lat":"53.275008","lng":"-6.194749"},"fields":{"slug":"/section-directory-content/swimming-pools/cascade-swimming-pools-and-hot-tubs-ltd/"}}},{"node":{"frontmatter":{"title":"Aura Letterkenny Leisure Complex","category":"Swimming Pools","county":"Donegal","type":"Content","excerpt":null,"address":"Sallaghagrane,, Letterkenny, Co. Donegal","tel":"+353 (0)74 910 6422","images":null,"lat":"54.94747543334961","lng":"-7.74953556060791"},"fields":{"slug":"/section-directory-content/swimming-pools/aura-letterkenny-leisure-complex/"}}},{"node":{"frontmatter":{"title":"Claremorris Leisure Centre","category":"Swimming Pools","county":"Clare","type":"Content","excerpt":null,"address":"Claremorris Leisure Centre, Dalton Street, Claremorris, Co. Mayo","tel":"+353 (0)94 937 1313","images":null,"lat":"53.71666717529297","lng":"-9.0"},"fields":{"slug":"/section-directory-content/swimming-pools/claremorris-leisure-centre/"}}},{"node":{"frontmatter":{"title":"Clondalkin Sports And Leisure Centre","category":"Swimming Pools","county":"Dublin","type":"Content","excerpt":null,"address":"Nangor Road, Clondalkin, Co. Dublin","tel":"+353 (0)14 57 4858","images":null,"lat":"53.32189178466797","lng":"-6.399085521697998"},"fields":{"slug":"/section-directory-content/swimming-pools/clondalkin-sports-and-leisure-centre/"}}},{"node":{"frontmatter":{"title":"Coral Leisure Wicklow","category":"Swimming Pools","county":"Wicklow","type":"Content","excerpt":null,"address":"Station Road, Wicklow Town, Co. Wicklow","tel":"+353 (0)40 46 6831 (/2)","images":null,"lat":"52.986141204833984","lng":"-6.052654266357422"},"fields":{"slug":"/section-directory-content/swimming-pools/coral-leisure-wicklow/"}}},{"node":{"frontmatter":{"title":"Clonmel Swimming Pool","category":"Swimming Pools","county":"Tipperary","type":"Content","excerpt":null,"address":"Emmet Street, Clonmel, Co. Tipperary","tel":"+353 (0)52 21 972","images":null,"lat":"52.35841369628906","lng":"-7.707235813140869"},"fields":{"slug":"/section-directory-content/swimming-pools/clonmel-swimming-pool/"}}},{"node":{"frontmatter":{"title":"Coolock Swimming Pool","category":"Swimming Pools","county":"Dublin","type":"Content","excerpt":null,"address":"Northside Shopping Centre, Coolock, Co. Dublin, Dublin 5","tel":"+353 (0)18 47 7743","images":null,"lat":"53.387977600097656","lng":"-6.212202548980713"},"fields":{"slug":"/section-directory-content/swimming-pools/coolock-swimming-pool/"}}},{"node":{"frontmatter":{"title":"Cookstown Leisure Centre","category":"Swimming Pools","county":"Tyrone","type":"Content","excerpt":null,"address":"Cookstown Leisure Centre, Fountain Road, Cookstown, Tyrone, BT80 8QF","tel":"+44 (0)28 8676 3856","images":null,"lat":"54.64448928833008","lng":"-6.744750022888184"},"fields":{"slug":"/section-directory-content/swimming-pools/cookstown-leisure-centre/"}}},{"node":{"frontmatter":{"title":"Grove Leisure Centre Swimming Pool","category":"Swimming Pools","county":"Cork","type":"Content","excerpt":null,"address":"Cork Road, Bandon, Co. Cork","tel":"+353 (0)23 884 1643","images":null,"lat":"51.74993896484375","lng":"-8.735709190368652"},"fields":{"slug":"/section-directory-content/swimming-pools/grove-leisure-centre-swimming-pool/"}}},{"node":{"frontmatter":{"title":"COMBER LEISURE CENTRE","category":"Swimming Pools","county":"Down","type":"Content","excerpt":null,"address":"Enler Recreation Park, Castle St, Comber, Newtownards, Co. Down BT23 5DY","tel":"028 9187 4350","images":null,"lat":"54.551208","lng":"-5.74757"},"fields":{"slug":"/section-directory-content/swimming-pools/comber-leisure-centre/"}}},{"node":{"frontmatter":{"title":"Ferrycarrig Active Health and Fitness Club","category":"Swimming Pools","county":"Wexford","type":"Content","excerpt":null,"address":"Ferrycarrig Hotel Wexford Co. Wexford","tel":"(053)9120555","images":null,"lat":"52.35421726","lng":"-6.505980842"},"fields":{"slug":"/section-directory-content/swimming-pools/ferrycarrig-active-health-and-fitness-club/"}}},{"node":{"frontmatter":{"title":"Forest Park Leisure Centre","category":"Swimming Pools","county":"Wexford","type":"Content","excerpt":null,"address":"Forest Park Leisure Centre, Courtown Harbour, Courtown, Co. Wexford","tel":"+353 (0)53 942 4849","images":null,"lat":"52.64888381958008","lng":"-6.22925329208374"},"fields":{"slug":"/section-directory-content/swimming-pools/forest-park-leisure-centre/"}}},{"node":{"frontmatter":{"title":"Jim Watt Sports Centre","category":"Swimming Pools","county":"Derry","type":"Content","excerpt":null,"address":"Kinard Park, Garvagh, Coleraine, Co. Derry BT51 5NQ","tel":"028 2955 8686","images":null,"lat":"054.9778430000","lng":"-006.6850500000"},"fields":{"slug":"/section-directory-content/swimming-pools/jim-watt-sports-centre/"}}},{"node":{"frontmatter":{"title":"Kilkeel Leisure Centre and Swimming Pool","category":"Swimming Pools","county":"Down","type":"Content","excerpt":null,"address":"Mourne Esplanade, Kilkeel, Newry, Co. Down BT34 4DB","tel":"028 4176 4666","images":null,"lat":"54.056267","lng":"-6.001215"},"fields":{"slug":"/section-directory-content/swimming-pools/kilkeel-leisure-centre-and-swimming-pool/"}}},{"node":{"frontmatter":{"title":"Crumlin Health Centre And Swimming Pool","category":"Swimming Pools","county":"Dublin","type":"Content","excerpt":null,"address":"Crumlin Shopping Centre, Dublin City Area South, Co. Dublin, Dublin 12","tel":"+353 (0)14 54 4549","images":null,"lat":"53.31766128540039","lng":"-6.320191860198975"},"fields":{"slug":"/section-directory-content/swimming-pools/crumlin-health-centre-and-swimming-pool/"}}},{"node":{"frontmatter":{"title":"Gables Guest House and Leisure Centre","category":"Swimming Pools","county":"Kildare","type":"Content","excerpt":null,"address":"Ryston Kilcullen rd Newbridge Co. Kildare","tel":"(045)435330","images":null,"lat":"53.16557145","lng":"-6.785638068"},"fields":{"slug":"/section-directory-content/swimming-pools/gables-guest-house-and-leisure-centre/"}}},{"node":{"frontmatter":{"title":"LAGAN VALLEY LEISUREPLEX","category":"Swimming Pools","county":"Antrim","type":"Content","excerpt":null,"address":"12, Lisburn Leisure Park, Governors Rd, Lisburn, Co. Antrim BT28 1LP","tel":"028 9267 2121","images":null,"lat":"054.5059200000","lng":"-006.0522890000"},"fields":{"slug":"/section-directory-content/swimming-pools/lagan-valley-leisureplex/"}}},{"node":{"frontmatter":{"title":"La Mon Hotel and Country Club","category":"Swimming Pools","county":"Down","type":"Content","excerpt":null,"address":"41, Gransha Road, Comber, Newtownards, Co. Down, BT23 5RF","tel":"028 9044 8631","images":null,"lat":"054.5488220000","lng":"-005.8185690000"},"fields":{"slug":"/section-directory-content/swimming-pools/la-mon-hotel-and-country-club/"}}},{"node":{"frontmatter":{"title":"Indoor Tennis Centre and Ozone Complex","category":"Swimming Pools","county":"Antrim","type":"Content","excerpt":null,"address":"Ormeau Embankment, Belfast, Co. Antrim, BT6 8LT","tel":"028 9045 8024","images":null,"lat":"054.5908420000","lng":"-005.9134700000"},"fields":{"slug":"/section-directory-content/swimming-pools/indoor-tennis-centre-and-ozone-complex/"}}},{"node":{"frontmatter":{"title":"Lahinch Seaworld and Leisure Centre","category":"Swimming Pools","county":"Clare","type":"Content","excerpt":null,"address":"The Promenade, Lahinch, Co. Clare","tel":"+353 (0)65 708 1900","images":null,"lat":"52.92642593383789","lng":"-9.353858947753906"},"fields":{"slug":"/section-directory-content/swimming-pools/lahinch-seaworld-and-leisure-centre/"}}},{"node":{"frontmatter":{"title":"K-Leisure Athy and Naas","category":"Swimming Pools","county":"Kildare","type":"Content","excerpt":null,"address":"Stradbally Road Greenhills Athy Co. Kildare Co. Kildare","tel":"(059)8641522","images":null,"lat":"52.99493492","lng":"-6.990843954"},"fields":{"slug":"/section-directory-content/swimming-pools/k-leisure-athy-and-naas/"}}},{"node":{"frontmatter":{"title":"Germac Filtration Services Ltd","category":"Swimming Pools","county":"Antrim","type":"Content","excerpt":null,"address":"269, Upper Lisburn Rd, Finaghy, Belfast, Co. Antrim BT10 0LN","tel":"028 9030 1775","images":null,"lat":"54.557362","lng":"-5.991082"},"fields":{"slug":"/section-directory-content/swimming-pools/germac-filtration-services-ltd/"}}},{"node":{"frontmatter":{"title":"LAKELAND POOLS (Magiline Installers)","category":"Swimming Pools","county":"Westmeath","type":"Content","excerpt":null,"address":"Castlepollard Westmeath Tel Co. Westmeath","tel":"(1890)907415","images":null,"lat":"53.70055227","lng":"-7.305321211"},"fields":{"slug":"/section-directory-content/swimming-pools/lakeland-pools-magiline-installers/"}}},{"node":{"frontmatter":{"title":"Oak Creative Water Engineering","category":"Swimming Pools","county":"Antrim","type":"Content","excerpt":null,"address":"25, Meadowlands, Newtownabbey, Co. Antrim, BT37 0UR","tel":"02890 854167","images":null,"lat":"054.6932530000","lng":"-005.8887950000"},"fields":{"slug":"/section-directory-content/swimming-pools/oak-creative-water-engineering/"}}},{"node":{"frontmatter":{"title":"Oasis Leisure - Hydropool Ireland","category":"Swimming Pools","county":"Antrim","type":"Content","excerpt":null,"address":"Unit 17, Crescent Business Park, Lisburn, Co. Antrim, BT28 2GN","tel":"028 9244 2026","images":null,"lat":"054.5139860000","lng":"-006.0723100000"},"fields":{"slug":"/section-directory-content/swimming-pools/oasis-leisure---hydropool-ireland/"}}},{"node":{"frontmatter":{"title":"Mespil Swimming Pool","category":"Swimming Pools","county":"Dublin","type":"Content","excerpt":null,"address":"Mespil Pool, Mespil Apartments, Sussex Rd. (Corner of Mespil rd - Sussex rd) (D4) Co. Dublin","tel":"(01)6684626","images":null,"lat":"53.33222329","lng":"-6.251354947"},"fields":{"slug":"/section-directory-content/swimming-pools/mespil-swimming-pool/"}}},{"node":{"frontmatter":{"title":"Seven Towers Leisure Centre","category":"Swimming Pools","county":"Antrim","type":"Content","excerpt":null,"address":"Trostan Avenue, Ballymena, Co. Antrim BT43 7BL","tel":"028 2556 8159","images":null,"lat":"054.8625160000","lng":"-006.2696740000"},"fields":{"slug":"/section-directory-content/swimming-pools/seven-towers-leisure-centre/"}}},{"node":{"frontmatter":{"title":"Marian College Swimming Pool","category":"Swimming Pools","county":"Dublin","type":"Content","excerpt":null,"address":"Marian College, Lansdowne Road, Dublin City Area South, Co. Dublin","tel":"+353 (0)16 68 9539","images":null,"lat":"53.33308792114258","lng":"-6.2263617515563965"},"fields":{"slug":"/section-directory-content/swimming-pools/marian-college-swimming-pool/"}}},{"node":{"frontmatter":{"title":"Shankill Leisure Centre","category":"Swimming Pools","county":"Antrim","type":"Content","excerpt":null,"address":"100, Shankill Road, Belfast, Co. Antrim, BT13 2BD","tel":"028 9091 8750","images":null,"lat":"054.6039520000","lng":"-005.9470200000"},"fields":{"slug":"/section-directory-content/swimming-pools/shankill-leisure-centre/"}}},{"node":{"frontmatter":{"title":"Mayfield Sports Complex and Fitness Centre","category":"Swimming Pools","county":"Cork","type":"Content","excerpt":null,"address":"Mayfield Com Sch Old Youghal rd Co. Cork","tel":"(021)4505284","images":null,"lat":"51.91268709","lng":"-8.443290065"},"fields":{"slug":"/section-directory-content/swimming-pools/mayfield-sports-complex-and-fitness-centre/"}}},{"node":{"frontmatter":{"title":"Splashworld","category":"Swimming Pools","county":"Waterford","type":"Content","excerpt":null,"address":"Splashworld, Railway Square, Tramore, Co. Waterford","tel":"+353 (0)51 39 0176","images":null,"lat":"52.158931732177734","lng":"-7.166796684265137"},"fields":{"slug":"/section-directory-content/swimming-pools/splashworld/"}}},{"node":{"frontmatter":{"title":"Spirit Health and Fitness","category":"Swimming Pools","county":"Antrim","type":"Content","excerpt":null,"address":"22, Ormeau Avenue, Belfast, Co. Antrim, BT2 8HS","tel":"02890 028 236","images":null,"lat":"054.5930290000","lng":"-005.9300450000"},"fields":{"slug":"/section-directory-content/swimming-pools/spirit-health-and-fitness/"}}},{"node":{"frontmatter":{"title":"Omagh Leisure Complex","category":"Swimming Pools","county":"Tyrone","type":"Content","excerpt":null,"address":"Omagh Leisure Complex, Old Mountfield Road, Omagh, Tyrone, BT79 7EG","tel":"+44 (0)28 8224 6711","images":null,"lat":"54.60470962524414","lng":"-7.293887138366699"},"fields":{"slug":"/section-directory-content/swimming-pools/omagh-leisure-complex/"}}},{"node":{"frontmatter":{"title":"Oasis Leisure Hydropool Ireland","category":"Swimming Pools","county":"Antrim","type":"Content","excerpt":null,"address":"Unit 17, Crescent Business Park, Lisburn, Co. Antrim BT28 2GN","tel":"028 9260 2255","images":null,"lat":"54.513986","lng":"-6.07231"},"fields":{"slug":"/section-directory-content/swimming-pools/oasis-leisure-hydropool-ireland/"}}},{"node":{"frontmatter":{"title":"Queen's University of Belfast Physical Education Centre","category":"Swimming Pools","county":"Antrim","type":"Content","excerpt":null,"address":"Botanic Park, Belfast, Co. Antrim BT9 5EX","tel":"028 9068 1126","images":null,"lat":"54.580539","lng":"-5.93082"},"fields":{"slug":"/section-directory-content/swimming-pools/queens-university-of-belfast-physical-education-centre/"}}},{"node":{"frontmatter":{"title":"Sligo Regional Sports Centre","category":"Swimming Pools","county":"Sligo","type":"Content","excerpt":null,"address":"Cleveragh, Sligo Town, Co. Sligo","tel":"+353 (0)71 916 0539","images":null,"lat":"54.26533508300781","lng":"-8.45553207397461"},"fields":{"slug":"/section-directory-content/swimming-pools/sligo-regional-sports-centre/"}}},{"node":{"frontmatter":{"title":"Waterworld","category":"Swimming Pools","county":"Antrim","type":"Content","excerpt":null,"address":"Waterworld, The Harbour, Portrush, Antrim, BT56 8DF","tel":"+44 (0)28 7082 2001","images":null,"lat":"55.20457077026367","lng":"-6.650444984436035"},"fields":{"slug":"/section-directory-content/swimming-pools/waterworld/"}}},{"node":{"frontmatter":{"title":"Curves","category":"Swimming Pools","county":"Antrim","type":"Content","excerpt":null,"address":"Block B, Prince Regent Commercial Centre, 16, Prince Regent Rd, Belfast, Co. Antrim BT5 6QR","tel":"028 9079 5881","images":null,"lat":"54.581298","lng":"-5.87229"},"fields":{"slug":"/section-directory-content/swimming-pools/curves/"}}}]}},"pageContext":{"isCreatedByStatefulCreatePages":false,"slug":"/section-directory/swimming-pools/","category":"Swimming Pools"}}}