{"componentChunkName":"component---src-templates-section-directory-js","path":"/section-directory/surfing/","webpackCompilationHash":"","result":{"data":{"markdownRemark":{"html":"","frontmatter":{"category":"Surfing"}},"allMarkdownRemark":{"distinct":["Clare","Cork","Donegal","Down","Dublin","Galway","Kerry","Mayo","Sligo","Waterford"],"edges":[{"node":{"frontmatter":{"title":"Blackfield Surf School","category":"Surfing","county":"Mayo","type":"Content","excerpt":null,"address":"Blackfield Surf School, Keel, Achill Island, Co. Mayo","tel":"+353 (0)98 43 590","images":null,"lat":"53.962501525878906","lng":"-9.990278244018555"},"fields":{"slug":"/section-directory-content/surfing/blackfield-surf-school/"}}},{"node":{"frontmatter":{"title":"Lahinch Surf School","category":"Surfing","county":"Clare","type":"Content","excerpt":null,"address":"Ballyfaudeen, Lahinch, Co. Clare","tel":"+353 (0)87 960 9667","images":null,"lat":"52.932254791259766","lng":"-9.34679889678955"},"fields":{"slug":"/section-directory-content/surfing/lahinch-surf-school/"}}},{"node":{"frontmatter":{"title":"Achill Surf and Kayak","category":"Surfing","county":"Mayo","type":"Content","excerpt":null,"address":"Achill Surf and Kayak School, Achill Island, Co. Mayo","tel":"+353 (0)95 34 667","images":null,"lat":"53.97257995605469","lng":"-10.079266548156738"},"fields":{"slug":"/section-directory-content/surfing/achill-surf-and-kayak/"}}},{"node":{"frontmatter":{"title":"Barleycove Surf Camp","category":"Surfing","county":"Cork","type":"Content","excerpt":null,"address":"Barley Cove Beach, Co. Cork","tel":"+353 (0)87 153 2248","images":null,"lat":"51.460914611816406","lng":"-9.777198791503906"},"fields":{"slug":"/section-directory-content/surfing/barleycove-surf-camp/"}}},{"node":{"frontmatter":{"title":"Donegal Adventure Centre","category":"Surfing","county":"Donegal","type":"Content","excerpt":null,"address":"Bay View Avenue, Bundoran, Co. Donegal","tel":"+353 (0)71 984 2418","images":null,"lat":"54.47653579711914","lng":"-8.282201766967773"},"fields":{"slug":"/section-directory-content/surfing/donegal-adventure-centre/"}}},{"node":{"frontmatter":{"title":"Fin McCool Surf School","category":"Surfing","county":"Donegal","type":"Content","excerpt":null,"address":"Finn McCool Surf School, Rossnowlagh, Co. Donegal","tel":"+353 (0)71 985 9020","images":null,"lat":"54.55778884887695","lng":"-8.205696105957031"},"fields":{"slug":"/section-directory-content/surfing/fin-mccool-surf-school/"}}},{"node":{"frontmatter":{"title":"Kingdom Waves Surf School","category":"Surfing","county":"Kerry","type":"Content","excerpt":null,"address":"Banna Beach and Inch Beach, Co. Kerry","tel":"+353 (0)87 744 7958","images":null,"lat":"52.34611129760742","lng":"-9.837587356567383"},"fields":{"slug":"/section-directory-content/surfing/kingdom-waves-surf-school/"}}},{"node":{"frontmatter":{"title":"LSD Kiteboarding","category":"Surfing","county":"Sligo","type":"Content","excerpt":null,"address":"Ballyweelin, Rosses Point, Co. Sligo","tel":"+353 (0)86 805 1390","images":null,"lat":"54.308345794677734","lng":"-8.557107925415039"},"fields":{"slug":"/section-directory-content/surfing/lsd-kiteboarding/"}}},{"node":{"frontmatter":{"title":"Oceanics Walking Tours","category":"Surfing","county":"Waterford","type":"Content","excerpt":null,"address":"The Red Cottage (far end of the Promenade), Riverstown, Tramore, Co. Waterford","tel":"+353 (0)51 39 0944","images":null,"lat":"52.161434173583984","lng":"-7.140285968780518"},"fields":{"slug":"/section-directory-content/surfing/oceanics-walking-tours/"}}},{"node":{"frontmatter":{"title":"Bens Surf Clinic","category":"Surfing","county":"Clare","type":"Content","excerpt":null,"address":"Lahinch, Co. Clare","tel":"+353 (0)86 844 8622","images":null,"lat":"52.936668395996094","lng":"-9.345277786254883"},"fields":{"slug":"/section-directory-content/surfing/bens-surf-clinic/"}}},{"node":{"frontmatter":{"title":"Jamie Knox Watersports","category":"Surfing","county":"Kerry","type":"Content","excerpt":null,"address":"The Maharees, Castlegregory, Co. Kerry","tel":"+353 (0)66 713 9411","images":null,"lat":"52.2999382019043","lng":"-10.029328346252441"},"fields":{"slug":"/section-directory-content/surfing/jamie-knox-watersports/"}}},{"node":{"frontmatter":{"title":"Pure Magic Kitesurfing","category":"Surfing","county":"Dublin","type":"Content","excerpt":null,"address":"370 Clontarf Road, Clontarf, Co. Dublin","tel":"+353 (0)18 05 4912","images":null,"lat":"53.36307907104492","lng":"-6.178439140319824"},"fields":{"slug":"/section-directory-content/surfing/pure-magic-kitesurfing/"}}},{"node":{"frontmatter":{"title":"NI Kitesurfing","category":"Surfing","county":"Down","type":"Content","excerpt":null,"address":"NI Kite Surfing, 14 Ballyrolly Cottages Millisle, Newtownards, Co. Down, BT22 2FE","tel":"+44 (0)79 1202 3321","images":null,"lat":"54.59846115112305","lng":"-5.521908283233643"},"fields":{"slug":"/section-directory-content/surfing/ni-kitesurfing/"}}},{"node":{"frontmatter":{"title":"Strandhill Surf School","category":"Surfing","county":"Sligo","type":"Content","excerpt":null,"address":"Beach Front, Strandhill, Co. Sligo","tel":"+353 (0)71 916 8483","images":null,"lat":"54.271549224853516","lng":"-8.501570701599121"},"fields":{"slug":"/section-directory-content/surfing/strandhill-surf-school/"}}},{"node":{"frontmatter":{"title":"Rossnowlagh Surf Club","category":"Surfing","county":"Donegal","type":"Content","excerpt":null,"address":"Abbeylands, Rossnowlagh Road, Ballyshannon, Co. Donegal","tel":"+353 (0)71 985 2517","images":null,"lat":"54.55778884887695","lng":"-8.205696105957031"},"fields":{"slug":"/section-directory-content/surfing/rossnowlagh-surf-club/"}}},{"node":{"frontmatter":{"title":"Rusheen Bay Windsurfing Centre","category":"Surfing","county":"Galway","type":"Content","excerpt":null,"address":"Rusheen Bay Windsurfing Centre, Rusheen Bay, Salthill, Co. Galway","tel":"+353 (0)87 260 5702","images":null,"lat":"53.27007293701172","lng":"-9.103142738342285"},"fields":{"slug":"/section-directory-content/surfing/rusheen-bay-windsurfing-centre/"}}},{"node":{"frontmatter":{"title":"SDS Inishowen Surf School","category":"Surfing","county":"Donegal","type":"Content","excerpt":null,"address":"Inishowen, Co. Donegal","tel":"+353 (0)87 777 3323","images":null,"lat":"55.20000076293945","lng":"-7.333333492279053"},"fields":{"slug":"/section-directory-content/surfing/sds-inishowen-surf-school/"}}},{"node":{"frontmatter":{"title":"West Coast Surf School","category":"Surfing","county":"Kerry","type":"Content","excerpt":null,"address":"Dingle, Co. Kerry","tel":"+353 (0)86 306 7053","images":null,"lat":"52.141258239746094","lng":"-10.269254684448242"},"fields":{"slug":"/section-directory-content/surfing/west-coast-surf-school/"}}},{"node":{"frontmatter":{"title":"Seventh Wave Surf School","category":"Surfing","county":"Sligo","type":"Content","excerpt":null,"address":"Seventh Wave Surf School, Enniscrone, Co. Sligo","tel":"+353 (0)87 971 6389","images":null,"lat":"54.21480941772461","lng":"-9.089483261108398"},"fields":{"slug":"/section-directory-content/surfing/seventh-wave-surf-school/"}}},{"node":{"frontmatter":{"title":"West Cork Surfing","category":"Surfing","county":"Cork","type":"Content","excerpt":null,"address":"Inchydoney, Clonakilty, Co. Cork","tel":"+353 (0)86 869 5396","images":null,"lat":"51.600852966308594","lng":"-8.871068954467773"},"fields":{"slug":"/section-directory-content/surfing/west-cork-surfing/"}}},{"node":{"frontmatter":{"title":"West Coast Adventure and Surf School","category":"Surfing","county":"Mayo","type":"Content","excerpt":null,"address":"West Coast Adventures and Surf School, Woodpark, Glencorrib, Shrule, Co. Mayo","tel":"+353 (0)87 061 1557","images":null,"lat":"53.63333511352539","lng":"-9.75"},"fields":{"slug":"/section-directory-content/surfing/west-coast-adventure-and-surf-school/"}}},{"node":{"frontmatter":{"title":"Swell Surf School","category":"Surfing","county":"Cork","type":"Content","excerpt":null,"address":"Inch Beach, Whitegate, Co. Cork","tel":"+353 (0)87 980 3206","images":null,"lat":"51.787532806396484","lng":"-8.164774894714355"},"fields":{"slug":"/section-directory-content/surfing/swell-surf-school/"}}},{"node":{"frontmatter":{"title":"The Surfdock Centre","category":"Surfing","county":"Dublin","type":"Content","excerpt":null,"address":"Grand Canal Dock, South Dock Road, Dublin City Area South, Co. Dublin, Dublin 4","tel":"+353 (0)1 668 3945","images":null,"lat":"53.33458709716797","lng":"-6.229301929473877"},"fields":{"slug":"/section-directory-content/surfing/the-surfdock-centre/"}}},{"node":{"frontmatter":{"title":"T-Bay Surf and Wildlife Centre","category":"Surfing","county":"Waterford","type":"Content","excerpt":null,"address":"T-Bay Surf and Wildlife Centre, Tramore, Co. Waterford","tel":"+353 (0)51 39 1297","images":null,"lat":"52.15971374511719","lng":"-7.1396026611328125"},"fields":{"slug":"/section-directory-content/surfing/t-bay-surf-and-wildlife-centre/"}}},{"node":{"frontmatter":{"title":"Freedom Surf School and Adventure","category":"Surfing","county":"Waterford","type":"Content","excerpt":null,"address":"The Beach House, The Gap - Riverstown, Tramore, Co. Waterford","tel":"+353 (0)51 38 6773","images":null,"lat":"52.159881591796875","lng":"-7.147505283355713"},"fields":{"slug":"/section-directory-content/surfing/freedom-surf-school-and-adventure/"}}},{"node":{"frontmatter":{"title":"SurfMayo","category":"Surfing","county":"Mayo","type":"Content","excerpt":null,"address":"SurfMayo, Breaffy, Castlebar, Co. Mayo","tel":"+353 (0)87 621 2508","images":null,"lat":"53.766666412353516","lng":"-9.816666603088379"},"fields":{"slug":"/section-directory-content/surfing/surfmayo/"}}}]}},"pageContext":{"isCreatedByStatefulCreatePages":false,"slug":"/section-directory/surfing/","category":"Surfing"}}}