{"componentChunkName":"component---src-templates-section-directory-js","path":"/section-directory/gardens/","webpackCompilationHash":"","result":{"data":{"markdownRemark":{"html":"","frontmatter":{"category":"Gardens"}},"allMarkdownRemark":{"distinct":["Antrim","Armagh","Carlow","Clare","Cork","Derry","Down","Dublin","Fermanagh","Galway","Kerry","Kildare","Kilkenny","Limerick","Meath","Offaly","Roscommon","Tipperary","Tyrone","Waterford","Wexford","Wicklow"],"edges":[{"node":{"frontmatter":{"title":"Woodville House Walled Garden","category":"Gardens","county":"Galway","type":"Content","excerpt":"Woodville House Walled Garden, located near the Slieve Aughty Mountains in South East Galway, is one of the few places where 'garden follies' can stil...","address":"Ms Margarita Donohue, Woodville House Walled Garden, Craughwell, Co. Galway","tel":"+353 (0)91 84 0986","images":["woodville-house-walled-garden-0.jpg","320","497","woodville-house-walled-garden-1.jpg","262","206","woodville-house-walled-garden-4.jpg","500","333"],"lat":"53.17756271362305","lng":"-8.655694007873535"},"fields":{"slug":"/section-directory-content/gardens/woodville-house-walled-garden/"}}},{"node":{"frontmatter":{"title":"Village Garden and Gift Shop","category":"Gardens","county":"Wexford","type":"Content","excerpt":"Village Garden and Gift Shop in County Wexford is competent to deliver the most perfect bunches of flowers for special days like weddings and annivers...","address":"Garra?? an Bhaile,, Kilmore Quay, Wexford","tel":"+353 (0)53 914 8955","images":null,"lat":"52.17694854736328","lng":"-6.581394195556641"},"fields":{"slug":"/section-directory-content/gardens/village-garden-and-gift-shop/"}}},{"node":{"frontmatter":{"title":"Rathmichael Lodge","category":"Gardens","county":"Dublin","type":"Content","excerpt":"The old world charm of Rathmichael Lodge is so deeply impressive that it will transport one to a different time period. The romantic aura of the place...","address":"Corinne and Richard Hewat, Ballybride Road, Shankill, Co. Dublin","tel":"+353 (0)12 82 2203","images":["rathmichael-lodge-0.jpg","500","350","rathmichael-lodge-1.jpg","262","206","rathmichael-lodge-2.jpg","500","350"],"lat":"53.231773376464844","lng":"-6.135562896728516"},"fields":{"slug":"/section-directory-content/gardens/rathmichael-lodge/"}}},{"node":{"frontmatter":{"title":"The Dower House","category":"Gardens","county":"Wicklow","type":"Content","excerpt":"The gardens surrounding the 18th century Dower House give immense pleasure to the visitors who keep pouring in to see its heavenly beauty all round th...","address":"Rossanagh, Ashford, Co. Wicklow","tel":"+353 (0)40 44 0168","images":["the-dower-house-3.jpg","290","185"],"lat":"53.009212493896484","lng":"-6.108425140380859"},"fields":{"slug":"/section-directory-content/gardens/the-dower-house/"}}},{"node":{"frontmatter":{"title":"Rowallane Garden","category":"Gardens","county":"Down","type":"Content","excerpt":"The Rowallane Garden is a walled garden that is positioned within the demesne landscape. Reverend John Moore laid out the garden during mid-1860. Afte...","address":"Rowallane Garden, Saintfield, Saintfield, Co. Down, BT24 7LH","tel":"+44 (0)28 9751 0131","images":["rowallane-garden-0.jpg","379","206","rowallane-garden-1.jpg","333","500","rowallane-garden-2.jpg","305","200","rowallane-garden-3.jpg","500","374","rowallane-garden-4.jpg","200","273"],"lat":"54.4559211730957","lng":"-5.833075046539307"},"fields":{"slug":"/section-directory-content/gardens/rowallane-garden/"}}},{"node":{"frontmatter":{"title":"Millennium Garden Of Time","category":"Gardens","county":"Cork","type":"Content","excerpt":"The Millennium Garden of Time gets its name and theme from ChiRho page from the Book of Kells, which is a Greek abbreviated monogram for Christ's name...","address":"Youghal, Co. Cork","tel":"+353 (0)21 425 5100","images":["millennium-garden-of-time-0.jpg","262","206","millennium-garden-of-time-1.jpg","500","375"],"lat":"51.95124435424805","lng":"-7.854440212249756"},"fields":{"slug":"/section-directory-content/gardens/millennium-garden-of-time/"}}},{"node":{"frontmatter":{"title":"Killmacomma Garden","category":"Gardens","county":"Tipperary","type":"Content","excerpt":"The Killmacomma in Clonmel, County Tipperary is located in a picturesque wooded area and is being looked after by Pauline and Pat Hegarty from the las...","address":"Kilmacomma, Clonmel, South Tipperary","tel":"+353 (0)52 6122 525","images":null,"lat":"52.35930252075195","lng":"-7.7070536613464355"},"fields":{"slug":"/section-directory-content/gardens/killmacomma-garden/"}}},{"node":{"frontmatter":{"title":"The Gearagh","category":"Gardens","county":"Cork","type":"Content","excerpt":"The Gearagh in County Cork of Ireland is most often identified as the only widespread remains of Alluvial Forest in Western Europe. Of the many things...","address":"Macroom, Co. Cork","tel":"+353 (0)28 21 766","images":["the-gearagh-2.jpg","409","307","the-gearagh-3.jpg","337","450","the-gearagh-4.jpg","256","192"],"lat":"51.88519287109375","lng":"-8.99565315246582"},"fields":{"slug":"/section-directory-content/gardens/the-gearagh/"}}},{"node":{"frontmatter":{"title":"Dunsland Gardens","category":"Gardens","county":"Cork","type":"Content","excerpt":"The Dunsland Garden is located in Glanmire in the southern region of Ireland. This garden was built during 19th century and was restored in the recent...","address":"Dunkettle, Glanmire, Co. Cork","tel":"+353 (0)21 435 4949","images":null,"lat":"51.91851806640625","lng":"-8.406940460205078"},"fields":{"slug":"/section-directory-content/gardens/dunsland-gardens/"}}},{"node":{"frontmatter":{"title":"Dillon Garden","category":"Gardens","county":"Dublin","type":"Content","excerpt":"The Dillon Garden is located outside a private house in Ranelagh which is on the outskirts of Dublin. The garden attracts visitors because of the beau...","address":"45 Sandford Road, Ranelagh, Dublin 6, Co. Dublin","tel":"+353 1 4971308","images":["dillon-garden-1.jpg","300","200","dillon-garden-3.jpg","500","379","dillon-garden-4.jpg","195","300","dillon-garden-5.jpg","219","157","dillon-garden-6.jpg","500","322","dillon-garden-7.jpg","450","293","dillon-garden-8.jpg","450","297","dillon-garden-9.jpg","219","140"],"lat":"53.3213000670844","lng":"-6.24664633448255"},"fields":{"slug":"/section-directory-content/gardens/dillon-garden/"}}},{"node":{"frontmatter":{"title":"Knockpatrick Gardens","category":"Gardens","county":"Limerick","type":"Content","excerpt":"Situated in the town of County Limerick, the Knockpatrick Garden is spread over 3 acres. The garden overlooks the beautiful Shannon Estuary that is lo...","address":"Knockpatrick, Foynes, Co. Limerick","tel":"+353 (0)69 65 256","images":["knockpatrick-gardens-1.jpg","500","333","knockpatrick-gardens-2.jpg","500","333","knockpatrick-gardens-3.jpg","180","269"],"lat":"52.59164047241211","lng":"-9.107933044433594"},"fields":{"slug":"/section-directory-content/gardens/knockpatrick-gardens/"}}},{"node":{"frontmatter":{"title":"Richardsons Walled Garden at Greenmount","category":"Gardens","county":"Antrim","type":"Content","excerpt":"Situated in County Antrium of northern Ireland, the Richardsons Walled Garden at Greenmout was built in 1912. Till late 1980s, the garden was used to...","address":"Richardsons Walled Garden at Greenmount, College of Agriculture, Food and Rural Enterprise Greenmount Campus 22 Greenmount Road, Antrim, Co. Antrim, BT41 4PU","tel":"+44 (0)28 9442 6669","images":["richardsons-walled-garden-at-greenmount-0.jpg","262","206","richardsons-walled-garden-at-greenmount-1.jpg","448","337","richardsons-walled-garden-at-greenmount-2.jpg","250","188"],"lat":"54.698238372802734","lng":"-6.206081867218018"},"fields":{"slug":"/section-directory-content/gardens/richardsons-walled-garden-at-greenmount/"}}},{"node":{"frontmatter":{"title":"Lodge Park Walled Gardens","category":"Gardens","county":"Kildare","type":"Content","excerpt":"Situated close to Steam Museum, the Lodge Park Walled Garden is constructed on the site of 1773 Palladian House. The garden is segregated into several...","address":"Straffan, Co. Kildare","tel":"+353 (0)16 28 8412","images":["lodge-park-walled-gardens-0.jpg","500","374","lodge-park-walled-gardens-1.jpg","500","374"],"lat":"53.312965393066406","lng":"-6.619562149047852"},"fields":{"slug":"/section-directory-content/gardens/lodge-park-walled-gardens/"}}},{"node":{"frontmatter":{"title":"Parkanaur Forest Park","category":"Gardens","county":"Tyrone","type":"Content","excerpt":"Parkanaur Forest Park may not be a well-known place but it is surely one where peace of mind can be had. It neither charges any entry fee nor is it di...","address":"Parkanaur Forest Park, 57 Parkanaur Road, Dungannon, Tyrone, BT70 3AA","tel":"+44 (0)28 8775 9311 (Pomeroy Forestry School)","images":["parkanaur-forest-park-3.jpg","500","333","parkanaur-forest-park-4.jpg","500","359"],"lat":"54.505088806152344","lng":"-6.764308929443359"},"fields":{"slug":"/section-directory-content/gardens/parkanaur-forest-park/"}}},{"node":{"frontmatter":{"title":"Joey Dunlop Memorial Garden","category":"Gardens","county":"Antrim","type":"Content","excerpt":"Opened in May 2001, the garden is dedicated to Joey Dunlop, the successful international motorcycling legend. Born in Ballymoney in 1952, he was award...","address":"Joey Dunlop Memorial Garden, Castle Street Corner of Seymour Street, Ballymoney, Co. Antrim, BT53 6JR","tel":"+44 (0)28 2766 0230","images":["joey-dunlop-memorial-garden-0.jpg","500","375","joey-dunlop-memorial-garden-1.jpg","375","500","joey-dunlop-memorial-garden-2.jpg","500","374","joey-dunlop-memorial-garden-3.jpg","500","374","joey-dunlop-memorial-garden-4.jpg","500","334"],"lat":"55.067169189453125","lng":"-6.51306676864624"},"fields":{"slug":"/section-directory-content/gardens/joey-dunlop-memorial-garden/"}}},{"node":{"frontmatter":{"title":"Saint Josephs Gardens","category":"Gardens","county":"Wicklow","type":"Content","excerpt":"Located in North East Wicklow, the Saint Josephs Garden sprawls over an area of one acre. The picturesque garden sponsors the charity supporting homel...","address":"Old Connaught Avenue, Bray, Co. Wicklow","tel":"+353 (0)12 82 1585","images":["saint-josephs-gardens-0.jpg","500","280","saint-josephs-gardens-4.jpg","482","318"],"lat":"53.198333740234375","lng":"-6.099798679351807"},"fields":{"slug":"/section-directory-content/gardens/saint-josephs-gardens/"}}},{"node":{"frontmatter":{"title":"Springhill House","category":"Gardens","county":"Derry","type":"Content","excerpt":"Located in County Derry, Springhill House is a walled garden that is known as one of the prettiest houses in Ulster. The place was the residence of Le...","address":"Springhill House 20 Springhill Road, Moneymore, County Derry, BT45 7NQ","tel":"+44 (0)28 8674 8210","images":["springhill-house-0.jpg","500","374","springhill-house-1.jpg","460","306"],"lat":"54.6915283203125","lng":"-6.67012882232666"},"fields":{"slug":"/section-directory-content/gardens/springhill-house/"}}},{"node":{"frontmatter":{"title":"Hardymount Garden","category":"Gardens","county":"Carlow","type":"Content","excerpt":"Hardymount Garden is a place in County Carlow, Ireland which entices one to visit it by offering views from grass paths and of a lily pond as part of...","address":"Castlemore, Tullow, Co. Carlow","tel":"+353 59 9151769","images":["hardymount-garden-0.jpg","500","250","hardymount-garden-1.jpg","333","500","hardymount-garden-2.jpg","262","206","hardymount-garden-3.jpg","400","266"],"lat":"52.8070154028003","lng":"-6.73228897891797"},"fields":{"slug":"/section-directory-content/gardens/hardymount-garden/"}}},{"node":{"frontmatter":{"title":"Guy L Wilson Daffodil Garden","category":"Gardens","county":"Derry","type":"Content","excerpt":"Guy L. Wilson Daffodil Garden in County Derry is named after the famous daffodil breeder who did much to promote this plant, whose origin lies outside...","address":"Guy L. Wilson Daffodil Garden, Coleraine, Derry","tel":"+44 (0)28 7032 4431","images":["guy-l-wilson-daffodil-garden-0.jpg","500","374","guy-l-wilson-daffodil-garden-4.jpg","262","206"],"lat":"55.131710052490234","lng":"-6.6742401123046875"},"fields":{"slug":"/section-directory-content/gardens/guy-l-wilson-daffodil-garden/"}}},{"node":{"frontmatter":{"title":"Abbey Road Gardens","category":"Gardens","county":"Waterford","type":"Content","excerpt":"Ferrybank in south of Ireland boast of the Abbey Road Garden spread over three-quarter acres. The cottage style garden is positioned on the site of me...","address":"Abbeylands, Ferrybank, Waterford City, Waterford","tel":"+353 (0)51 85 1111","images":["abbey-road-gardens-0.jpg","262","206"],"lat":"52.26454544067383","lng":"-7.091653347015381"},"fields":{"slug":"/section-directory-content/gardens/abbey-road-gardens/"}}},{"node":{"frontmatter":{"title":"Kildare Lodge Gardens","category":"Gardens","county":"Waterford","type":"Content","excerpt":"Dunmore East in the County Waterford has one of the popular attraction, Kildare Lodge Gardens. This garden spreads over an area of 1&frac12; acre and...","address":"Kildare Lodge, Kilmacleague, Dunmore East, Waterford","tel":"+353 (0)51 38 1591","images":["kildare-lodge-gardens-0.jpg","262","206"],"lat":"52.17329406738281","lng":"-7.074471950531006"},"fields":{"slug":"/section-directory-content/gardens/kildare-lodge-gardens/"}}},{"node":{"frontmatter":{"title":"The Manor Gardens","category":"Gardens","county":"Cork","type":"Content","excerpt":"Dunmanway Cork in south Ireland boasts the beautiful Manor Gardens. Sprawling over a vast area of one acre, the garden comprises of a lawn and terrace...","address":"The Manor, Knockane, Dunmanway, Co. Cork","tel":"+353 (0)23 884 5725","images":["the-manor-gardens-0.jpg","240","155","the-manor-gardens-2.jpg","269","450","the-manor-gardens-4.jpg","500","375"],"lat":"51.68778610229492","lng":"-9.057847023010254"},"fields":{"slug":"/section-directory-content/gardens/the-manor-gardens/"}}},{"node":{"frontmatter":{"title":"Dahlia Garden","category":"Gardens","county":"Kilkenny","type":"Content","excerpt":"Dahlia Garden is located in The Rower which is a small village of in County Kilkenny. This Irish tourist attraction sprawls over an area of half an ac...","address":"Charlefield, The Rower, Co. Kilkenny","tel":"+353 51 422386","images":["dahlia-garden-1.jpg","500","375","dahlia-garden-2.jpg","500","332","dahlia-garden-3.jpg","500","375","dahlia-garden-4.jpg","500","333","dahlia-garden-5.jpg","340","270","dahlia-garden-6.jpg","350","470","dahlia-garden-7.jpg","300","225","dahlia-garden-8.jpg","500","375","dahlia-garden-9.jpg","500","302"],"lat":"52.4559390848769","lng":"-6.95785890675764"},"fields":{"slug":"/section-directory-content/gardens/dahlia-garden/"}}},{"node":{"frontmatter":{"title":"Bunratty Castle Gardens","category":"Gardens","county":"Clare","type":"Content","excerpt":"Bunratty Castle Gardens is one of the popular places from where one can explore the rolling landscape of West Clare. The place also allows one to delv...","address":"Bunratty, Bunratty, Clare","tel":"+353 (0)61 36 0788 (360788)","images":["bunratty-castle-gardens-1.jpg","262","206","bunratty-castle-gardens-5.jpg","288","325","bunratty-castle-gardens-7.jpg","500","295"],"lat":"52.6966667175293","lng":"-8.815555572509766"},"fields":{"slug":"/section-directory-content/gardens/bunratty-castle-gardens/"}}},{"node":{"frontmatter":{"title":"Hamwood House and Gardens","category":"Gardens","county":"Meath","type":"Content","excerpt":"Built in 1768, the Hamwood House is a Palladian Georgian house that is located in Dunboyne. The place is one of the popular destinations in the town o...","address":"Dunboyne, Co. Meath","tel":"+353 (0)18 25 5210","images":["hamwood-house-and-gardens-4.jpg","500","391"],"lat":"53.410400390625","lng":"-6.481510639190674"},"fields":{"slug":"/section-directory-content/gardens/hamwood-house-and-gardens/"}}},{"node":{"frontmatter":{"title":"Bellfield House Gardens","category":"Gardens","county":"Offaly","type":"Content","excerpt":"Bellfield House Gardens is the place where the garden designer Angela Jupe dwells. The owner has designed a garden area measuring 2 acres and bound by...","address":"Shinrone, Birr, South Offaly","tel":"+353 (0)50 54 7766","images":["bellfield-house-gardens-2.jpg","500","332","bellfield-house-gardens-3.jpg","500","332"],"lat":"53.09138870239258","lng":"-7.913333415985107"},"fields":{"slug":"/section-directory-content/gardens/bellfield-house-gardens/"}}},{"node":{"frontmatter":{"title":"The Hermitage Garden","category":"Gardens","county":"Down","type":"Content","excerpt":"A beautiful country garden situated in the Ballynahinch, Northern Ireland, is spread over an area of fourteen acres. Celebrated for its Rhododendron f...","address":"14 Drumaconnell Road Saintfield, Ballynahinch, Co. Down, BT24 7NB","tel":"+44 (0)28 9751 0232","images":["the-hermitage-garden-0.jpg","332","500","the-hermitage-garden-1.jpg","500","374","the-hermitage-garden-2.jpg","371","500","the-hermitage-garden-3.jpg","500","406","the-hermitage-garden-4.jpg","375","500"],"lat":"54.44749450683594","lng":"-5.844915866851807"},"fields":{"slug":"/section-directory-content/gardens/the-hermitage-garden/"}}},{"node":{"frontmatter":{"title":"7 Mount Charles North Garden","category":"Gardens","county":"Down","type":"Content","excerpt":null,"address":"7 Mount Charles North Bessbrook, Newry, Co. Down, BT35 7DW","tel":"+44 (0)28 3083 8006","images":null,"lat":"54.19623565673828","lng":"-6.390922546386719"},"fields":{"slug":"/section-directory-content/gardens/7-mount-charles-north-garden/"}}},{"node":{"frontmatter":{"title":"Ballard Park Gardens","category":"Gardens","county":"Wicklow","type":"Content","excerpt":null,"address":"Ballard Park, Ballinaclash, Rathdrum, Co. Wicklow","tel":"+353 (0)40 44 6251","images":null,"lat":"52.921714782714844","lng":"-6.245022773742676"},"fields":{"slug":"/section-directory-content/gardens/ballard-park-gardens/"}}},{"node":{"frontmatter":{"title":"Ballyrobert Cottage Garden and Nursery","category":"Gardens","county":"Antrim","type":"Content","excerpt":null,"address":"Ballyrobert Cottage Garden and Nursery, 154 Ballyrobert Road, Ballyclare, Co. Antrim, BT39 9RT","tel":"+44 (0)28 9332 2952","images":null,"lat":"54.75114822387695","lng":"-5.998569011688232"},"fields":{"slug":"/section-directory-content/gardens/ballyrobert-cottage-garden-and-nursery/"}}},{"node":{"frontmatter":{"title":"Brocklamont House Garden","category":"Gardens","county":"Antrim","type":"Content","excerpt":null,"address":"2 Old Galgorm Road, Ballymena, Co. Antrim, BT42 1AL","tel":"+44 (0)28 2564 1469","images":null,"lat":"54.861106872558594","lng":"-6.295894145965576"},"fields":{"slug":"/section-directory-content/gardens/brocklamont-house-garden/"}}},{"node":{"frontmatter":{"title":"Benvarden Garden","category":"Gardens","county":"Antrim","type":"Content","excerpt":null,"address":"Benvarden Garden, 36 Benvarden Road, Dervock, Co. Antrim","tel":"+44 (0)28 2074 1331","images":null,"lat":"55.12324523925781","lng":"-6.470130920410156"},"fields":{"slug":"/section-directory-content/gardens/benvarden-garden/"}}},{"node":{"frontmatter":{"title":"Castlecoote House Gardens and Home of the Percy French Summer School","category":"Gardens","county":"Roscommon","type":"Content","excerpt":null,"address":"Castlecoote, Co. Roscommon","tel":"+353 (0)90 666 3794","images":null,"lat":"53.613468170166016","lng":"-8.298872947692871"},"fields":{"slug":"/section-directory-content/gardens/castlecoote-house-gardens-and-home-of-the-percy-french-summer-school/"}}},{"node":{"frontmatter":{"title":"Castletown Glebe Garden","category":"Gardens","county":"Tipperary","type":"Content","excerpt":null,"address":"Castletown Garden, Castlelough, Portroe, North Tipperary","tel":"+353 (0)67 03 318","images":null,"lat":"52.88249969482422","lng":"-8.3502779006958"},"fields":{"slug":"/section-directory-content/gardens/castletown-glebe-garden/"}}},{"node":{"frontmatter":{"title":"Dublin Garden Group","category":"Gardens","county":"Dublin","type":"Content","excerpt":null,"address":"18 Waltham Terrace, Blackrock, Co. Dublin, Co. Dublin","tel":"+353 (0)12 83 2934","images":null,"lat":"53.25063705444336","lng":"-6.177473068237305"},"fields":{"slug":"/section-directory-content/gardens/dublin-garden-group/"}}},{"node":{"frontmatter":{"title":"Crom Estate Co. Fermanagh","category":"Gardens","county":"Fermanagh","type":"Content","excerpt":null,"address":"Crom Demesne, Upper Lough Erne Newtownbutler, Co. Fermanagh, BT92 8AP","tel":"+44 (0)28 6773 8118","images":null,"lat":"54.1820182800293","lng":"-7.360599040985107"},"fields":{"slug":"/section-directory-content/gardens/crom-estate-co-fermanagh/"}}},{"node":{"frontmatter":{"title":"Garinish Island","category":"Gardens","county":"Cork","type":"Content","excerpt":null,"address":"F??ilte Ireland South West Region, ??ras F??ilte, Grand Parade, Cork, Cork","tel":"+353 (0)21 425 5100","images":null,"lat":"51.73676681518555","lng":"-9.543342590332031"},"fields":{"slug":"/section-directory-content/gardens/garinish-island/"}}},{"node":{"frontmatter":{"title":"Knockreer House And Gardens","category":"Gardens","county":"Kerry","type":"Content","excerpt":null,"address":"Knockreer Estate, Killarney National Park, Killarney, Co. Kerry","tel":"+353 (0)64 663 1633","images":null,"lat":"52.06059265136719","lng":"-9.531442642211914"},"fields":{"slug":"/section-directory-content/gardens/knockreer-house-and-gardens/"}}},{"node":{"frontmatter":{"title":"Muckross House Gardens And Traditional Farms","category":"Gardens","county":"Kerry","type":"Content","excerpt":null,"address":"Muckross House, Killarney National Park, Killarney, Co. Kerry","tel":"+353 (0)64 667 0144","images":null,"lat":"52.02111053466797","lng":"-9.519389152526855"},"fields":{"slug":"/section-directory-content/gardens/muckross-house-gardens-and-traditional-farms/"}}},{"node":{"frontmatter":{"title":"Mount Stewart House and Gardens","category":"Gardens","county":"Down","type":"Content","excerpt":null,"address":"Mount Stewart House and Gardens, Portaferry Road, Newtownards, Down, BT22 2AD","tel":"+44 (0)28 4278 8387","images":null,"lat":"54.594329833984375","lng":"-5.70030403137207"},"fields":{"slug":"/section-directory-content/gardens/mount-stewart-house-and-gardens/"}}},{"node":{"frontmatter":{"title":"Mussenden Temple and Downhill Demesne","category":"Gardens","county":"Down","type":"Content","excerpt":null,"address":"Downhill Demesne and Mussenden Temple, 1 mile west of Castlerock, Downhill, Castlerock, Derry, BT51 4RP","tel":"+44 (0)28 2073 1582","images":null,"lat":"55.16853332519531","lng":"-6.807496070861816"},"fields":{"slug":"/section-directory-content/gardens/mussenden-temple-and-downhill-demesne/"}}},{"node":{"frontmatter":{"title":"Limerick Garden Trail - 6 of the best gardens in the Region","category":"Gardens","county":"Limerick","type":"Content","excerpt":null,"address":"Boyce Gardens, Mountrenchard, Foynes, Co. Limerick","tel":"+353 (0)69 65 302","images":null,"lat":"52.599151611328125","lng":"-9.16153335571289"},"fields":{"slug":"/section-directory-content/gardens/limerick-garden-trail---6-of-the-best-gardens-in-the-region/"}}},{"node":{"frontmatter":{"title":"Malone House","category":"Gardens","county":"Antrim","type":"Content","excerpt":null,"address":"Malone House, Barnett Demesne Upper Malone Rd, Belfast, Antrim","tel":"+44 (0)28 9068 1246","images":null,"lat":"54.59572982788086","lng":"-5.936308860778809"},"fields":{"slug":"/section-directory-content/gardens/malone-house/"}}},{"node":{"frontmatter":{"title":"Tannaghmore Gardens Farm Museum","category":"Gardens","county":"Armagh","type":"Content","excerpt":null,"address":"Tannaghmore Gardens Farm And Museum, Tannaghmorre Gardens Farm/Museum Silverwood, Craigavon, Co. Armagh","tel":"+44 (0)28 3834 3244","images":null,"lat":"54.45169448852539","lng":"-6.397026062011719"},"fields":{"slug":"/section-directory-content/gardens/tannaghmore-gardens-farm-museum/"}}},{"node":{"frontmatter":{"title":"Timpany Nurseries and gardens","category":"Gardens","county":"Down","type":"Content","excerpt":null,"address":"77 Magheratimpany Road, Ballynahinch, Co. Down, BT24 8PA","tel":"+44 (0)28 9756 2812","images":null,"lat":"54.37293243408203","lng":"-5.882178783416748"},"fields":{"slug":"/section-directory-content/gardens/timpany-nurseries-and-gardens/"}}},{"node":{"frontmatter":{"title":"The Memorial Garden","category":"Gardens","county":"Tyrone","type":"Content","excerpt":null,"address":"The Memorial Garden, Drumragh Avenue, Omagh, Tyrone, BT78 1DP","tel":"+44 (0)28 8224 7831","images":null,"lat":"54.5994987487793","lng":"-7.305112838745117"},"fields":{"slug":"/section-directory-content/gardens/the-memorial-garden/"}}},{"node":{"frontmatter":{"title":"Tollymore Forest Park","category":"Gardens","county":"Down","type":"Content","excerpt":null,"address":"Tollymore Forest Park, East District Forest Office Castlewellan Forest Park, Castlewellan, Co. Down, BT31 9BU","tel":"+44 (0)28 4372 2428","images":null,"lat":"54.2081298828125","lng":"-5.8950958251953125"},"fields":{"slug":"/section-directory-content/gardens/tollymore-forest-park/"}}},{"node":{"frontmatter":{"title":"Tramore House Gardens","category":"Gardens","county":"Waterford","type":"Content","excerpt":null,"address":"Tramore House Gardens, Pond Road, Tramore, Co. Waterford","tel":"+353 (0)51 39 5555","images":null,"lat":"52.16332244873047","lng":"-7.149880409240723"},"fields":{"slug":"/section-directory-content/gardens/tramore-house-gardens/"}}},{"node":{"frontmatter":{"title":"28 Kilfaddy Road Garden","category":"Gardens","county":"Derry","type":"Content","excerpt":null,"address":"28 Killyfaddy Road, Magherafelt, Co. Derry, BT45 6EX","tel":"+44 (0)28 7963 2180","images":null,"lat":"54.7392692565918","lng":"-6.605699062347412"},"fields":{"slug":"/section-directory-content/gardens/28-kilfaddy-road-garden/"}}},{"node":{"frontmatter":{"title":"Festival Garden Trail - Tipperary","category":"Gardens","county":"Tipperary","type":"Content","excerpt":null,"address":"Killurney, Clonmel, South Tipperary","tel":"+353 (0)52 613 3155","images":null,"lat":"52.377811431884766","lng":"-7.924654960632324"},"fields":{"slug":"/section-directory-content/gardens/festival-garden-trail---tipperary/"}}}]}},"pageContext":{"isCreatedByStatefulCreatePages":false,"slug":"/section-directory/gardens/","category":"Gardens"}}}