{"componentChunkName":"component---src-templates-section-directory-js","path":"/section-directory/castles/","webpackCompilationHash":"","result":{"data":{"markdownRemark":{"html":"","frontmatter":{"category":"Castles"}},"allMarkdownRemark":{"distinct":["Antrim","Armagh","Carlow","Clare","Cork","Donegal","Down","Dublin","Fermanagh","Galway","Kerry","Kildare","Laois","Leitrim","Limerick","Longford","Mayo","Meath","Offaly","Roscommon","Tipperary North","Tipperary South","Tyrone","Waterford","Wexford","Wicklow"],"edges":[{"node":{"frontmatter":{"title":"Birr Castle","category":"Castles","county":"Offaly","type":"Content","excerpt":"The castles of Ireland remind of the glorious past of the country and are among the  most visited tourist destinations. Birr Castle is an edifice situ...","address":"Birr, Co. Offaly","tel":"+353 (0)57 912 0336","images":["birr-castle-1.jpg","448","301","birr-castle-2.jpg","346","461","birr-castle-3.jpg","300","258","birr-castle-5.jpg","500","374","birr-castle-7.jpg","500","374","birr-castle-8.jpg","250","196","birr-castle-9.jpg","500","365"],"lat":"53.09657287597656","lng":"-7.925525188446045"},"fields":{"slug":"/section-directory-content/castles/birr-castle/"}}},{"node":{"frontmatter":{"title":"Blarney Castle","category":"Castles","county":"Cork","type":"Content","excerpt":"The Blarney Castle, situated near the River Martin, is one of Ireland’s classic  tourist destinations. Picturesque location of the castle on the edge...","address":"Blarney, Co. Cork","tel":"+353 (0)21 438 5252","images":["blarney-castle-0.jpg","500","363","blarney-castle-1.jpg","450","452","blarney-castle-2.jpg","415","332","blarney-castle-3.jpg","288","384","blarney-castle-4.jpg","268","400","blarney-castle-5.jpg","320","240","blarney-castle-6.jpg","500","375","blarney-castle-7.jpg","500","375","blarney-castle-8.jpg","500","333","blarney-castle-9.jpg","375","500"],"lat":"51.9315071105957","lng":"-8.57121467590332"},"fields":{"slug":"/section-directory-content/castles/blarney-castle/"}}},{"node":{"frontmatter":{"title":"Oranmore Castle","category":"Castles","county":"Galway","type":"Content","excerpt":"Splendid  castles and monuments can be seen in almost every county and town of Ireland.  Oranmore Castle situated in Oranmore town of County Galway sh...","address":"Oranmore, Co. Galway","tel":"+353 (0)87 263 8720","images":["oranmore-castle-0.jpg","320","240","oranmore-castle-1.jpg","219","300","oranmore-castle-2.jpg","250","188","oranmore-castle-3.jpg","500","375","oranmore-castle-4.jpg","500","332"],"lat":"53.270957946777344","lng":"-8.919207572937012"},"fields":{"slug":"/section-directory-content/castles/oranmore-castle/"}}},{"node":{"frontmatter":{"title":"Ballymalis Castle","category":"Castles","county":"Kerry","type":"Content","excerpt":"Situated on the banks of River Luane, Ballymalis Castle is one of the standard tower castles of County Kerry. It is positioned about 4 miles from Kill...","address":" Ballymalis, Beaufort, Co. Kerry","tel":"+353 (0)64 663 1633","images":["ballymalis-castle-0.jpg","500","363","ballymalis-castle-1.jpg","500","327","ballymalis-castle-4.jpg","375","500","ballymalis-castle-5.jpg","500","312","ballymalis-castle-8.jpg","375","500"],"lat":"52.091976165771484","lng":"-9.689352989196777"},"fields":{"slug":"/section-directory-content/castles/ballymalis-castle/"}}},{"node":{"frontmatter":{"title":"Roscommon Castle","category":"Castles","county":"Roscommon","type":"Content","excerpt":"Situated in the Irish Midlands, County  Roscommon is a peaceful area with some of the glorious cultural attractions and  well preserved rich historica...","address":"Roscommon, Co. Roscommon","tel":"NOVAL","images":["roscommon-castle-0.jpg","500","374","roscommon-castle-1.jpg","490","368","roscommon-castle-2.jpg","300","200","roscommon-castle-3.jpg","500","374","roscommon-castle-4.jpg","500","375"],"lat":"53.6333","lng":"-8.1833"},"fields":{"slug":"/section-directory-content/castles/roscommon-castle/"}}},{"node":{"frontmatter":{"title":"Castleforbes","category":"Castles","county":"Longford","type":"Content","excerpt":"Seat of the Earls of Granard, Castleforbes is a magnificent castle situated about  three miles from Longford town in county Longford  Standing between...","address":"Newtownforbes, Co. Longford","tel":"NOVAL","images":["castleforbes-1.jpg","200","150","castleforbes-2.jpg","500","375"],"lat":"53.76961627099961","lng":"-7.8607177734375"},"fields":{"slug":"/section-directory-content/castles/castleforbes/"}}},{"node":{"frontmatter":{"title":"Dunamase Castle","category":"Castles","county":"Laois","type":"Content","excerpt":"One of the most strategically sited castles in Ireland, Dunamase  Castle was built in the second half of the 12th century and was  originally used as...","address":"Newtownforbes, Co. Laois","tel":"NOVAL","images":["dunamase-castle-1.jpg","250","167","dunamase-castle-2.jpg","500","243","dunamase-castle-4.jpg","500","296"],"lat":"53.031717","lng":"-7.210679"},"fields":{"slug":"/section-directory-content/castles/dunamase-castle/"}}},{"node":{"frontmatter":{"title":"Donamon Castle","category":"Castles","county":"Roscommon","type":"Content","excerpt":"One of  the oldest inhabited buildings in Ireland, Donamon Castle is an architectural  marvel located in County Roscommon in the Republic of Ireland....","address":" Divine Word Missionaries, Donamon Castle, Roscommon","tel":"+353 (0)90 666 2222","images":["donamon-castle-1.jpg","500","301","donamon-castle-2.jpg","320","240","donamon-castle-3.jpg","500","373","donamon-castle-7.jpg","500","321"],"lat":"53.62805938720703","lng":"-8.188820838928223"},"fields":{"slug":"/section-directory-content/castles/donamon-castle/"}}},{"node":{"frontmatter":{"title":"Clontarf Castle","category":"Castles","county":"Dublin","type":"Content","excerpt":"Now  turned into a hotel with the most modern amenities, Clontarf Castle has always  been a much-admired place in Ireland. Its current location was th...","address":"Clontarf, Dublin, Co. Dublin","tel":"+353 1 8332321","images":["clontarf-castle-0.jpg","360","263","clontarf-castle-1.jpg","500","284","clontarf-castle-3.jpg","333","500","clontarf-castle-4.jpg","500","375","clontarf-castle-5.jpg","500","333","clontarf-castle-7.jpg","500","333","clontarf-castle-8.jpg","500","374","clontarf-castle-9.jpg","200","130"],"lat":"53.3653355187428","lng":"-6.20460375001772"},"fields":{"slug":"/section-directory-content/castles/clontarf-castle/"}}},{"node":{"frontmatter":{"title":"Maynooth Castle","category":"Castles","county":"Kildare","type":"Content","excerpt":"Maynooth  Castle in County Kildare has a special place in Irish history as it was a home  to the Fitzgerald family which produced some mighty Earls of...","address":"Maynooth, Co. Kildare","tel":"+353 (0)16 28 6744","images":["maynooth-castle-4.jpg","262","206"],"lat":"53.380950927734375","lng":"-6.594308853149414"},"fields":{"slug":"/section-directory-content/castles/maynooth-castle/"}}},{"node":{"frontmatter":{"title":"Castlederg Castle","category":"Castles","county":"Tyrone","type":"Content","excerpt":"Lying on the estuary of River Derg, the ruined Castlederg Castle is a prominent site of the Castlederg village in county Tyrone. The name of the villa...","address":" Castled erg Castle, Strabane, Co. Tyrone","tel":"+44 (0)28 9054 3034","images":["castlederg-castle-1.jpg","500","332","castlederg-castle-4.jpg","500","332","castlederg-castle-9.jpg","240","160"],"lat":"54.8078498840332","lng":"-7.473030090332031"},"fields":{"slug":"/section-directory-content/castles/castlederg-castle/"}}},{"node":{"frontmatter":{"title":"Clonmore Castle","category":"Castles","county":"Carlow","type":"Content","excerpt":"Located three and a half miles south of Hacketstown and nine miles east of Tullow in the north-east corner, Clonmore is a small village of County Carl...","address":" Clonmore, Clonmore, Co. Carlow","tel":"NOVAL","images":["clonmore-castle-0.jpg","400","300","clonmore-castle-1.jpg","500","375","clonmore-castle-2.jpg","400","267","clonmore-castle-3.jpg","500","375","clonmore-castle-5.jpg","262","206","clonmore-castle-6.jpg","500","375"],"lat":"52.8270149230957","lng":"-6.57508659362793"},"fields":{"slug":"/section-directory-content/castles/clonmore-castle/"}}},{"node":{"frontmatter":{"title":"Aughnanure Castle","category":"Castles","county":"Galway","type":"Content","excerpt":"Located in county Galway, the Aughnanure Castle is one of the popular tower houses amongst the 200 likes situated in the county. Historically, tower h...","address":" Oughterard, Co. Galway","tel":"+353 (0)91 55 2214","images":["aughnanure-castle-0.jpg","250","376","aughnanure-castle-1.jpg","250","188","aughnanure-castle-2.jpg","216","216","aughnanure-castle-4.jpg","265","183","aughnanure-castle-5.jpg","500","374","aughnanure-castle-8.jpg","262","206","aughnanure-castle-9.jpg","350","233"],"lat":"53.42098617553711","lng":"-9.323951721191406"},"fields":{"slug":"/section-directory-content/castles/aughnanure-castle/"}}},{"node":{"frontmatter":{"title":"Carrigogunnell Castle","category":"Castles","county":"Limerick","type":"Content","excerpt":"Located 4 miles away from Mungret to the west, Carrigogunnell Castle is a medieval Irish fortification in county Limerick. Standing on the banks of Ri...","address":" Tourist Information Office, Limerick, Co. Limerick","tel":"+353 (0)61 31 7522","images":["carrigogunnell-castle-1.jpg","500","367","carrigogunnell-castle-2.jpg","500","375","carrigogunnell-castle-3.jpg","333","500","carrigogunnell-castle-4.jpg","307","230","carrigogunnell-castle-6.jpg","500","335"],"lat":"52.64200210571289","lng":"-8.739931106567383"},"fields":{"slug":"/section-directory-content/castles/carrigogunnell-castle/"}}},{"node":{"frontmatter":{"title":"Deel Castle","category":"Castles","county":"Mayo","type":"Content","excerpt":"Deel  Castle also meaning the Castle of the River Deel was built by the Bourkes in 16th  century. This marvelous castle is located near the town of Cr...","address":"Brackloonagh, Co. Mayo","tel":"NOVAL","images":["deel-castle-0.jpg","500","317","deel-castle-1.jpg","455","338","deel-castle-2.jpg","206","250","deel-castle-5.jpg","220","147"],"lat":"54.11080","lng":"-9.25089"},"fields":{"slug":"/section-directory-content/castles/deel-castle/"}}},{"node":{"frontmatter":{"title":"Ballynahow Castle","category":"Castles","county":"Tipperary North","type":"Content","excerpt":"County Tiperrary is home of one of the few round tower houses of Ireland - Ballynahow Castle, which is still in surprisingly good condition. It is loc...","address":" Ballycahill, Thurles, Co. Tipperary","tel":"+353 (0)67 31 610","images":["ballynahow-castle-0.jpg","500","338","ballynahow-castle-1.jpg","310","224","ballynahow-castle-4.jpg","500","331","ballynahow-castle-6.jpg","375","500","ballynahow-castle-7.jpg","321","214","ballynahow-castle-8.jpg","375","500"],"lat":"52.69330596923828","lng":"-7.8779497146606445"},"fields":{"slug":"/section-directory-content/castles/ballynahow-castle/"}}},{"node":{"frontmatter":{"title":"Carrickabraghey Castle","category":"Castles","county":"Donegal","type":"Content","excerpt":"Carrickabraghey Castle is a famous castle that stands on Friars Rock along the shoreline of the Isle of Doagh. Though the year in which this castle wa...","address":" Isle of Doagh, Inishowen Peninsula, Co. Donegal","tel":"+353 (0)74 936 2600","images":["carrickabraghey-castle-1.jpg","500","332","carrickabraghey-castle-2.jpg","500","333","carrickabraghey-castle-3.jpg","500","389","carrickabraghey-castle-4.jpg","300","210","carrickabraghey-castle-5.jpg","500","334","carrickabraghey-castle-6.jpg","500","373","carrickabraghey-castle-8.jpg","400","500"],"lat":"55.30159378051758","lng":"-7.3507513999938965"},"fields":{"slug":"/section-directory-content/castles/carrickabraghey-castle/"}}},{"node":{"frontmatter":{"title":"Bremore Castle","category":"Castles","county":"Dublin","type":"Content","excerpt":"Bremore Castle is a large tower house located north of Balbriggan, County Dublin. Estimated to have been built in the 14th century, the Norman Barnewa...","address":" Balbriggan, Co. Dublin","tel":"+353 (0)1 840 0077","images":["bremore-castle-0.jpg","285","213"],"lat":"53.62034606933594","lng":"-6.199721813201904"},"fields":{"slug":"/section-directory-content/castles/bremore-castle/"}}},{"node":{"frontmatter":{"title":"Belvelly Castle","category":"Castles","county":"Cork","type":"Content","excerpt":"Belvlly Castle is a medieval square tower located in the village of Belvelly in County Cork, and sitting on a thin strip between Fota Island and Great...","address":" Belvelly, Cobh, Co. Cork","tel":"+353 (0)21 425 5100","images":["belvelly-castle-0.jpg","500","375","belvelly-castle-1.jpg","300","225","belvelly-castle-2.jpg","188","250","belvelly-castle-3.jpg","332","500","belvelly-castle-4.jpg","203","152","belvelly-castle-6.jpg","300","225","belvelly-castle-7.jpg","500","375","belvelly-castle-8.jpg","262","206","belvelly-castle-9.jpg","500","333"],"lat":"51.88491439819336","lng":"-8.298725128173828"},"fields":{"slug":"/section-directory-content/castles/belvelly-castle/"}}},{"node":{"frontmatter":{"title":"Askeaton Castle","category":"Castles","county":"Limerick","type":"Content","excerpt":"Askeaton  Castle is situated in a town by the same name that is situated on the banks of  River Deel. It is one of the most beautiful places to visit...","address":"Askeaton, Co. Limerick","tel":"+353 (0)61 39 2149","images":["askeaton-castle-0.jpg","500","434","askeaton-castle-1.jpg","500","374","askeaton-castle-2.jpg","332","500","askeaton-castle-3.jpg","500","333","askeaton-castle-4.jpg","500","378","askeaton-castle-5.jpg","375","500","askeaton-castle-6.jpg","250","188","askeaton-castle-7.jpg","375","500","askeaton-castle-8.jpg","447","500"],"lat":"52.598262786865234","lng":"-8.988189697265625"},"fields":{"slug":"/section-directory-content/castles/askeaton-castle/"}}},{"node":{"frontmatter":{"title":"Ardglass Castle","category":"Castles","county":"Down","type":"Content","excerpt":"A country that is home to some of Europe’s finest castles and is renowned for its  rich culture and history is Ireland. Ardglass Castle is one of the...","address":" Ardglass, Co. Down","tel":"NOVAL","images":["ardglass-castle-3.jpg","500","392","ardglass-castle-5.jpg","250","199","ardglass-castle-8.jpg","500","375"],"lat":"54.2583857433","lng":"-5.60453116591"},"fields":{"slug":"/section-directory-content/castles/ardglass-castle/"}}},{"node":{"frontmatter":{"title":"Altidore Castle","category":"Castles","county":"Wicklow","type":"Content","excerpt":null,"address":" Kilpedder, Co. Wicklow","tel":"+353 (0)87 760 1369","images":null,"lat":"53.11186981201172","lng":"-6.111922264099121"},"fields":{"slug":"/section-directory-content/castles/altidore-castle/"}}},{"node":{"frontmatter":{"title":"Ballyhack Castle","category":"Castles","county":"Wexford","type":"Content","excerpt":null,"address":" Ballyhack Castle, Ballyhack, Co. Wexford","tel":"+353 (0)51 38 9468","images":null,"lat":"52.2468376159668","lng":"-6.974532604217529"},"fields":{"slug":"/section-directory-content/castles/ballyhack-castle/"}}},{"node":{"frontmatter":{"title":"Castle Archdale Museum Display","category":"Castles","county":"Fermanagh","type":"Content","excerpt":null,"address":" Castle Archdale Museum Display, Kesh, Co. Fermanagh","tel":"+44 (0)28 6862 1588","images":null,"lat":"54.346771240234375","lng":"-7.645120143890381"},"fields":{"slug":"/section-directory-content/castles/castle-archdale-museum-display/"}}},{"node":{"frontmatter":{"title":"Dalkey Castle and Heritage Centre","category":"Castles","county":"Dublin","type":"Content","excerpt":null,"address":" Dalkey Castle and Heritage Centre, Castle Steet, Dalkey, Co. Dublin","tel":"+353 (0)1 285 8366","images":null,"lat":"53.27803039550781","lng":"-6.105600833892822"},"fields":{"slug":"/section-directory-content/castles/dalkey-castle-and-heritage-centre/"}}},{"node":{"frontmatter":{"title":"Dunsoghly Castle","category":"Castles","county":"Dublin","type":"Content","excerpt":null,"address":" 4 Newtown, Dunsoghly, Saint Margarets, Co. Dublin, Fingal","tel":"+353 (0)1 840 0077","images":null,"lat":"53.42781066894531","lng":"-6.31838846206665"},"fields":{"slug":"/section-directory-content/castles/dunsoghly-castle/"}}},{"node":{"frontmatter":{"title":"Fitzmaurice Castle","category":"Castles","county":"Kerry","type":"Content","excerpt":null,"address":" Ballybunion, Co. Kerry","tel":"+353 (0)66 712 1288","images":null,"lat":"52.52350997924805","lng":"-9.671728134155273"},"fields":{"slug":"/section-directory-content/castles/fitzmaurice-castle/"}}},{"node":{"frontmatter":{"title":"Farney Castle","category":"Castles","county":"Tipperary North","type":"Content","excerpt":null,"address":" Holycross, Co. Tipperary","tel":"+353 (0)50 44 3281","images":null,"lat":"52.64006423950195","lng":"-7.863827228546143"},"fields":{"slug":"/section-directory-content/castles/farney-castle/"}}},{"node":{"frontmatter":{"title":"Ferriter's Castle","category":"Castles","county":"Kerry","type":"Content","excerpt":null,"address":" Ballyferriter, Tralee, Co. Kerry","tel":"+353 (0)66 915 1188","images":null,"lat":"52.16381072998047","lng":"-10.41735553741455"},"fields":{"slug":"/section-directory-content/castles/ferriters-castle/"}}},{"node":{"frontmatter":{"title":"Dunsany Castle","category":"Castles","county":"Meath","type":"Content","excerpt":null,"address":" Dunsany, Dunshaughlin, Co. Meath","tel":"+353 (0)46 902 6202","images":null,"lat":"53.53533935546875","lng":"-6.594171524047852"},"fields":{"slug":"/section-directory-content/castles/dunsany-castle/"}}},{"node":{"frontmatter":{"title":"Greencastle Royal Castle","category":"Castles","county":"Down","type":"Content","excerpt":null,"address":" Greencastle Royal Castle, Greencastle, Kilkeel, Co. Down","tel":"+44 (0)28 9181 1491","images":null,"lat":"54.04121398925781","lng":"-6.093183517456055"},"fields":{"slug":"/section-directory-content/castles/greencastle-royal-castle/"}}},{"node":{"frontmatter":{"title":"Lismore Castle Gardens and Art Gallery","category":"Castles","county":"Waterford","type":"Content","excerpt":null,"address":" Lismore Castle, Lismore, Co. Waterford","tel":"+353 (0)58 54 424","images":null,"lat":"52.13498306274414","lng":"-7.941132545471191"},"fields":{"slug":"/section-directory-content/castles/lismore-castle-gardens-and-art-gallery/"}}},{"node":{"frontmatter":{"title":"Manorhamilton Castle and Heritage Centre","category":"Castles","county":"Leitrim","type":"Content","excerpt":null,"address":" Castle Street, Manorhamilton, Co. Leitrim","tel":"+353 (0)86 250 2593","images":null,"lat":"54.30572509765625","lng":"-8.178668975830078"},"fields":{"slug":"/section-directory-content/castles/manorhamilton-castle-and-heritage-centre/"}}},{"node":{"frontmatter":{"title":"Killymoon Castle","category":"Castles","county":"Tyrone","type":"Content","excerpt":null,"address":" Killymoon Castle, Killymoon Road, Cookstown, Tyrone, BT80 8TW","tel":"+44 (0)28 8676 3514","images":null,"lat":"54.63541793823242","lng":"-6.736052989959717"},"fields":{"slug":"/section-directory-content/castles/killymoon-castle/"}}},{"node":{"frontmatter":{"title":"Mahee Castle","category":"Castles","county":"Down","type":"Content","excerpt":null,"address":" Mahee Castle, Mahee Island, Comber, BT23 6EP","tel":"+44 (0)28 9182 6846","images":null,"lat":"54.594329833984375","lng":"-5.70030403137207"},"fields":{"slug":"/section-directory-content/castles/mahee-castle/"}}},{"node":{"frontmatter":{"title":"Ormond Castle","category":"Castles","county":"Tipperary South","type":"Content","excerpt":null,"address":" Ormonde Castle, Castle Park, Carrick On Suir, Co. Tipperary","tel":"+353 (0)51 64 0787","images":null,"lat":"52.349205017089844","lng":"-7.427829742431641"},"fields":{"slug":"/section-directory-content/castles/ormond-castle/"}}},{"node":{"frontmatter":{"title":"Gleninagh Castle","category":"Castles","county":"Clare","type":"Content","excerpt":null,"address":" Tourist Information Office, Ennis, Co. Clare","tel":"+353 (0)65 682 8366","images":null,"lat":"53.10878372192383","lng":"-9.164263725280762"},"fields":{"slug":"/section-directory-content/castles/gleninagh-castle/"}}},{"node":{"frontmatter":{"title":"Lismore Castle","category":"Castles","county":"Waterford","type":"Content","excerpt":null,"address":" Lismore Castle, Lismore, Co. Waterford","tel":"+353 (0)58 54 424","images":null,"lat":"52.13498306274414","lng":"-7.941132545471191"},"fields":{"slug":"/section-directory-content/castles/lismore-castle/"}}},{"node":{"frontmatter":{"title":"Minard Castle","category":"Castles","county":"Kerry","type":"Content","excerpt":null,"address":" Minard, Lispole, Co. Kerry","tel":"+353 (0)66 915 1188","images":null,"lat":"52.12675476074219","lng":"-10.108444213867188"},"fields":{"slug":"/section-directory-content/castles/minard-castle/"}}},{"node":{"frontmatter":{"title":"Olderfleet Castle","category":"Castles","county":"Antrim","type":"Content","excerpt":null,"address":" Laren TIC, Tourist Information Centre Narrow Gauge Road Inver, Larne, Co. Antrim, BT40 1XB","tel":"+44 (0)28 2826 0088","images":null,"lat":"54.832035064697266","lng":"-5.802942276000977"},"fields":{"slug":"/section-directory-content/castles/olderfleet-castle/"}}},{"node":{"frontmatter":{"title":"Moyry Castle","category":"Castles","county":"Armagh","type":"Content","excerpt":null,"address":" Newry Tourist Information Centre, Bagenal's Castle Castle Street, Newry, BT34 2DA","tel":"+44 (0)28 3031 3170","images":null,"lat":"54.07011413574219","lng":"-6.3828301429748535"},"fields":{"slug":"/section-directory-content/castles/moyry-castle/"}}},{"node":{"frontmatter":{"title":"Quoile Castle","category":"Castles","county":"Down","type":"Content","excerpt":null,"address":" Quoile Castle, Downpatrick, Down","tel":"+44 (0)28 4423 5000","images":null,"lat":"54.32788848876953","lng":"-5.716700077056885"},"fields":{"slug":"/section-directory-content/castles/quoile-castle/"}}},{"node":{"frontmatter":{"title":"Narrow Water Castle","category":"Castles","county":"Down","type":"Content","excerpt":null,"address":" Narrow Water Castle, Newry Road, Warrenpoint, Down, BT34 3LE","tel":"+44 (0)28 9181 1491","images":null,"lat":"54.10100173950195","lng":"-6.253808975219727"},"fields":{"slug":"/section-directory-content/castles/narrow-water-castle/"}}},{"node":{"frontmatter":{"title":"Shanid Castle","category":"Castles","county":"Limerick","type":"Content","excerpt":null,"address":" Tourist Information Office, Limerick, Co. Limerick","tel":"+353 (0)61 31 7522","images":null,"lat":"52.665122985839844","lng":"-8.626689910888672"},"fields":{"slug":"/section-directory-content/castles/shanid-castle/"}}},{"node":{"frontmatter":{"title":"Desmond Castle Adare","category":"Castles","county":"Limerick","type":"Content","excerpt":null,"address":" Adare Heritage Centre, Main Street, Adare, Co. Limerick","tel":"+353 (0)61 39 6666","images":null,"lat":"52.56819152832031","lng":"-8.78442096710205"},"fields":{"slug":"/section-directory-content/castles/desmond-castle-adare/"}}},{"node":{"frontmatter":{"title":"Redwood Castle","category":"Castles","county":"Tipperary North","type":"Content","excerpt":null,"address":" Lorrha, Co. Tipperary","tel":"+353 (0)94 902 1375","images":null,"lat":"53.14456558227539","lng":"-8.128443717956543"},"fields":{"slug":"/section-directory-content/castles/redwood-castle/"}}},{"node":{"frontmatter":{"title":"Rathfarnham Castle","category":"Castles","county":"Dublin","type":"Content","excerpt":null,"address":" Rathfarnham Castle, Rathfarnham, Dublin City Area South, Co. Dublin","tel":"+353 (0)1 493 9462","images":null,"lat":"53.29805374145508","lng":"-6.283778667449951"},"fields":{"slug":"/section-directory-content/castles/rathfarnham-castle/"}}},{"node":{"frontmatter":{"title":"Slade Castle","category":"Castles","county":"Wexford","type":"Content","excerpt":null,"address":" County Wexford, Churchtown (Rosslare), Co. Wexford","tel":"NOVAL","images":null,"lat":"52.25655746459961","lng":"-6.446449279785156"},"fields":{"slug":"/section-directory-content/castles/slade-castle/"}}},{"node":{"frontmatter":{"title":"Ross Castle","category":"Castles","county":"Galway","type":"Content","excerpt":null,"address":" Ross Castle, Rosscahill, Moycullen, Co. Galway","tel":"+353 (0)91 55 0183","images":null,"lat":"53.33758544921875","lng":"-9.18077278137207"},"fields":{"slug":"/section-directory-content/castles/ross-castle/"}}},{"node":{"frontmatter":{"title":"Stewart Castle","category":"Castles","county":"Tyrone","type":"Content","excerpt":null,"address":" Newtownstewart Castle, Townhall Street, Newtownstewart, BT78 4AX","tel":"+44 (0)28 7138 2204","images":null,"lat":"54.71986389160156","lng":"-7.376019477844238"},"fields":{"slug":"/section-directory-content/castles/stewart-castle/"}}}]}},"pageContext":{"isCreatedByStatefulCreatePages":false,"slug":"/section-directory/castles/","category":"Castles"}}}