{"componentChunkName":"component---src-templates-section-directory-js","path":"/section-directory/irish-restaurants/","webpackCompilationHash":"","result":{"data":{"markdownRemark":{"html":"","frontmatter":{"category":"Irish Restaurants"}},"allMarkdownRemark":{"distinct":["Cavan","Cork","Donegal","Dublin","Galway","Kerry","Kilkenny","Laois","Limerick","Mayo","Roscommon","Waterford","Westmeath","Wexford"],"edges":[{"node":{"frontmatter":{"title":"Bells and Bianconi Room","category":"Irish Restaurants","county":"Waterford","type":"Content","excerpt":null,"address":"Granville Hotel, The Quay, Waterford City Centre, Co. Waterford","tel":"+353 (0)51 85 5111","images":null,"lat":"52.26203536987305","lng":"-7.108635425567627"},"fields":{"slug":"/section-directory-content/irish-restaurants/bells-and-bianconi-room/"}}},{"node":{"frontmatter":{"title":"Chez Ks at the Fitzwilton Hotel","category":"Irish Restaurants","county":"Waterford","type":"Content","excerpt":null,"address":"At the Fitzwilton Hotel, Bridge Street,, Waterford City","tel":"+353 (0)51 84 69 00","images":null,"lat":"52.258914947509766","lng":"-7.104846000671387"},"fields":{"slug":"/section-directory-content/irish-restaurants/chez-ks-at-the-fitzwilton-hotel/"}}},{"node":{"frontmatter":{"title":"Castlelough Restaurant","category":"Irish Restaurants","county":"Kerry","type":"Content","excerpt":null,"address":"The Lake Hotel, Lake Shore, Muckross Road, Killarney, Co. Kerry","tel":"+353 (0)64 663 1035","images":null,"lat":"52.0503044128418","lng":"-9.506091117858887"},"fields":{"slug":"/section-directory-content/irish-restaurants/castlelough-restaurant/"}}},{"node":{"frontmatter":{"title":"Crockets on the Quay Restaurant and Bar","category":"Irish Restaurants","county":"Mayo","type":"Content","excerpt":null,"address":"Crockets on the Quay, Restaurant and Bar, The Quay, Ballina, Co. Mayo","tel":"+353 (0)96 75 930","images":null,"lat":"54.131553649902344","lng":"-9.137234687805176"},"fields":{"slug":"/section-directory-content/irish-restaurants/crockets-on-the-quay-restaurant-and-bar/"}}},{"node":{"frontmatter":{"title":"Crokers Bistro","category":"Irish Restaurants","county":"Limerick","type":"Content","excerpt":null,"address":"Limerick Co. Golf and Country Club, Ballyneety, Limerick City Area East, Co. Limerick","tel":"+353 (0)61 35 1881","images":null,"lat":"52.60070037841797","lng":"-8.560240745544434"},"fields":{"slug":"/section-directory-content/irish-restaurants/crokers-bistro/"}}},{"node":{"frontmatter":{"title":"Druids Restaurant At The Lansdowne Hotel","category":"Irish Restaurants","county":"Dublin","type":"Content","excerpt":null,"address":"Landsdowne Hotel, 27 to 29 Pembroke Road, Dublin City Area South, Co. Dublin","tel":"+353 (0)16 68 2522","images":null,"lat":"53.33171463012695","lng":"-6.2355756759643555"},"fields":{"slug":"/section-directory-content/irish-restaurants/druids-restaurant-at-the-lansdowne-hotel/"}}},{"node":{"frontmatter":{"title":"Fitzers Cafe National Gallery","category":"Irish Restaurants","county":"Dublin","type":"Content","excerpt":null,"address":"Millennium Wing National Gallery, Merrion Square, Dublin City Centre, Co. Dublin, Dublin 2","tel":"+353 (0)16 63 3500","images":null,"lat":"53.3414192199707","lng":"-6.252036094665527"},"fields":{"slug":"/section-directory-content/irish-restaurants/fitzers-cafe-national-gallery/"}}},{"node":{"frontmatter":{"title":"Becketts Bar and Restaurant","category":"Irish Restaurants","county":"Waterford","type":"Content","excerpt":null,"address":"Becketts Bar, Knockboy, Waterford Outer City East, Co. Waterford","tel":"+353 (0)51 87 3082","images":null,"lat":"52.23102951049805","lng":"-7.062272071838379"},"fields":{"slug":"/section-directory-content/irish-restaurants/becketts-bar-and-restaurant/"}}},{"node":{"frontmatter":{"title":"Du Carts Restaurant","category":"Irish Restaurants","county":"Limerick","type":"Content","excerpt":null,"address":"Hunt Museum, The Custom House, Limerick City Centre, Co. Limerick","tel":"+353 (0)61 31 2662","images":null,"lat":"52.66532516479492","lng":"-8.62565803527832"},"fields":{"slug":"/section-directory-content/irish-restaurants/du-carts-restaurant/"}}},{"node":{"frontmatter":{"title":"Azur Brasserie and Cafe","category":"Irish Restaurants","county":"Limerick","type":"Content","excerpt":null,"address":"36 O'Connell Street, Limerick City Centre, Co. Limerick","tel":"+353 (0)61 31 4994","images":null,"lat":"52.66472244262695","lng":"-8.623055458068848"},"fields":{"slug":"/section-directory-content/irish-restaurants/azur-brasserie-and-cafe/"}}},{"node":{"frontmatter":{"title":"Footprints Restaurant","category":"Irish Restaurants","county":"Wexford","type":"Content","excerpt":null,"address":"Whitford House Hotel, New Line Road, Wexford, Co. Wexford","tel":"+353 (0)53 914 3444","images":null,"lat":"52.331398010253906","lng":"-6.474421977996826"},"fields":{"slug":"/section-directory-content/irish-restaurants/footprints-restaurant/"}}},{"node":{"frontmatter":{"title":"Clancys Bars Restaurant Catering and Liquid Lounge","category":"Irish Restaurants","county":"Cork","type":"Content","excerpt":null,"address":"15 - 16 Princes Street, Cork City","tel":"+353 (0)21 427 6097","images":null,"lat":"51.8971061706543","lng":"-8.473021507263184"},"fields":{"slug":"/section-directory-content/irish-restaurants/clancys-bars-restaurant-catering-and-liquid-lounge/"}}},{"node":{"frontmatter":{"title":"Arena 7 Leisure Complex","category":"Irish Restaurants","county":"Donegal","type":"Content","excerpt":null,"address":"Units 1-4 Ballyraine Retail Park, Ramelton Road, Letterkenny, Co. Donegal","tel":"+353 (0)74 912 8853","images":null,"lat":"54.95663833618164","lng":"-7.706509590148926"},"fields":{"slug":"/section-directory-content/irish-restaurants/arena-7-leisure-complex/"}}},{"node":{"frontmatter":{"title":"Faras Restaurant","category":"Irish Restaurants","county":"Donegal","type":"Content","excerpt":null,"address":"Villa Rose Hotel and V-Spa, Main Street, Ballybofey, Co. Donegal","tel":"+353 (0)74 913 2266","images":null,"lat":"54.79999923706055","lng":"-7.7833333015441895"},"fields":{"slug":"/section-directory-content/irish-restaurants/faras-restaurant/"}}},{"node":{"frontmatter":{"title":"Fuchsia Restaurant and Courtyard","category":"Irish Restaurants","county":"Kerry","type":"Content","excerpt":null,"address":"Market Street, Knightstown, Valentia Island, Co. Kerry","tel":"+353 (0)66 947 6051","images":null,"lat":"51.92560958862305","lng":"-10.291986465454102"},"fields":{"slug":"/section-directory-content/irish-restaurants/fuchsia-restaurant-and-courtyard/"}}},{"node":{"frontmatter":{"title":"Hannigans Bar and Restaurant","category":"Irish Restaurants","county":"Kerry","type":"Content","excerpt":null,"address":"International Hotel, East Avenue Road, Killarney, Co. Kerry","tel":"+353 (0)64 663 1816","images":null,"lat":"52.05788040161133","lng":"-9.506053924560547"},"fields":{"slug":"/section-directory-content/irish-restaurants/hannigans-bar-and-restaurant/"}}},{"node":{"frontmatter":{"title":"Freddys Bistro","category":"Irish Restaurants","county":"Limerick","type":"Content","excerpt":null,"address":"Theatre Lane, Lower Glentworth Street, Limerick City Centre, Co. Limerick","tel":"+353 (0)61 41 8749","images":null,"lat":"52.660213470458984","lng":"-8.627358436584473"},"fields":{"slug":"/section-directory-content/irish-restaurants/freddys-bistro/"}}},{"node":{"frontmatter":{"title":"Luain Restaurant - Shamrock Lodge Hotel","category":"Irish Restaurants","county":"Westmeath","type":"Content","excerpt":null,"address":"Shamrock Lodge Hotel, Clonown Road, Athlone, Co. Westmeath","tel":"+353 (0)90 649 2601","images":null,"lat":"53.420166015625","lng":"-7.9488749504089355"},"fields":{"slug":"/section-directory-content/irish-restaurants/luain-restaurant---shamrock-lodge-hotel/"}}},{"node":{"frontmatter":{"title":"GORMANS CLIFFTOP HOUSE and RESTAURANT","category":"Irish Restaurants","county":"Kerry","type":"Content","excerpt":null,"address":"Glaise Bheag, Ballydavid, Dingle Peninsula, Co. Kerry","tel":"+353 (0)66 915 5162","images":null,"lat":"52.20608139038086","lng":"-10.360196113586426"},"fields":{"slug":"/section-directory-content/irish-restaurants/gormans-clifftop-house-and-restaurant/"}}},{"node":{"frontmatter":{"title":"Jacksons Restaurant","category":"Irish Restaurants","county":"Roscommon","type":"Content","excerpt":null,"address":"Jackson's Restaurant, Market Square, Roscommon Town, Co. Roscommon","tel":"+353 (0)90 663 4140","images":null,"lat":"53.69166564941406","lng":"-8.216666221618652"},"fields":{"slug":"/section-directory-content/irish-restaurants/jacksons-restaurant/"}}},{"node":{"frontmatter":{"title":"McGrattans In The Lane","category":"Irish Restaurants","county":"Dublin","type":"Content","excerpt":null,"address":"76 Fitzwilliam Lane, Dublin city cente, Co. Dublin, Dublin 2","tel":"+353 (0)16 61 8808","images":null,"lat":"53.338531494140625","lng":"-6.251298427581787"},"fields":{"slug":"/section-directory-content/irish-restaurants/mcgrattans-in-the-lane/"}}},{"node":{"frontmatter":{"title":"Johnnie Foxs Pub and Restaurant","category":"Irish Restaurants","county":"Dublin","type":"Content","excerpt":null,"address":"Glencullen, The Dublin Mountains, Kilternan, Co. Dublin, South County","tel":"+353 (0)1 295 5647","images":null,"lat":"53.22171401977539","lng":"-6.219309329986572"},"fields":{"slug":"/section-directory-content/irish-restaurants/johnnie-foxs-pub-and-restaurant/"}}},{"node":{"frontmatter":{"title":"Little Chef Restaurant Swords","category":"Irish Restaurants","county":"Dublin","type":"Content","excerpt":null,"address":"Swords Roundabout, Belfast Road, Swords, Co. Dublin, Fingal","tel":"+353 (0)1 840 9255","images":null,"lat":"53.45159912109375","lng":"-6.224129676818848"},"fields":{"slug":"/section-directory-content/irish-restaurants/little-chef-restaurant-swords/"}}},{"node":{"frontmatter":{"title":"Oscars Restaurant Mullingar","category":"Irish Restaurants","county":"Westmeath","type":"Content","excerpt":null,"address":"Oliver Plunkett Street, Mullingar, Co. Westmeath","tel":"+353 (0)44 934 4909","images":null,"lat":"53.525081634521484","lng":"-7.342828273773193"},"fields":{"slug":"/section-directory-content/irish-restaurants/oscars-restaurant-mullingar/"}}},{"node":{"frontmatter":{"title":"Paudies Bar and Longs Restaurant","category":"Irish Restaurants","county":"Kerry","type":"Content","excerpt":null,"address":"Dingle Bay Hotel, Strand Street, Dingle, Co. Kerry","tel":"+353 (0)66 915 1231","images":null,"lat":"52.138916015625","lng":"-10.272802352905273"},"fields":{"slug":"/section-directory-content/irish-restaurants/paudies-bar-and-longs-restaurant/"}}},{"node":{"frontmatter":{"title":"Kellys Foundry Grillhouse","category":"Irish Restaurants","county":"Laois","type":"Content","excerpt":null,"address":"The Heritage Hotel, Jessop Street, Portlaoise, Co. Laois","tel":"+353 (0)57 867 8588","images":null,"lat":"53.034645080566406","lng":"-7.298871040344238"},"fields":{"slug":"/section-directory-content/irish-restaurants/kellys-foundry-grillhouse/"}}},{"node":{"frontmatter":{"title":"Molloys of Dun Laoghaire","category":"Irish Restaurants","county":"Dublin","type":"Content","excerpt":null,"address":"4 Lower Georges Street, Dun Laoghaire, Co. Dublin, Co. Dublin","tel":"+353 (0)12 80 1238","images":null,"lat":"53.29472732543945","lng":"-6.14213228225708"},"fields":{"slug":"/section-directory-content/irish-restaurants/molloys-of-dun-laoghaire/"}}},{"node":{"frontmatter":{"title":"Plurabelle Brasserie","category":"Irish Restaurants","county":"Dublin","type":"Content","excerpt":null,"address":"Conrad International Dublin, Earlfort Terrace, Dublin City Centre, Co. Dublin, Dublin 2","tel":"+353 (0)1 676 5555","images":null,"lat":"53.33555603027344","lng":"-6.256809711456299"},"fields":{"slug":"/section-directory-content/irish-restaurants/plurabelle-brasserie/"}}},{"node":{"frontmatter":{"title":"Pangur Bn Restaurant and Cookery School","category":"Irish Restaurants","county":"Galway","type":"Content","excerpt":null,"address":"Pangur B??n Restaurant and Cookery School, Letterfrack, Co. Galway","tel":"+353 (0)95 41 243","images":null,"lat":"53.555755615234375","lng":"-9.950937271118164"},"fields":{"slug":"/section-directory-content/irish-restaurants/pangur-bn-restaurant-and-cookery-school/"}}},{"node":{"frontmatter":{"title":"Rendezvous Room Restaurant","category":"Irish Restaurants","county":"Dublin","type":"Content","excerpt":null,"address":"Mc Eniff Skylon Hotel, Upper Drumcondra Road, Dublin City Area North, Co. Dublin, Dublin 9","tel":"+353 (0)18 37 9121","images":null,"lat":"53.372718811035156","lng":"-6.2533674240112305"},"fields":{"slug":"/section-directory-content/irish-restaurants/rendezvous-room-restaurant/"}}},{"node":{"frontmatter":{"title":"Muckross Park Hotel Restaurant","category":"Irish Restaurants","county":"Kerry","type":"Content","excerpt":null,"address":"Muckross Park Hotel, Muckross Village, Lakes of Killarney, Killarney, Co. Kerry","tel":"+353 (0)64 663 1938","images":null,"lat":"52.02222442626953","lng":"-9.496394157409668"},"fields":{"slug":"/section-directory-content/irish-restaurants/muckross-park-hotel-restaurant/"}}},{"node":{"frontmatter":{"title":"OReillys Bar and Steakhouse at Kilkenny Ormonde Hotel","category":"Irish Restaurants","county":"Kilkenny","type":"Content","excerpt":null,"address":"Ormonde Street, Kilkenny, Co. Kilkenny","tel":"+353 (0)56 772 3900","images":null,"lat":"52.64959716796875","lng":"-7.253251552581787"},"fields":{"slug":"/section-directory-content/irish-restaurants/oreillys-bar-and-steakhouse-at-kilkenny-ormonde-hotel/"}}},{"node":{"frontmatter":{"title":"Messrs Maguire","category":"Irish Restaurants","county":"Dublin","type":"Content","excerpt":null,"address":"O'Connell Bridge, 1-2 Burgh Quay, Dublin City Centre, Co. Dublin, Dublin 2","tel":"+353 (0)16 70 5777","images":null,"lat":"53.346923828125","lng":"-6.2581024169921875"},"fields":{"slug":"/section-directory-content/irish-restaurants/messrs-maguire/"}}},{"node":{"frontmatter":{"title":"Reynards Restaurant at Errigal Country House Hotel","category":"Irish Restaurants","county":"Cavan","type":"Content","excerpt":null,"address":"Cavan Road, Cootehill, Co. Cavan","tel":"+353 (0)49 555 6901","images":null,"lat":"54.0724983215332","lng":"-7.081944465637207"},"fields":{"slug":"/section-directory-content/irish-restaurants/reynards-restaurant-at-errigal-country-house-hotel/"}}},{"node":{"frontmatter":{"title":"The Botanica Restaurant","category":"Irish Restaurants","county":"Cavan","type":"Content","excerpt":null,"address":"Radisson SAS Farnham Estate Hotel, Farnham Estate, Cavan Town, Co. Cavan","tel":"+353 (0)49 437 7700","images":null,"lat":"54.26822280883789","lng":"-7.311722278594971"},"fields":{"slug":"/section-directory-content/irish-restaurants/the-botanica-restaurant/"}}},{"node":{"frontmatter":{"title":"Raglans Restaurant","category":"Irish Restaurants","county":"Dublin","type":"Content","excerpt":null,"address":"Jurys Hotel And Towers, Pembroke Road, Dublin City Area South, Co. Dublin","tel":"+353 (0)16 60 5000","images":null,"lat":"53.33306884765625","lng":"-6.234168529510498"},"fields":{"slug":"/section-directory-content/irish-restaurants/raglans-restaurant/"}}},{"node":{"frontmatter":{"title":"Sayers","category":"Irish Restaurants","county":"Dublin","type":"Content","excerpt":null,"address":"102 Terenure Road North, Terenure, Dublin City Area South, Co. Dublin, Dublin 6","tel":"+353 (0)14 90 5989","images":null,"lat":"53.311134338378906","lng":"-6.283493518829346"},"fields":{"slug":"/section-directory-content/irish-restaurants/sayers/"}}},{"node":{"frontmatter":{"title":"Ripleys Steak House","category":"Irish Restaurants","county":"Kilkenny","type":"Content","excerpt":null,"address":"Butterslip Lane (off Kieran St),, Kilkenny City, Co. Kilkenny","tel":"+353 (0)56 777 0699","images":null,"lat":"52.656639099121094","lng":"-7.235590934753418"},"fields":{"slug":"/section-directory-content/irish-restaurants/ripleys-steak-house/"}}},{"node":{"frontmatter":{"title":"The Locke Bar and Oyster House Restaurant","category":"Irish Restaurants","county":"Limerick","type":"Content","excerpt":null,"address":"3 Georges Quay, Limerick City, Co. Limerick","tel":"+353 (0)61 41 3733","images":null,"lat":"52.66313171386719","lng":"-8.635825157165527"},"fields":{"slug":"/section-directory-content/irish-restaurants/the-locke-bar-and-oyster-house-restaurant/"}}},{"node":{"frontmatter":{"title":"Scotts Of Castleknock Restaurant And Bar","category":"Irish Restaurants","county":"Dublin","type":"Content","excerpt":null,"address":"Navan Road, Castleknock, Co. Dublin, Dublin 15","tel":"+353 (0)18 20 3966","images":null,"lat":"53.38411331176758","lng":"-6.368824481964111"},"fields":{"slug":"/section-directory-content/irish-restaurants/scotts-of-castleknock-restaurant-and-bar/"}}},{"node":{"frontmatter":{"title":"The Pearl Brasserie","category":"Irish Restaurants","county":"Dublin","type":"Content","excerpt":null,"address":"20 Merrion Street Upper, Dublin City Centre, Co. Dublin, Dublin 2","tel":"+353 (0)16 61 3627","images":null,"lat":"53.3382568359375","lng":"-6.253246784210205"},"fields":{"slug":"/section-directory-content/irish-restaurants/the-pearl-brasserie/"}}},{"node":{"frontmatter":{"title":"The Harcourt Hotel","category":"Irish Restaurants","county":"Dublin","type":"Content","excerpt":null,"address":"60-61 Harcourt Street, Dublin City Centre, Co. Dublin, Dublin 2","tel":"+353 (0)1 478 3677","images":null,"lat":"53.335453033447266","lng":"-6.263794898986816"},"fields":{"slug":"/section-directory-content/irish-restaurants/the-harcourt-hotel/"}}},{"node":{"frontmatter":{"title":"The Granary Restaurant and Bar","category":"Irish Restaurants","county":"Kerry","type":"Content","excerpt":null,"address":"The Pound, Touhills Lane, Beech Road, Killarney, Co. Kerry","tel":"+353 (0)64 662 0075","images":null,"lat":"52.05801773071289","lng":"-9.5100679397583"},"fields":{"slug":"/section-directory-content/irish-restaurants/the-granary-restaurant-and-bar/"}}},{"node":{"frontmatter":{"title":"The White Oak Restaurant at the Kilford Arms Hotel","category":"Irish Restaurants","county":"Kilkenny","type":"Content","excerpt":null,"address":"The White Oak Restaurant at the Kilford Arms Hotel., John Street, Kilkenny City, Co. Kilkenny","tel":"+353 (0)56 776 1018","images":null,"lat":"52.65319061279297","lng":"-7.247161865234375"},"fields":{"slug":"/section-directory-content/irish-restaurants/the-white-oak-restaurant-at-the-kilford-arms-hotel/"}}},{"node":{"frontmatter":{"title":"The Pie Dish Restaurant","category":"Irish Restaurants","county":"Dublin","type":"Content","excerpt":null,"address":"Stephens Green Hotel, St Stephen's Green, Dublin City Centre, Co. Dublin, Dublin 2","tel":"+353 (0)1 607 3600","images":null,"lat":"53.337398529052734","lng":"-6.263445854187012"},"fields":{"slug":"/section-directory-content/irish-restaurants/the-pie-dish-restaurant/"}}},{"node":{"frontmatter":{"title":"The Shack Restaurant","category":"Irish Restaurants","county":"Dublin","type":"Content","excerpt":null,"address":"24 East Essex Street, Temple Bar, Dublin City Centre, Co. Dublin, Dublin 2","tel":"+353 (0)1 679 0043","images":null,"lat":"53.345401763916016","lng":"-6.26444149017334"},"fields":{"slug":"/section-directory-content/irish-restaurants/the-shack-restaurant/"}}},{"node":{"frontmatter":{"title":"The New Ship Restaurant and Dock Bar","category":"Irish Restaurants","county":"Waterford","type":"Content","excerpt":null,"address":"Dooleys Hotel, The Quay, Waterford City Centre, Co. Waterford","tel":"+353 (0)51 87 3531","images":null,"lat":"52.26290512084961","lng":"-7.115809440612793"},"fields":{"slug":"/section-directory-content/irish-restaurants/the-new-ship-restaurant-and-dock-bar/"}}},{"node":{"frontmatter":{"title":"Thorntons Restaurant","category":"Irish Restaurants","county":"Dublin","type":"Content","excerpt":null,"address":"Fitzwilliam Hotel,St. Stephen's Green,, Co. Dublin, Dublin 2","tel":"+353 (0)14 78 7000","images":null,"lat":"53.33925247192383","lng":"-6.258205413818359"},"fields":{"slug":"/section-directory-content/irish-restaurants/thorntons-restaurant/"}}},{"node":{"frontmatter":{"title":"The Rooftop Restaurant","category":"Irish Restaurants","county":"Kerry","type":"Content","excerpt":null,"address":"The Ballybunion Golf Hotel, Main Street, Ballybunion, Co. Kerry","tel":"+353 (0)68 27 111","images":null,"lat":"52.51132583618164","lng":"-9.672340393066406"},"fields":{"slug":"/section-directory-content/irish-restaurants/the-rooftop-restaurant/"}}},{"node":{"frontmatter":{"title":"The Merrion Hotel Restaurants","category":"Irish Restaurants","county":"Dublin","type":"Content","excerpt":null,"address":"Upper Merrion Street, Dublin City Centre, Co. Dublin, Dublin 2","tel":"+353 (0)1 603 0600","images":null,"lat":"53.33852767944336","lng":"-6.252890110015869"},"fields":{"slug":"/section-directory-content/irish-restaurants/the-merrion-hotel-restaurants/"}}}]}},"pageContext":{"isCreatedByStatefulCreatePages":false,"slug":"/section-directory/irish-restaurants/","category":"Irish Restaurants"}}}