{"componentChunkName":"component---src-templates-section-directory-js","path":"/section-directory/art-galleries/","webpackCompilationHash":"","result":{"data":{"markdownRemark":{"html":"","frontmatter":{"category":"Art Galleries"}},"allMarkdownRemark":{"distinct":["Antrim","Armagh","Clare","Cork","Derry","Donegal","Down","Dublin","Fermanagh","Galway","Kerry","Kilkenny","Limerick","Mayo","Sligo","Tyrone","Wexford"],"edges":[{"node":{"frontmatter":{"title":"The Painters Palette","category":"Art Galleries","county":"Galway","type":"Content","excerpt":"The Painter's Palette is dedicated to the proficient artist and writer Lynda Cookson. It functions as a window to the famous creations of the artist t...","address":"Moycullen, Co. Galway","tel":"+353 (0)91 55 6523","images":null,"lat":"53.34055709838867","lng":"-9.203611373901367"},"fields":{"slug":"/section-directory-content/art-galleries/the-painters-palette/"}}},{"node":{"frontmatter":{"title":"The Antiques and Art Gallery","category":"Art Galleries","county":"Donegal","type":"Content","excerpt":"The Antiques and Art Gallery is located in Carrick village at the foot hills of Slieve League. This museum has an extensive collection of antiques, ar...","address":"Main Street, Carrick, Glencolmcille, Co. Donegal","tel":"+353 (0)74 973 9885","images":["the-antiques-and-art-gallery-0.jpg","136","200","the-antiques-and-art-gallery-2.jpg","220","220"],"lat":"54.6577033996582","lng":"-8.63427734375"},"fields":{"slug":"/section-directory-content/art-galleries/the-antiques-and-art-gallery/"}}},{"node":{"frontmatter":{"title":"Adrigole Arts","category":"Art Galleries","county":"Cork","type":"Content","excerpt":"Spectacularly situated in the impressive Beara Peninsula, Adrigole Arts has been declared the best craft shop by the Crafts Council of Ireland. As qua...","address":"Adrigole, Co. Cork","tel":"+353 (0)27 60 234","images":["adrigole-arts-1.jpg","200","137"],"lat":"51.68337631225586","lng":"-9.709784507751465"},"fields":{"slug":"/section-directory-content/art-galleries/adrigole-arts/"}}},{"node":{"frontmatter":{"title":"The Waterfront Gallery","category":"Art Galleries","county":"Mayo","type":"Content","excerpt":"Situated in the bustling town of Westport in County Mayo is a fine art gallery known as the Waterfront Gallery. The gallery specializes in organizing...","address":"The Quay, Westport, Co. Mayo","tel":"+353 (0)98 28 406","images":["the-waterfront-gallery-3.jpg","500","321","the-waterfront-gallery-4.jpg","326","206"],"lat":"53.796607971191406","lng":"-9.531840324401855"},"fields":{"slug":"/section-directory-content/art-galleries/the-waterfront-gallery/"}}},{"node":{"frontmatter":{"title":"Yard Gallery","category":"Art Galleries","county":"Down","type":"Content","excerpt":"Purposely built to house two galleries, Yard Gallery is a contemporary art space in County Down. Yard Gallery aims to make original, newfangled and en...","address":"102-104, High St, Holywood, Co. Down BT18 9HW","tel":"028 9042 7210","images":["yard-gallery-0.jpg","300","200","yard-gallery-2.jpg","500","374","yard-gallery-3.jpg","335","500","yard-gallery-4.jpg","326","161"],"lat":"54.639578","lng":"-5.837682"},"fields":{"slug":"/section-directory-content/art-galleries/yard-gallery/"}}},{"node":{"frontmatter":{"title":"Pebbles Gallery","category":"Art Galleries","county":"Cork","type":"Content","excerpt":"Pebbles Gallery is a famous art gallery located in County Cork. The huge collection of pebbles is bound to astonish the visitors. Among the magnificen...","address":"Main Street, Schull, Co. Cork","tel":"+353 (0)28 28 165","images":null,"lat":"51.526329040527344","lng":"-9.548206329345703"},"fields":{"slug":"/section-directory-content/art-galleries/pebbles-gallery/"}}},{"node":{"frontmatter":{"title":"Donegal Art Gallery","category":"Art Galleries","county":"Donegal","type":"Content","excerpt":"Opened in the year 1997, Donegal Art Gallery is located in Upper Main Street in Donegal Town. The exhibitions held at the gallery feature either local...","address":"Upper Main Street, Donegal Town, Co. Donegal","tel":"+353 (0)74 972 5887","images":["donegal-art-gallery-3.jpg","220","220","donegal-art-gallery-5.jpg","350","263"],"lat":"54.6546630859375","lng":"-8.105712890625"},"fields":{"slug":"/section-directory-content/art-galleries/donegal-art-gallery/"}}},{"node":{"frontmatter":{"title":"Neptune Gallery","category":"Art Galleries","county":"Dublin","type":"Content","excerpt":"One of the smallest galleries of Dublin, Neptune Gallery is located in the South William Street in the Dublin City of County Dublin. Offering an entir...","address":"1st Floor 41 South William Street, Dublin, Dublin 2","tel":"+353 (0)16 71 5021","images":["neptune-gallery-4.jpg","500","375"],"lat":"53.3410530090332","lng":"-6.2631916999816895"},"fields":{"slug":"/section-directory-content/art-galleries/neptune-gallery/"}}},{"node":{"frontmatter":{"title":"Newtownbarry House Gardens and Gallery","category":"Art Galleries","county":"Wexford","type":"Content","excerpt":"Newtownbarry House was built in the year 1883 by Charles Lanyon and this magnificent mansion was his last creation. Some parts of the gardens are even...","address":"Newtownbarry House, Bunclody, Co. Wexford","tel":"+353 (0)53 93 77073","images":["newtownbarry-house-gardens-and-gallery-0.jpg","198","240","newtownbarry-house-gardens-and-gallery-2.jpg","262","206","newtownbarry-house-gardens-and-gallery-3.jpg","200","133"],"lat":"52.64904022216797","lng":"-6.653038501739502"},"fields":{"slug":"/section-directory-content/art-galleries/newtownbarry-house-gardens-and-gallery/"}}},{"node":{"frontmatter":{"title":"Naughton Gallery At Queens","category":"Art Galleries","county":"Antrim","type":"Content","excerpt":"Naughton Gallery At Queens is one of the most frequented art galleries of Belfast. It is an arts platform that showcases rolling program of works from...","address":"Lanyon Building Queens University of Belfast, Co. Antrim, Belfast, Co. Antrim, BT7 1NN","tel":"+44 (0)28 9097 3580","images":["naughton-gallery-at-queens-0.jpg","200","134","naughton-gallery-at-queens-1.jpg","480","360","naughton-gallery-at-queens-2.jpg","500","383","naughton-gallery-at-queens-3.jpg","138","173","naughton-gallery-at-queens-4.jpg","200","300"],"lat":"54.59572982788086","lng":"-5.936308860778809"},"fields":{"slug":"/section-directory-content/art-galleries/naughton-gallery-at-queens/"}}},{"node":{"frontmatter":{"title":"National Photographic Archive","category":"Art Galleries","county":"Dublin","type":"Content","excerpt":"National Photographic Archive was established in the year 1998 and has a collection of approximately 300,000 photographs. The assortment includes not...","address":"Meeting House Square, Temple Bar, Dublin City Centre, Co. Dublin, Dublin 2","tel":"+353 (0)1 603 0374","images":["national-photographic-archive-0.jpg","500","375","national-photographic-archive-1.jpg","328","198","national-photographic-archive-2.jpg","500","92","national-photographic-archive-3.jpg","220","288"],"lat":"53.34511947631836","lng":"-6.265383720397949"},"fields":{"slug":"/section-directory-content/art-galleries/national-photographic-archive/"}}},{"node":{"frontmatter":{"title":"Valerie Parker Watercolour Artist","category":"Art Galleries","county":"Fermanagh","type":"Content","excerpt":"Named after the English born painter who has been living in Enniskillen, Valerie Parker Watercolour Artist gallery is one of the important cultural ce...","address":"Enniskillen, Fermanagh","tel":"+44 (0)28 6634 1353","images":["valerie-parker-watercolour-artist-0.jpg","367","257"],"lat":"54.34685183422677","lng":"-7.645196914672852"},"fields":{"slug":"/section-directory-content/art-galleries/valerie-parker-watercolour-artist/"}}},{"node":{"frontmatter":{"title":"Mcbride Gallery","category":"Art Galleries","county":"Kerry","type":"Content","excerpt":"Mcbride Gallery has an exotic collection of the artistic excellence of contemporary Irish artworks. With its array of paintings, prints, and photograp...","address":"25 New Street, Killarney, Co. Kerry","tel":"+353 (0)64 667 1483","images":["mcbride-gallery-0.jpg","210","154","mcbride-gallery-1.jpg","262","206","mcbride-gallery-3.jpg","190","140"],"lat":"52.05854797363281","lng":"-9.512054443359375"},"fields":{"slug":"/section-directory-content/art-galleries/mcbride-gallery/"}}},{"node":{"frontmatter":{"title":"Island Irish Art","category":"Art Galleries","county":"Derry","type":"Content","excerpt":"Located in the picturesque surroundings of a highly prominent equestrian center, Island Irish Art is based in a purpose built gallery. Island Irish Ar...","address":"49, Ballyrashane Rd, Coleraine, Co. Derry BT52 2NL","tel":"028 7034 2599","images":["island-irish-art-0.jpg","500","376","island-irish-art-1.jpg","262","206","island-irish-art-2.jpg","100","100","island-irish-art-3.jpg","120","90"],"lat":"55.134706","lng":"-6.636584"},"fields":{"slug":"/section-directory-content/art-galleries/island-irish-art/"}}},{"node":{"frontmatter":{"title":"Lewis Glucksman Gallery","category":"Art Galleries","county":"Cork","type":"Content","excerpt":"Lewis Glucksman Gallery is located in University College, Cork, Ireland and is an award winning art gallery. It was opened on 14th October 2004 by the...","address":"University College Cork, Main Entrance on Western Road, Cork City","tel":"+353 (0)21 490 1844","images":["lewis-glucksman-gallery-0.jpg","391","500","lewis-glucksman-gallery-1.jpg","333","260","lewis-glucksman-gallery-2.jpg","500","333","lewis-glucksman-gallery-4.jpg","500","392"],"lat":"51.893775939941406","lng":"-8.492234230041504"},"fields":{"slug":"/section-directory-content/art-galleries/lewis-glucksman-gallery/"}}},{"node":{"frontmatter":{"title":"IrishWaterColours Anne Osborne","category":"Art Galleries","county":"Sligo","type":"Content","excerpt":"IrishWaterColours is the place where the famous artist, Anne Osborne has her Studio. The art gallery showcases various watercolour paintings created b...","address":"10 Lar Easa Cove, Strandhill, Co. Sligo","tel":"+353 (0)71 916 8576","images":["irishwatercolours-anne-osborne-1.jpg","365","240"],"lat":"54.271484375","lng":"-8.600372314453125"},"fields":{"slug":"/section-directory-content/art-galleries/irishwatercolours-anne-osborne/"}}},{"node":{"frontmatter":{"title":"Glebe Gallery","category":"Art Galleries","county":"Donegal","type":"Content","excerpt":"Glebe Gallery is situated in Baltimore and is one of the popular art galleries in County Cork. The collection has contemporary and innovative artworks...","address":"St Columbs Churchill Letterkenny Co. Donegal","tel":"(074)9137071","images":["glebe-gallery-0.jpg","300","179"],"lat":"55.00104869","lng":"-7.912572332"},"fields":{"slug":"/section-directory-content/art-galleries/glebe-gallery/"}}},{"node":{"frontmatter":{"title":"Frances Morris Studio and Gallery","category":"Art Galleries","county":"Fermanagh","type":"Content","excerpt":"Frances Morris Studio and Gallery displays widely acclaimed work of Irish landscapes by Frances Morris, one of the renowned Irish artists. Her studio...","address":"Frances Morris Studio and Gallery, No 17 The Buttermarket, Enniskillen, Co. Fermanagh, BT74 7DU","tel":"+44 (0)28 6632 8645","images":["frances-morris-studio-and-gallery-4.jpg","254","168"],"lat":"54.346046447753906","lng":"-7.637693881988525"},"fields":{"slug":"/section-directory-content/art-galleries/frances-morris-studio-and-gallery/"}}},{"node":{"frontmatter":{"title":"Framework Gallery","category":"Art Galleries","county":"Dublin","type":"Content","excerpt":"Framework Gallery is one of the popular tourist destinations in the County Dublin. There are two workshops located on site that have facilities for Co...","address":"55 Upper Georges Street, Dun Laoghaire, Co. Dublin","tel":"+353 (0)12 80 5756","images":["framework-gallery-0.jpg","270","203","framework-gallery-3.jpg","240","180"],"lat":"53.28803634643555","lng":"-6.140653610229492"},"fields":{"slug":"/section-directory-content/art-galleries/framework-gallery/"}}},{"node":{"frontmatter":{"title":"Tom Caldwell Gallery","category":"Art Galleries","county":"Antrim","type":"Content","excerpt":"Founded in the year 1969, Tom Caldwell Gallery is one of the oldest art galleries in Ireland. This gallery is part of an older interior/furnishing bus...","address":"Tom Caldwell Gallery, 40 Bradbury Place, Belfast, Antrim, BT7 1RU","tel":"+44 (0)28 9032 3226","images":["tom-caldwell-gallery-2.jpg","160","190"],"lat":"54.577932229743986","lng":"-5.952014923095703"},"fields":{"slug":"/section-directory-content/art-galleries/tom-caldwell-gallery/"}}},{"node":{"frontmatter":{"title":"Temple Bar Gallery and Studios","category":"Art Galleries","county":"Dublin","type":"Content","excerpt":"Established in the year 1983, Temple Bar Gallery and Studios is one of the leading contemporary art venues of Ireland. Based in the center of Temple B...","address":"5-9 Temple Bar D2 Co. Dublin","tel":"(01)6710073","images":["temple-bar-gallery-and-studios-0.jpg","460","285","temple-bar-gallery-and-studios-1.jpg","231","259","temple-bar-gallery-and-studios-2.jpg","500","374","temple-bar-gallery-and-studios-3.jpg","500","374","temple-bar-gallery-and-studios-4.jpg","460","285"],"lat":"53.34560616","lng":"-6.263655625"},"fields":{"slug":"/section-directory-content/art-galleries/temple-bar-gallery-and-studios/"}}},{"node":{"frontmatter":{"title":"Eblana Gallery","category":"Art Galleries","county":"Dublin","type":"Content","excerpt":"Eblana Gallery is a contemporary art gallery situated in Dublin City Centre. The gallery has a magnanimous collection of artworks created by the conte...","address":"8 Lower Baggott Street, Dublin City Area South, Co. Dublin","tel":"+353 (0)16 78 8941","images":["eblana-gallery-1.jpg","270","203","eblana-gallery-2.jpg","240","180"],"lat":"53.3367919921875","lng":"-6.249613285064697"},"fields":{"slug":"/section-directory-content/art-galleries/eblana-gallery/"}}},{"node":{"frontmatter":{"title":"Douglas Hyde Gallery","category":"Art Galleries","county":"Dublin","type":"Content","excerpt":"Douglas Hyde Gallery, named after the first President of Ireland, is a contemporary art gallery funded by public money. It is located within the histo...","address":"Trinity College, Dublin City Centre, Co. Dublin, Dublin 2","tel":"+353 (0)16 08 1116","images":["douglas-hyde-gallery-1.jpg","200","250","douglas-hyde-gallery-2.jpg","460","285","douglas-hyde-gallery-3.jpg","320","240","douglas-hyde-gallery-4.jpg","220","147","douglas-hyde-gallery-6.jpg","432","293"],"lat":"53.343238830566406","lng":"-6.25781774520874"},"fields":{"slug":"/section-directory-content/art-galleries/douglas-hyde-gallery/"}}},{"node":{"frontmatter":{"title":"Custom House Studios","category":"Art Galleries","county":"Mayo","type":"Content","excerpt":"Custom House Studios is located in Quay and was established with the aim to offer studio as well as exhibition space to the visitors. The art studios...","address":"Custom House Studios, The Quay, Westport, Co. Mayo","tel":"+353 (0)98 28 735","images":["custom-house-studios-0.jpg","361","500","custom-house-studios-1.jpg","448","298","custom-house-studios-2.jpg","250","181","custom-house-studios-3.jpg","192","245","custom-house-studios-4.jpg","500","333","custom-house-studios-5.jpg","500","333","custom-house-studios-6.jpg","500","375","custom-house-studios-8.jpg","500","333"],"lat":"53.79999923706055","lng":"-9.516666412353516"},"fields":{"slug":"/section-directory-content/art-galleries/custom-house-studios/"}}},{"node":{"frontmatter":{"title":"Cavehill Gallery","category":"Art Galleries","county":"Antrim","type":"Content","excerpt":"Cavehill Gallery is one of the popular Irish art galleries located in the county Antrium. The exhibition emphasizes on Northern Irish Artists and focu...","address":"18, Old Cavehill Rd, Belfast, Co. Antrim BT15 5GT","tel":"028 9077 6784","images":["cavehill-gallery-0.jpg","372","369","cavehill-gallery-1.jpg","479","355","cavehill-gallery-2.jpg","350","452","cavehill-gallery-6.jpg","398","500","cavehill-gallery-8.jpg","250","181"],"lat":"54.632734","lng":"-5.941256"},"fields":{"slug":"/section-directory-content/art-galleries/cavehill-gallery/"}}},{"node":{"frontmatter":{"title":"Clotworthy Arts Centre","category":"Art Galleries","county":"Antrim","type":"Content","excerpt":"Built in the 1840s, Clotworthy Arts Centre was stables and a coach house for the Antrim Castle. This art centre, once served as the centre of a thrivi...","address":"Clotworthy Arts Centre, Randalstown Road, Antrim, Antrim, BT41 4JX","tel":"+44 (0)28 9442 8000","images":["clotworthy-arts-centre-2.jpg","251","198","clotworthy-arts-centre-7.jpg","350","187"],"lat":"54.720306396484375","lng":"-6.222092151641846"},"fields":{"slug":"/section-directory-content/art-galleries/clotworthy-arts-centre/"}}},{"node":{"frontmatter":{"title":"Bonita Art Gallery","category":"Art Galleries","county":"Down","type":"Content","excerpt":"Bonita Art Gallery is one of the famous Irish art galleries located in County Down Northern Ireland. This gallery houses unparalleled collection of ar...","address":"Bonita Art Gallery, Donaghadee, Down","tel":"+44 (0)28 9188 4478","images":["bonita-art-gallery-2.jpg","368","500","bonita-art-gallery-6.jpg","320","240"],"lat":"54.64257049560547","lng":"-5.537768840789795"},"fields":{"slug":"/section-directory-content/art-galleries/bonita-art-gallery/"}}},{"node":{"frontmatter":{"title":"Blue Beans Craft Shop and Gallery","category":"Art Galleries","county":"Down","type":"Content","excerpt":"Blue Beans Craft Shop and Gallery is a retail outlet that was established textile artist Claire Warn. It is a one-stop shop that has an enormous colle...","address":"Blue Beans Craft Shop and Gallery, 67-69 Main Street, Castlewellan, Co. Down, BT31 9DQ","tel":"+44 (0)28 4377 0414","images":["blue-beans-craft-shop-and-gallery-3.jpg","180","180","blue-beans-craft-shop-and-gallery-9.jpg","218","310"],"lat":"54.25764083862305","lng":"-5.94204568862915"},"fields":{"slug":"/section-directory-content/art-galleries/blue-beans-craft-shop-and-gallery/"}}},{"node":{"frontmatter":{"title":"Emer Gallery","category":"Art Galleries","county":"Antrim","type":"Content","excerpt":"Although the Emer Gallery shifted to its current location some eight years ago, it was actually established around 1985. This famous gallery is one of...","address":"467, Antrim Rd, Belfast, Co. Antrim BT15 3BJ","tel":"028 9077 8777","images":["emer-gallery-0.jpg","500","326"],"lat":"54.62208","lng":"-5.938178"},"fields":{"slug":"/section-directory-content/art-galleries/emer-gallery/"}}},{"node":{"frontmatter":{"title":"2020 Art Gallery","category":"Art Galleries","county":"Cork","type":"Content","excerpt":"2020 Art Gallery in the Irish County of Cork is home to the works of several national as well as local artists. This Ballydehob gallery is harbored in...","address":"Main Street, Ballydehob, Co. Cork","tel":"+353 (0)28 25 881","images":["2020-art-gallery-0.jpg","262","206","2020-art-gallery-2.jpg","200","150","2020-art-gallery-3.jpg","427","240","2020-art-gallery-4.jpg","262","206","2020-art-gallery-5.jpg","500","375","2020-art-gallery-6.jpg","263","350","2020-art-gallery-7.jpg","500","372","2020-art-gallery-8.jpg","500","374"],"lat":"51.563133239746094","lng":"-9.459272384643555"},"fields":{"slug":"/section-directory-content/art-galleries/2020-art-gallery/"}}},{"node":{"frontmatter":{"title":"Ards Arts Centre","category":"Art Galleries","county":"Down","type":"Content","excerpt":null,"address":"Ards International Guitar Festival, Ards Arts Centre Newtownards, Newtownards, Co. Down, BT23 4DB","tel":"+44 (0)28 9181 0803","images":null,"lat":"54.594329833984375","lng":"-5.70030403137207"},"fields":{"slug":"/section-directory-content/art-galleries/ards-arts-centre/"}}},{"node":{"frontmatter":{"title":"Eakin Gallery Armagh","category":"Art Galleries","county":"Armagh","type":"Content","excerpt":null,"address":"3 Cloughan Road Portadown Road Armagh BT61 8RF Co. Armagh N.Ireland, Armagh, BT61 8RF","tel":"+44 (0)28 3887 2013","images":null,"lat":"54.34708023071289","lng":"-6.648488998413086"},"fields":{"slug":"/section-directory-content/art-galleries/eakin-gallery-armagh/"}}},{"node":{"frontmatter":{"title":"Denise Hogan Design - Art Essence Gallery","category":"Art Galleries","county":"Galway","type":"Content","excerpt":null,"address":"Art Essence Gallery, Unit 7 - Kilkerrin Business Park, Liosbaun, Tuam Road, Galway","tel":"+353 (0)91 76 4770","images":null,"lat":"53.27194595336914","lng":"-9.04888916015625"},"fields":{"slug":"/section-directory-content/art-galleries/denise-hogan-design---art-essence-gallery/"}}},{"node":{"frontmatter":{"title":"Flowerfield Arts Centre","category":"Art Galleries","county":"Derry","type":"Content","excerpt":null,"address":"Flowerfield Arts Centre, 185 Coleraine Road, Portstewart, Co. Derry, BT55 7HU","tel":"+44 (0)28 7083 1400","images":null,"lat":"55.171356201171875","lng":"-6.709117412567139"},"fields":{"slug":"/section-directory-content/art-galleries/flowerfield-arts-centre/"}}},{"node":{"frontmatter":{"title":"Gormleys Fine Art (Omagh gallery)","category":"Art Galleries","county":"Tyrone","type":"Content","excerpt":null,"address":"Gormleys Art Gallery, 3 - 4 Dromore Road, Omagh, Co. Tyrone, BT78 1RE","tel":"+44 (0)28 8224 7738","images":null,"lat":"54.59711456298828","lng":"-7.307765007019043"},"fields":{"slug":"/section-directory-content/art-galleries/gormleys-fine-art-omagh-gallery/"}}},{"node":{"frontmatter":{"title":"Gormleys Fine Art (Belfast gallery)","category":"Art Galleries","county":"Antrim","type":"Content","excerpt":null,"address":"Gormelys Fine Art (Belfast gallery), 251 Lisburn Road, Belfast, Co. Antrim, BT9 7EN","tel":"+44 (0)28 9066 3313","images":null,"lat":"54.59572982788086","lng":"-5.936308860778809"},"fields":{"slug":"/section-directory-content/art-galleries/gormleys-fine-art-belfast-gallery/"}}},{"node":{"frontmatter":{"title":"Jerpoint Glass Studio","category":"Art Galleries","county":"Kilkenny","type":"Content","excerpt":null,"address":"Jerpoint Glass, Stoneyford -(opposite Mount Juliet), Thomastown, Co. Kilkenny","tel":"+353 (0)56 772 4350","images":null,"lat":"52.51851272583008","lng":"-7.196751594543457"},"fields":{"slug":"/section-directory-content/art-galleries/jerpoint-glass-studio/"}}},{"node":{"frontmatter":{"title":"Knockinelder Bay Art Studio","category":"Art Galleries","county":"Down","type":"Content","excerpt":null,"address":"Knockinelder Bay Art Studio, 4 Kearney Road Portaferry, Newtownards, Co. Down, BT22 1QF","tel":"+44 (0)28 4272 8276","images":null,"lat":"54.38182830810547","lng":"-5.546350002288818"},"fields":{"slug":"/section-directory-content/art-galleries/knockinelder-bay-art-studio/"}}},{"node":{"frontmatter":{"title":"Riley Photography","category":"Art Galleries","county":"Down","type":"Content","excerpt":null,"address":"Riley Photography, The Old School House 151 Main Street Dundrum, Newcastle, Co. Down, BT33 0LX","tel":"+44 (0)28 4375 1845","images":null,"lat":"54.664581298828125","lng":"-5.679625988006592"},"fields":{"slug":"/section-directory-content/art-galleries/riley-photography/"}}},{"node":{"frontmatter":{"title":"Saintfield Antiques And Fine Books","category":"Art Galleries","county":"Down","type":"Content","excerpt":null,"address":"Saintfield Antiques And Fine Books, 68 Main Street, Saintfield, Down, BT24 7AB","tel":"+44 (0)28 975 2842","images":null,"lat":"54.46017837524414","lng":"-5.834383010864258"},"fields":{"slug":"/section-directory-content/art-galleries/saintfield-antiques-and-fine-books/"}}},{"node":{"frontmatter":{"title":"Suitor Gallery and Coffee Shop","category":"Art Galleries","county":"Tyrone","type":"Content","excerpt":null,"address":"Suitor Gallery Crafts and Coffee Shop, Ballygawley Roundabout, Co. Tyrone, BT70 2LP","tel":"+44 (0)28 8556 8653","images":null,"lat":"54.505088806152344","lng":"-6.764308929443359"},"fields":{"slug":"/section-directory-content/art-galleries/suitor-gallery-and-coffee-shop/"}}},{"node":{"frontmatter":{"title":"Sliabh Beagh Arts","category":"Art Galleries","county":"Fermanagh","type":"Content","excerpt":null,"address":"Sliabh Beagh - Walking, Sliabh Beagh Walking Unit 7 Roslea Enterprise Centre Roslea,, Liskilly, Co. Fermanagh, BT92 7FH","tel":"+44 (0)28 6775 1918","images":null,"lat":"54.23806381225586","lng":"-7.185478210449219"},"fields":{"slug":"/section-directory-content/art-galleries/sliabh-beagh-arts/"}}},{"node":{"frontmatter":{"title":"The Bogside Peoples Gallery of Murals","category":"Art Galleries","county":"Derry","type":"Content","excerpt":null,"address":"The Bogside Artists, The Peoples Gallery 46 William Street, Derry, Co. Derry, BT48 9AD","tel":"+44 (0)28 7137 3842","images":null,"lat":"54.9918098449707","lng":"-7.320168972015381"},"fields":{"slug":"/section-directory-content/art-galleries/the-bogside-peoples-gallery-of-murals/"}}},{"node":{"frontmatter":{"title":"The Old Post Office Lisbane","category":"Art Galleries","county":"Down","type":"Content","excerpt":null,"address":"The Old Post Office Gallery, 191 Killinchy Road Comber, Newtownards, Co. Down, BT23 6AA","tel":"+44 (0)28 9754 3335","images":null,"lat":"54.594329833984375","lng":"-5.70030403137207"},"fields":{"slug":"/section-directory-content/art-galleries/the-old-post-office-lisbane/"}}},{"node":{"frontmatter":{"title":"The Market Place Theatre And Arts Centre","category":"Art Galleries","county":"Armagh","type":"Content","excerpt":null,"address":"The Market Place Theatre And Arts Centre, Market Street, Armagh, Armagh","tel":"+44 (0)28 3752 1821","images":null,"lat":"54.34708023071289","lng":"-6.648488998413086"},"fields":{"slug":"/section-directory-content/art-galleries/the-market-place-theatre-and-arts-centre/"}}},{"node":{"frontmatter":{"title":"The Yellow Wood Art Gallery","category":"Art Galleries","county":"Fermanagh","type":"Content","excerpt":null,"address":"The Yellow Wood Art Gallery, 3 Old Scotch Store Building Sligo Road, Enniskillen, Co. Fermanagh","tel":"+44 (0)77 9241 0498","images":null,"lat":"54.346771240234375","lng":"-7.645120143890381"},"fields":{"slug":"/section-directory-content/art-galleries/the-yellow-wood-art-gallery/"}}},{"node":{"frontmatter":{"title":"University Of Limerick Art Gallery","category":"Art Galleries","county":"Limerick","type":"Content","excerpt":null,"address":"University Of Limerick, Plassey, Limerick City Area East, Limerick","tel":"+353 (0)61 33 3644","images":null,"lat":"52.67182922363281","lng":"-8.549620628356934"},"fields":{"slug":"/section-directory-content/art-galleries/university-of-limerick-art-gallery/"}}},{"node":{"frontmatter":{"title":"Thomas Kinkade Gallery of Ireland","category":"Art Galleries","county":"Down","type":"Content","excerpt":null,"address":"Thomas Kinkade Gallery of Ireland, 20 a The Quays, Newry, Co. Down, BT35 8QS","tel":"+44 (0)28 3026 9777","images":null,"lat":"54.153629302978516","lng":"-6.344817161560059"},"fields":{"slug":"/section-directory-content/art-galleries/thomas-kinkade-gallery-of-ireland/"}}},{"node":{"frontmatter":{"title":"Visual Instinct","category":"Art Galleries","county":"Clare","type":"Content","excerpt":null,"address":"Ground Floor, Powerscourt Townhouse Centre, Clarendon Street,, Clarendon Street, Dublin, Dublin 2","tel":"+353 (0)16 72 7265","images":null,"lat":"53.34228515625","lng":"-6.262270927429199"},"fields":{"slug":"/section-directory-content/art-galleries/visual-instinct/"}}},{"node":{"frontmatter":{"title":"Craft Design Collective - Space Craft","category":"Art Galleries","county":"Antrim","type":"Content","excerpt":null,"address":"9B The Fountain Centre College Street, Belfast, Co. Antrim, BT1 6ET","tel":"+44 (0)28 9032 9342","images":null,"lat":"54.59799575805664","lng":"-5.931413173675537"},"fields":{"slug":"/section-directory-content/art-galleries/craft-design-collective---space-craft/"}}}]}},"pageContext":{"isCreatedByStatefulCreatePages":false,"slug":"/section-directory/art-galleries/","category":"Art Galleries"}}}