{"componentChunkName":"component---src-templates-section-directory-js","path":"/section-directory/american-restaurants/","webpackCompilationHash":"","result":{"data":{"markdownRemark":{"html":"","frontmatter":{"category":"American Restaurants"}},"allMarkdownRemark":{"distinct":["Antrim","Armagh","Cork","Derry","Down","Dublin","Galway","Kerry","Leitrim","Limerick","Meath","Monaghan","Tyrone"],"edges":[{"node":{"frontmatter":{"title":"Blue Chicago","category":"American Restaurants","county":"Antrim","type":"Content","excerpt":null,"address":"7, Eastpoint Entertainment Village, Dundonald, Belfast, Co. Antrim, BT16 1XT","tel":"028 9002 3178","images":null,"lat":"054.5871280000","lng":"-005.8181800000"},"fields":{"slug":"/section-directory-content/american-restaurants/blue-chicago/"}}},{"node":{"frontmatter":{"title":"Blue Chicago Grill","category":"American Restaurants","county":"Antrim","type":"Content","excerpt":null,"address":"Unit 1, East Point Entertainment Village, Old Dundonald Rd, Dundonald, Belfast, Co. Antrim BT16 1YG","tel":"028 9048 2771","images":null,"lat":"54.586044","lng":"-5.80956"},"fields":{"slug":"/section-directory-content/american-restaurants/blue-chicago-grill/"}}},{"node":{"frontmatter":{"title":"Captain Americas Cookhouse and Bar","category":"American Restaurants","county":"Cork","type":"Content","excerpt":null,"address":"4 - 5 South Main Street, Cork City","tel":"+353 (0)21 427 8972","images":null,"lat":"51.897560119628906","lng":"-8.47696304321289"},"fields":{"slug":"/section-directory-content/american-restaurants/captain-americas-cookhouse-and-bar/"}}},{"node":{"frontmatter":{"title":"Cactus Jacks","category":"American Restaurants","county":"Galway","type":"Content","excerpt":null,"address":"Courthouse Lane, Quay Street, Galway City Centre","tel":"+353 (0)91 56 3838","images":null,"lat":"53.27145767211914","lng":"-9.054463386535645"},"fields":{"slug":"/section-directory-content/american-restaurants/cactus-jacks/"}}},{"node":{"frontmatter":{"title":"Ed's American Diner","category":"American Restaurants","county":"Antrim","type":"Content","excerpt":null,"address":"11-12, Lisburn Leisure Park, Lisburn, Co. Antrim BT28 1LP","tel":"028 9260 5277","images":null,"lat":"54.50764","lng":"-6.05165"},"fields":{"slug":"/section-directory-content/american-restaurants/eds-american-diner/"}}},{"node":{"frontmatter":{"title":"Connolly's Restaurant","category":"American Restaurants","county":"Derry","type":"Content","excerpt":null,"address":"4, Main St, Eglinton, Derry, Co. Derry BT47 3PQ","tel":"028 7181 1523","images":null,"lat":"55.026944","lng":"-7.17944"},"fields":{"slug":"/section-directory-content/american-restaurants/connollys-restaurant/"}}},{"node":{"frontmatter":{"title":"Elephant And Castle","category":"American Restaurants","county":"Dublin","type":"Content","excerpt":null,"address":"18 Temple Bar, Dublin City Centre, Co. Dublin, Dublin 2","tel":"+353 (0)16 79 3121","images":null,"lat":"53.34567642211914","lng":"-6.262447834014893"},"fields":{"slug":"/section-directory-content/american-restaurants/elephant-and-castle/"}}},{"node":{"frontmatter":{"title":"Eco Douglas","category":"American Restaurants","county":"Cork","type":"Content","excerpt":null,"address":"1 to 2 Eastville, Douglas Village, Cork City","tel":"+353 (0)21 489 2522","images":null,"lat":"51.8770637512207","lng":"-8.435752868652344"},"fields":{"slug":"/section-directory-content/american-restaurants/eco-douglas/"}}},{"node":{"frontmatter":{"title":"Frankie and Benny's","category":"American Restaurants","county":"Antrim","type":"Content","excerpt":null,"address":"Unit Ro2, Roof Garden, Victoria Square Shopping Centre, Belfast, Co. Antrim BT1 4QG","tel":"028 9072 7820","images":null,"lat":"54.599752","lng":"-5.925"},"fields":{"slug":"/section-directory-content/american-restaurants/frankie-and-bennys/"}}},{"node":{"frontmatter":{"title":"Gladeridge Trading Ltd","category":"American Restaurants","county":"Antrim","type":"Content","excerpt":null,"address":"79, Botanic Avenue, Belfast, Co. Antrim BT7 1JL","tel":"028 9024 9709","images":null,"lat":"54.587081","lng":"-5.93252"},"fields":{"slug":"/section-directory-content/american-restaurants/gladeridge-trading-ltd/"}}},{"node":{"frontmatter":{"title":"FXB Restaurant Monkstown","category":"American Restaurants","county":"Dublin","type":"Content","excerpt":null,"address":"3A The Crescent,, Monkstown, Co. Dublin, South County","tel":"+353 (0)1 284 6187","images":null,"lat":"53.289306640625","lng":"-6.170441627502441"},"fields":{"slug":"/section-directory-content/american-restaurants/fxb-restaurant-monkstown/"}}},{"node":{"frontmatter":{"title":"Gourmet Burger Kitchen","category":"American Restaurants","county":"Antrim","type":"Content","excerpt":null,"address":"Third Floor, 1, Victoria Square, Belfast, Co. Antrim BT1 4QG","tel":"028 9024 6681","images":null,"lat":"54.59842","lng":"-5.92437"},"fields":{"slug":"/section-directory-content/american-restaurants/gourmet-burger-kitchen/"}}},{"node":{"frontmatter":{"title":"McDonald's Restaurants Ltd","category":"American Restaurants","county":"Armagh","type":"Content","excerpt":null,"address":"Damolly Retail Park,Armagh Rd, Armagh, Newry, Co. Down BT35 6PR","tel":"028 3025 1512","images":null,"lat":"54.190358","lng":"-6.349881"},"fields":{"slug":"/section-directory-content/american-restaurants/mcdonalds-restaurants-ltd/"}}},{"node":{"frontmatter":{"title":"Franzini OBriens","category":"American Restaurants","county":"Meath","type":"Content","excerpt":null,"address":"Trim, Co. Meath","tel":"+353 (0)46 943 1002","images":null,"lat":"53.55360794067383","lng":"-6.780640125274658"},"fields":{"slug":"/section-directory-content/american-restaurants/franzini-obriens/"}}},{"node":{"frontmatter":{"title":"Outlaws Restaurant","category":"American Restaurants","county":"Dublin","type":"Content","excerpt":null,"address":"62 Upper Georges Street, Dun Laoghaire, Co. Dublin","tel":"+353 (0)12 84 2817","images":null,"lat":"53.28956985473633","lng":"-6.13016414642334"},"fields":{"slug":"/section-directory-content/american-restaurants/outlaws-restaurant/"}}},{"node":{"frontmatter":{"title":"O'Brien's American Steakhouse and Wildfire Grill","category":"American Restaurants","county":"Derry","type":"Content","excerpt":null,"address":"31, Greystone Rd, Limavady, Co. Derry BT49 0ND","tel":"028 7776 6500","images":null,"lat":"55.044562","lng":"-6.935766"},"fields":{"slug":"/section-directory-content/american-restaurants/obriens-american-steakhouse-and-wildfire-grill/"}}},{"node":{"frontmatter":{"title":"O'Brien's Steakhouse Ltd","category":"American Restaurants","county":"Derry","type":"Content","excerpt":null,"address":"30, Greystone Rd, Limavady, Co. Derry BT49 0PB","tel":"028 7776 6900","images":null,"lat":"55.049938","lng":"-6.928417"},"fields":{"slug":"/section-directory-content/american-restaurants/obriens-steakhouse-ltd/"}}},{"node":{"frontmatter":{"title":"Springsteens Diner","category":"American Restaurants","county":"Antrim","type":"Content","excerpt":null,"address":"Unit 3, Carrickfergus Cinema, Rodgers Quay, Carrickfergus, Co. Antrim, BT38 8BE","tel":"02890 025860","images":null,"lat":"054.7114580000","lng":"-005.8121900000"},"fields":{"slug":"/section-directory-content/american-restaurants/springsteens-diner/"}}},{"node":{"frontmatter":{"title":"Texas Steakout","category":"American Restaurants","county":"Limerick","type":"Content","excerpt":null,"address":"116 O'Connell Street, Limerick, Limerick City Centre, Co. Limerick","tel":"+353 (0)61 41 0350","images":null,"lat":"52.66276931762695","lng":"-8.628252029418945"},"fields":{"slug":"/section-directory-content/american-restaurants/texas-steakout/"}}},{"node":{"frontmatter":{"title":"Pacinos","category":"American Restaurants","county":"Dublin","type":"Content","excerpt":null,"address":"18 Suffolk Street,, Dublin city centre, Co. Dublin, Dublin 2","tel":"+353 (0)16 77 5651","images":null,"lat":"53.34331130981445","lng":"-6.25991678237915"},"fields":{"slug":"/section-directory-content/american-restaurants/pacinos/"}}},{"node":{"frontmatter":{"title":"Soda Joes","category":"American Restaurants","county":"Antrim","type":"Content","excerpt":null,"address":"Odyssey Pavilion, Queens Quay, Belfast, Co. Antrim BT3 9QQ","tel":"028 9045 8555","images":null,"lat":"54.603923","lng":"-5.91538"},"fields":{"slug":"/section-directory-content/american-restaurants/soda-joes/"}}},{"node":{"frontmatter":{"title":"TGI Fridays Blanchardstown","category":"American Restaurants","county":"Dublin","type":"Content","excerpt":null,"address":"Blanchardstown Shopping Centre, Blanchardstown, Co. Dublin, Dublin 15","tel":"+353 (0)18 22 5990","images":null,"lat":"53.415260314941406","lng":"-6.4498724937438965"},"fields":{"slug":"/section-directory-content/american-restaurants/tgi-fridays-blanchardstown/"}}},{"node":{"frontmatter":{"title":"TGI Friday's","category":"American Restaurants","county":"Antrim","type":"Content","excerpt":null,"address":"Unit R3, Victoria Square Shopping Centre, Victoria Square, Belfast, Co. Antrim BT1 4QG","tel":"028 9024 9050","images":null,"lat":"54.599752","lng":"-5.925"},"fields":{"slug":"/section-directory-content/american-restaurants/tgi-fridays/"}}},{"node":{"frontmatter":{"title":"The Hop","category":"American Restaurants","county":"Down","type":"Content","excerpt":null,"address":"73, Main St, Newcastle, Co. Down BT33 0AE","tel":"028 4372 3328","images":null,"lat":"54.259408","lng":"-5.841166"},"fields":{"slug":"/section-directory-content/american-restaurants/the-hop/"}}},{"node":{"frontmatter":{"title":"The Brandywell Bar and Restaurant","category":"American Restaurants","county":"Leitrim","type":"Content","excerpt":null,"address":"Dromod, Co. Leitrim","tel":"+353 (0)71 963 8278","images":null,"lat":"53.86039733886719","lng":"-7.921858787536621"},"fields":{"slug":"/section-directory-content/american-restaurants/the-brandywell-bar-and-restaurant/"}}},{"node":{"frontmatter":{"title":"The Ranch Grill","category":"American Restaurants","county":"Tyrone","type":"Content","excerpt":null,"address":"28, Gortin Rd, Omagh, Co. Tyrone BT79 7HX","tel":"028 8225 8064","images":null,"lat":"54.613736","lng":"-7.300207"},"fields":{"slug":"/section-directory-content/american-restaurants/the-ranch-grill/"}}},{"node":{"frontmatter":{"title":"The Loft Restaurant","category":"American Restaurants","county":"Meath","type":"Content","excerpt":null,"address":"26 Trimgate St, Navan, Co. Meath","tel":"+353 (0)46 907 1755","images":null,"lat":"53.64658737182617","lng":"-6.698957920074463"},"fields":{"slug":"/section-directory-content/american-restaurants/the-loft-restaurant/"}}},{"node":{"frontmatter":{"title":"The Squealing Pig Bar And Restaurant","category":"American Restaurants","county":"Monaghan","type":"Content","excerpt":null,"address":"The Diamond, Monaghan, Co. Monaghan","tel":"+353 (0)42 49 550","images":null,"lat":"54.24240493774414","lng":"-6.972944736480713"},"fields":{"slug":"/section-directory-content/american-restaurants/the-squealing-pig-bar-and-restaurant/"}}},{"node":{"frontmatter":{"title":"The Sizzling Sausage","category":"American Restaurants","county":"Antrim","type":"Content","excerpt":null,"address":"109, Newbridge Rd, Ballymoney, Co. Antrim BT53 6QN","tel":"028 2766 7114","images":null,"lat":"55.083368","lng":"-6.54995"},"fields":{"slug":"/section-directory-content/american-restaurants/the-sizzling-sausage/"}}},{"node":{"frontmatter":{"title":"Tony Roma's","category":"American Restaurants","county":"Antrim","type":"Content","excerpt":null,"address":"25-27, University Rd, Belfast, Co. Antrim BT7 1NA","tel":"028 9032 6777","images":null,"lat":"54.587407","lng":"-5.935697"},"fields":{"slug":"/section-directory-content/american-restaurants/tony-romas/"}}},{"node":{"frontmatter":{"title":"The Station House Bar and Grill","category":"American Restaurants","county":"Kerry","type":"Content","excerpt":null,"address":"Blennerville, Tralee, Co. Kerry","tel":"+353 (0)66 714 9980","images":null,"lat":"52.2560920715332","lng":"-9.735995292663574"},"fields":{"slug":"/section-directory-content/american-restaurants/the-station-house-bar-and-grill/"}}},{"node":{"frontmatter":{"title":"Wolfes","category":"American Restaurants","county":"Antrim","type":"Content","excerpt":null,"address":"Unit 4a, Eastpoint Enterainment Village, Dundonald, Belfast, Co. Antrim, BT16 1XT","tel":"028 9002 5710","images":null,"lat":"054.5871280000","lng":"-005.8181800000"},"fields":{"slug":"/section-directory-content/american-restaurants/wolfes/"}}},{"node":{"frontmatter":{"title":"Papa Joes New Orleans Restaurant","category":"American Restaurants","county":"Down","type":"Content","excerpt":null,"address":"7, Hamilton Rd, Bangor, Co. Down BT20 4JP","tel":"028 9146 1529","images":null,"lat":"54.660697","lng":"-5.666312"},"fields":{"slug":"/section-directory-content/american-restaurants/papa-joes-new-orleans-restaurant/"}}}]}},"pageContext":{"isCreatedByStatefulCreatePages":false,"slug":"/section-directory/american-restaurants/","category":"American Restaurants"}}}