{"componentChunkName":"component---src-templates-section-directory-js","path":"/section-directory/caves/","webpackCompilationHash":"","result":{"data":{"markdownRemark":{"html":"","frontmatter":{"category":"Caves"}},"allMarkdownRemark":{"distinct":["Clare","Cork","Fermanagh","Kerry","Kilkenny","Tipperary"],"edges":[{"node":{"frontmatter":{"title":"Mitchelstown Cave","category":"Caves","county":"Tipperary","type":"Content","excerpt":"The  magnificent <em>Mitchelstown</em> Cave in Ireland is one of the finest examples of the natural wonders of the  planet. This famous show cave attr...","address":"Burncourt, Cahir, Co. Tipperary","tel":"+353 (0)52 746 7246","images":["mitchelstown-cave-0.jpg","300","425","mitchelstown-cave-1.jpg","453","142","mitchelstown-cave-2.jpg","390","260","mitchelstown-cave-3.jpg","300","225","mitchelstown-cave-4.jpg","150","150"],"lat":"52.305084228515625","lng":"-8.088690757751465"},"fields":{"slug":"/section-directory-content/caves/mitchelstown-cave/"}}},{"node":{"frontmatter":{"title":"Crag Cave","category":"Caves","county":"Kerry","type":"Content","excerpt":"Located  within the proximity of Castleisland in County Kerry, Crag Cave is the 6th  longest cave system in the Republic of Ireland. Making people tak...","address":"Castleisland, Co. Kerry","tel":"+353 66 7141244","images":["crag-cave-0.jpg","300","200","crag-cave-3.jpg","500","474","crag-cave-6.jpg","479","252","crag-cave-8.jpg","200","200","crag-cave-9.jpg","233","150"],"lat":"52.2329462175539","lng":"-9.47903085767392"},"fields":{"slug":"/section-directory-content/caves/crag-cave/"}}},{"node":{"frontmatter":{"title":"Dunmore Cave","category":"Caves","county":"Kilkenny","type":"Content","excerpt":"Dunmore Cave might be smaller than other Irish show caves but it happens to be one of  the most mesmerizing ones owing to its wonderful calcite format...","address":"Ballyfoyle, Castlecomer Road, Co. Kilkenny","tel":"+353 (0)56 776 7726","images":["dunmore-cave-0.jpg","385","289","dunmore-cave-1.jpg","177","261","dunmore-cave-2.jpg","300","382","dunmore-cave-4.jpg","398","500"],"lat":"52.73398208618164","lng":"-7.246987342834473"},"fields":{"slug":"/section-directory-content/caves/dunmore-cave/"}}},{"node":{"frontmatter":{"title":"The Doolin Cave","category":"Caves","county":"Clare","type":"Content","excerpt":"Doolin  Cave is fast emerging as one of the most significant eco-tourism sites in  Ireland. Located in County Clare, this cave houses the longest stal...","address":"Doolin, Co. Clare","tel":"+353 65 7075761","images":["the-doolin-cave-0.jpg","346","230","the-doolin-cave-1.jpg","300","448","the-doolin-cave-3.jpg","379","500","the-doolin-cave-4.jpg","500","462"],"lat":"53.0114469434767","lng":"-9.35744391975836"},"fields":{"slug":"/section-directory-content/caves/the-doolin-cave/"}}},{"node":{"frontmatter":{"title":"Marble Arch Caves Global Geopark","category":"Caves","county":"Fermanagh","type":"Content","excerpt":"As  the only UNESCO Geopark in Northern Ireland, Marble Arch Caves Global Geopark  exhibits before tourists and locals a mesmerizing underworld of riv...","address":"Marble Arch Caves, Marlbank Scenic Loup, Florencecourt, Fermanagh, BT92 1EW","tel":"+44 (0)28 6634 8855","images":["marble-arch-caves-global-geopark-1.jpg","500","333","marble-arch-caves-global-geopark-3.jpg","283","204"],"lat":"54.25519943237305","lng":"-7.791172027587891"},"fields":{"slug":"/section-directory-content/caves/marble-arch-caves-global-geopark/"}}},{"node":{"frontmatter":{"title":"Aillwee Cave","category":"Caves","county":"Clare","type":"Content","excerpt":"Among  the numerous ancient Irish caves beneath karst-landscape of Burren, Aillwee  Cave is the most popular. Sometimes called as McGanns Cave, this c...","address":"Ballyvaughan, Co. Clare","tel":"+353 (0)65 707 7036","images":["aillwee-cave-0.jpg","173","188","aillwee-cave-1.jpg","238","173","aillwee-cave-2.jpg","333","249","aillwee-cave-3.jpg","300","266","aillwee-cave-4.jpg","300","448","aillwee-cave-5.jpg","300","489","aillwee-cave-6.jpg","326","500","aillwee-cave-7.jpg","200","200","aillwee-cave-8.jpg","200","277","aillwee-cave-9.jpg","260","195"],"lat":"53.1081428527832","lng":"-9.165441513061523"},"fields":{"slug":"/section-directory-content/caves/aillwee-cave/"}}},{"node":{"frontmatter":{"title":"Blarney Castle and Rock Close","category":"Caves","county":"Cork","type":"Content","excerpt":null,"address":"Blarney, Co. Cork","tel":"+353 (0)21 438 5252","images":null,"lat":"51.9315071105957","lng":"-8.57121467590332"},"fields":{"slug":"/section-directory-content/caves/blarney-castle-and-rock-close/"}}}]}},"pageContext":{"isCreatedByStatefulCreatePages":false,"slug":"/section-directory/caves/","category":"Caves"}}}