{"componentChunkName":"component---src-templates-section-directory-js","path":"/section-directory/clay-pigeon-shooting/","webpackCompilationHash":"","result":{"data":{"markdownRemark":{"html":"","frontmatter":{"category":"Clay Pigeon Shooting"}},"allMarkdownRemark":{"distinct":["Antrim","Armagh","Cavan","Cork","Derry","Donegal","Down","Dublin","Kildare","Kilkenny","Louth","Monaghan","Sligo","Tyrone","Wicklow"],"edges":[{"node":{"frontmatter":{"title":"Abbeyfield Country Pursuits","category":"Clay Pigeon Shooting","county":"Kildare","type":"Content","excerpt":null,"address":"Abbeyfield, Richardstown, Clane, Co. Kildare","tel":"+353 (0)86 816 4130","images":null,"lat":"53.297271728515625","lng":"-6.687696933746338"},"fields":{"slug":"/section-directory-content/clay-pigeon-shooting/abbeyfield-country-pursuits/"}}},{"node":{"frontmatter":{"title":"Burke and Sons","category":"Clay Pigeon Shooting","county":"Derry","type":"Content","excerpt":null,"address":"72-74, Long Commons, Coleraine, Co. Derry BT52 1LH","tel":"028 7034 2804","images":null,"lat":"55.130744","lng":"-6.667275"},"fields":{"slug":"/section-directory-content/clay-pigeon-shooting/burke-and-sons/"}}},{"node":{"frontmatter":{"title":"Carnview Farm Clay Target Shooting Complex","category":"Clay Pigeon Shooting","county":"Antrim","type":"Content","excerpt":null,"address":"43, Loughmagarry Rd, Ballymena, Co. Antrim BT43 6TW","tel":"07889 159879","images":null,"lat":"54.925417","lng":"-6.316881"},"fields":{"slug":"/section-directory-content/clay-pigeon-shooting/carnview-farm-clay-target-shooting-complex/"}}},{"node":{"frontmatter":{"title":"Bishops Mountain Shooting Club","category":"Clay Pigeon Shooting","county":"Kilkenny","type":"Content","excerpt":null,"address":"Knockbrack Gorse, Near Mullinavat, Kilkenny","tel":"085 112 6972","images":null,"lat":"52.367881774902344","lng":"-7.175502300262451"},"fields":{"slug":"/section-directory-content/clay-pigeon-shooting/bishops-mountain-shooting-club/"}}},{"node":{"frontmatter":{"title":"Field of Dreams","category":"Clay Pigeon Shooting","county":"Down","type":"Content","excerpt":null,"address":"Field of Dreams, 55 Gransha Road, Bangor, Co. Down","tel":"+353 7702 010 228","images":null,"lat":"54.65997314453125","lng":"-5.667551040649414"},"fields":{"slug":"/section-directory-content/clay-pigeon-shooting/field-of-dreams/"}}},{"node":{"frontmatter":{"title":"Foymore Lodge Country Pursuits","category":"Clay Pigeon Shooting","county":"Armagh","type":"Content","excerpt":null,"address":"105 Dungannon Road Portadown, Craigavon, Co. Armagh, BT62 1QA","tel":"+44 (0)28 3833 8755","images":null,"lat":"54.46242904663086","lng":"-6.497072219848633"},"fields":{"slug":"/section-directory-content/clay-pigeon-shooting/foymore-lodge-country-pursuits/"}}},{"node":{"frontmatter":{"title":"KartWorld Adventure Centre","category":"Clay Pigeon Shooting","county":"Cork","type":"Content","excerpt":null,"address":"Watergrasshill, Co. Cork","tel":"+353 (0)21 488 9477","images":null,"lat":"52.008304595947266","lng":"-8.349356651306152"},"fields":{"slug":"/section-directory-content/clay-pigeon-shooting/kartworld-adventure-centre/"}}},{"node":{"frontmatter":{"title":"Collow Quarry Shoot","category":"Clay Pigeon Shooting","county":"Tyrone","type":"Content","excerpt":null,"address":"Collow Quarry Shoot, 44 Bradan Road, Omagh, Tyrone, BT78 4QQ","tel":"+44 (0)28 8283 1521","images":null,"lat":"54.606407165527344","lng":"-7.5272908210754395"},"fields":{"slug":"/section-directory-content/clay-pigeon-shooting/collow-quarry-shoot/"}}},{"node":{"frontmatter":{"title":"Clay Pigeon Shooting Co. Down","category":"Clay Pigeon Shooting","county":"Armagh","type":"Content","excerpt":null,"address":"Clay Pigeon Shooting Co. Down, Mountain Road, Forkhill, Armagh","tel":"+44 (0)28 3083 8810","images":null,"lat":"54.17662811279297","lng":"-6.339670181274414"},"fields":{"slug":"/section-directory-content/clay-pigeon-shooting/clay-pigeon-shooting-co-down/"}}},{"node":{"frontmatter":{"title":"Mohan's Funfairs","category":"Clay Pigeon Shooting","county":"Armagh","type":"Content","excerpt":null,"address":"85, Ballymoyer Road, Whitecross, Armagh, BT60 2LA","tel":"028 3750 7485","images":null,"lat":"054.2167380000","lng":"-006.5206800000"},"fields":{"slug":"/section-directory-content/clay-pigeon-shooting/mohans-funfairs/"}}},{"node":{"frontmatter":{"title":"Mulroy Clay Pigeon Club","category":"Clay Pigeon Shooting","county":"Donegal","type":"Content","excerpt":null,"address":"Gortmacall, Milford, Donegal","tel":"+353 (0)74 915 3230","images":null,"lat":"55.08164978027344","lng":"-7.712111949920654"},"fields":{"slug":"/section-directory-content/clay-pigeon-shooting/mulroy-clay-pigeon-club/"}}},{"node":{"frontmatter":{"title":"Hollow Farm Shooting Grounds Ltd","category":"Clay Pigeon Shooting","county":"Down","type":"Content","excerpt":null,"address":"35, Drumhirk Rd, Comber, Newtownards, Co. Down BT23 5SA","tel":"028 9752 8381","images":null,"lat":"54.522439","lng":"-5.756229"},"fields":{"slug":"/section-directory-content/clay-pigeon-shooting/hollow-farm-shooting-grounds-ltd/"}}},{"node":{"frontmatter":{"title":"Hollow Farm Shooting Grounds","category":"Clay Pigeon Shooting","county":"Down","type":"Content","excerpt":null,"address":"Hollow Farm Shooting Grounds, 35 Drumhirk Road, Comber, Down, BT23 5SA","tel":"+44 (0)28 9752 8381","images":null,"lat":"54.594329833984375","lng":"-5.70030403137207"},"fields":{"slug":"/section-directory-content/clay-pigeon-shooting/hollow-farm-shooting-grounds/"}}},{"node":{"frontmatter":{"title":"Lough Bo Shooting Centre","category":"Clay Pigeon Shooting","county":"Sligo","type":"Content","excerpt":null,"address":"Riverstown, Sligo","tel":"+353 (0)71 916 5141","images":null,"lat":"54.13234329223633","lng":"-8.391478538513184"},"fields":{"slug":"/section-directory-content/clay-pigeon-shooting/lough-bo-shooting-centre/"}}},{"node":{"frontmatter":{"title":"Puddenhill Activity Centre","category":"Clay Pigeon Shooting","county":"Dublin","type":"Content","excerpt":null,"address":"Moorepark, Garristown, Co. Dublin / Meath","tel":"+353 (0)18 35 4444","images":null,"lat":"53.56586837768555","lng":"-6.378221035003662"},"fields":{"slug":"/section-directory-content/clay-pigeon-shooting/puddenhill-activity-centre/"}}},{"node":{"frontmatter":{"title":"Mount Juliet Activities","category":"Clay Pigeon Shooting","county":"Kilkenny","type":"Content","excerpt":null,"address":"Mount Juliet, Thomastown, Co. Kilkenny","tel":"+353 (0)56 777 3000","images":null,"lat":"52.518516540527344","lng":"-7.145457744598389"},"fields":{"slug":"/section-directory-content/clay-pigeon-shooting/mount-juliet-activities/"}}},{"node":{"frontmatter":{"title":"Out Doors and Dirty (ODD)","category":"Clay Pigeon Shooting","county":"Cavan","type":"Content","excerpt":null,"address":"The Gamespark, Brackley Lake, Ballyconnell, Cavan","tel":"+353 (0)49 952 3877","images":null,"lat":"54.13983917236328","lng":"-7.712450981140137"},"fields":{"slug":"/section-directory-content/clay-pigeon-shooting/out-doors-and-dirty-odd/"}}},{"node":{"frontmatter":{"title":"National Rifle And Pistol Association","category":"Clay Pigeon Shooting","county":"Dublin","type":"Content","excerpt":null,"address":"PO Box 9, Blackrock, Co. Dublin","tel":"+353 (0)12 80 4641","images":null,"lat":"53.33510208129883","lng":"-6.311218738555908"},"fields":{"slug":"/section-directory-content/clay-pigeon-shooting/national-rifle-and-pistol-association/"}}},{"node":{"frontmatter":{"title":"Irish Country Quads","category":"Clay Pigeon Shooting","county":"Monaghan","type":"Content","excerpt":null,"address":"Carrickakelly, Inniskeen, Co. Monaghan","tel":"+353 (0)42 937 8997","images":null,"lat":"54.0292854309082","lng":"-6.581894874572754"},"fields":{"slug":"/section-directory-content/clay-pigeon-shooting/irish-country-quads/"}}},{"node":{"frontmatter":{"title":"Quest Events","category":"Clay Pigeon Shooting","county":"Kildare","type":"Content","excerpt":null,"address":"Mondello Park, Donore, Naas, Co. Kildare","tel":"+353 (0)45 85 1020","images":null,"lat":"53.4296760559082","lng":"-6.916091442108154"},"fields":{"slug":"/section-directory-content/clay-pigeon-shooting/quest-events/"}}},{"node":{"frontmatter":{"title":"Tannyoky Guns and Ammo","category":"Clay Pigeon Shooting","county":"Down","type":"Content","excerpt":null,"address":"19, Ballyreagh Rd, Poyntzpass, Newry, Co. Down BT35 6RQ","tel":"028 3831 8308","images":null,"lat":"54.293732","lng":"-6.41067"},"fields":{"slug":"/section-directory-content/clay-pigeon-shooting/tannyoky-guns-and-ammo/"}}},{"node":{"frontmatter":{"title":"Escarmouche Paintball Games","category":"Clay Pigeon Shooting","county":"Antrim","type":"Content","excerpt":null,"address":"19, Donegall Pass, Belfast, Co. Antrim BT7 1DQ","tel":"028 9032 7500","images":null,"lat":"54.589671","lng":"-5.932504"},"fields":{"slug":"/section-directory-content/clay-pigeon-shooting/escarmouche-paintball-games/"}}},{"node":{"frontmatter":{"title":"Total Experience - Mobile Activities Events Company","category":"Clay Pigeon Shooting","county":"Wicklow","type":"Content","excerpt":null,"address":"Blessington, Co. Wicklow","tel":"+353 (0)86 872 4894","images":null,"lat":"53.170413970947266","lng":"-6.534420967102051"},"fields":{"slug":"/section-directory-content/clay-pigeon-shooting/total-experience---mobile-activities-events-company/"}}},{"node":{"frontmatter":{"title":"Todds Leap Activity Centre","category":"Clay Pigeon Shooting","county":"Tyrone","type":"Content","excerpt":null,"address":"Todds Leap Activity Centre, Todds Leap Off Road Activity Centre Todds Leap Road., Ballygawley, Co. Tyrone, BT70 2BW","tel":"+44 (0)28 8556 7170","images":null,"lat":"54.505088806152344","lng":"-6.764308929443359"},"fields":{"slug":"/section-directory-content/clay-pigeon-shooting/todds-leap-activity-centre/"}}},{"node":{"frontmatter":{"title":"The Green Door Accommodation and Tours","category":"Clay Pigeon Shooting","county":"Dublin","type":"Content","excerpt":null,"address":"13 Dublin Road, Drogheda, Co. Louth","tel":"+353 (0)42 983 4422","images":null,"lat":"53.71303939819336","lng":"-6.343111991882324"},"fields":{"slug":"/section-directory-content/clay-pigeon-shooting/the-green-door-accommodation-and-tours/"}}},{"node":{"frontmatter":{"title":"Tannyoky Guns and Ammunition","category":"Clay Pigeon Shooting","county":"Down","type":"Content","excerpt":null,"address":"19, Ballyreagh Road, Poyntzpass, Newry, Co. Down, BT35 6RQ","tel":"02838 318308","images":null,"lat":"054.2937320000","lng":"-006.4106700000"},"fields":{"slug":"/section-directory-content/clay-pigeon-shooting/tannyoky-guns-and-ammunition/"}}},{"node":{"frontmatter":{"title":"Ardee Shooting Grounds","category":"Clay Pigeon Shooting","county":"Louth","type":"Content","excerpt":null,"address":"Ardee, Co. Louth","tel":"+353 (0)41 685 3711","images":null,"lat":"53.85519027709961","lng":"-6.540238380432129"},"fields":{"slug":"/section-directory-content/clay-pigeon-shooting/ardee-shooting-grounds/"}}}]}},"pageContext":{"isCreatedByStatefulCreatePages":false,"slug":"/section-directory/clay-pigeon-shooting/","category":"Clay Pigeon Shooting"}}}