{"componentChunkName":"component---src-templates-section-directory-js","path":"/section-directory/car-hire/","webpackCompilationHash":"","result":{"data":{"markdownRemark":{"html":"","frontmatter":{"category":"Car Hire"}},"allMarkdownRemark":{"distinct":["Antrim","Armagh","Derry","Down","Dublin","Fermanagh","Kerry","Limerick","Mayo","Meath","Monaghan","Tyrone","Waterford"],"edges":[{"node":{"frontmatter":{"title":"Alamo and National Car Rental - Belfast International Airport","category":"Car Hire","county":"Antrim","type":"Content","excerpt":null,"address":"Alamo and National Car Rental, 175 Airport Road Aldergrove, Crumlin, Co. Antrim, BT29 4DW","tel":"+44 (0)28 9442 2285","images":null,"lat":"54.62057876586914","lng":"-6.216598987579346"},"fields":{"slug":"/section-directory-content/car-hire/alamo-and-national-car-rental---belfast-international-airport/"}}},{"node":{"frontmatter":{"title":"Alamo and National Car Rental - George Best Belfast City Airport","category":"Car Hire","county":"Antrim","type":"Content","excerpt":null,"address":"Alamo and National Car Rental, Unit 1 Belfast City Airport Sydenham Bypass, Belfast, Co. Antrim, BT3 9JH","tel":"+44 (0)28 9073 9400","images":null,"lat":"54.59572982788086","lng":"-5.936308860778809"},"fields":{"slug":"/section-directory-content/car-hire/alamo-and-national-car-rental---george-best-belfast-city-airport/"}}},{"node":{"frontmatter":{"title":"Avis Rent A Car- Belfast International Airport","category":"Car Hire","county":"Antrim","type":"Content","excerpt":null,"address":"Avis Rent A Car- Belfast International Airport, Belfast International Airport, Crumlin, Co. Antrim, BT29 4DW","tel":"+44 (0)28 9442 2333","images":null,"lat":"54.62057876586914","lng":"-6.216598987579346"},"fields":{"slug":"/section-directory-content/car-hire/avis-rent-a-car--belfast-international-airport/"}}},{"node":{"frontmatter":{"title":"Armada Fleet Services","category":"Car Hire","county":"Dublin","type":"Content","excerpt":null,"address":"Unit 4 Cookstown Industrial Estate Extension Cookstown Way Tallaght Dublin 14 Co. Dublin","tel":"(01)4667880","images":null,"lat":"53.29015836","lng":"-6.387803998"},"fields":{"slug":"/section-directory-content/car-hire/armada-fleet-services/"}}},{"node":{"frontmatter":{"title":"A1 Motorhome Hire","category":"Car Hire","county":"Down","type":"Content","excerpt":null,"address":"A1 Motorhome Hire, Lisnacurran House 6 Listullycurran Road, Dromore, Co. Down, BT25 1RB","tel":"+44 (0)28 9269 0098","images":null,"lat":"54.4385871887207","lng":"-6.128169536590576"},"fields":{"slug":"/section-directory-content/car-hire/a1-motorhome-hire/"}}},{"node":{"frontmatter":{"title":"Ballygeely Motorhome Hire","category":"Car Hire","county":"Down","type":"Content","excerpt":null,"address":"Ballygeely Motorhome Hire, 7 Riverdale Lane Saintfield, Ballynahinch, Co. Down, BT24 7JG","tel":"+44 (0)28 9751 1804","images":null,"lat":"54.4527702331543","lng":"-5.809783458709717"},"fields":{"slug":"/section-directory-content/car-hire/ballygeely-motorhome-hire/"}}},{"node":{"frontmatter":{"title":"Budget Rent A Car - Belfast","category":"Car Hire","county":"Antrim","type":"Content","excerpt":null,"address":"Budget Rent A Car-Belfast, 96 Great Victoria Street, Belfast, Co. Antrim, BT2 7BE","tel":"+44 (0)28 9023 0700","images":null,"lat":"54.59572982788086","lng":"-5.936308860778809"},"fields":{"slug":"/section-directory-content/car-hire/budget-rent-a-car---belfast/"}}},{"node":{"frontmatter":{"title":"Budget Rent A Car - George Best Belfast City Airport","category":"Car Hire","county":"Antrim","type":"Content","excerpt":null,"address":"Budget Rent A Car, Arrivals Hall Belfast City Airport Sydenham Bypass, Belfast, Co. Antrim, BT3 9JH","tel":"+44 (0)28 9045 1111","images":null,"lat":"54.59572982788086","lng":"-5.936308860778809"},"fields":{"slug":"/section-directory-content/car-hire/budget-rent-a-car---george-best-belfast-city-airport/"}}},{"node":{"frontmatter":{"title":"Budget Car and Van Rental South East Ireland","category":"Car Hire","county":"Waterford","type":"Content","excerpt":null,"address":"Budget Car and Van Rental, Waterford Airport, Waterford City, Co. Waterford, Budget Desk, Arrivals Hall","tel":"+353 (0)51 84 3747","images":null,"lat":"52.188270568847656","lng":"-7.080362796783447"},"fields":{"slug":"/section-directory-content/car-hire/budget-car-and-van-rental-south-east-ireland/"}}},{"node":{"frontmatter":{"title":"Ballykelly Car and Van Hire","category":"Car Hire","county":"Down","type":"Content","excerpt":null,"address":"Ballykelly Car and Van Hire, 22 Ballykelly Road, Banbridge, Co. Down, BT32 4PS","tel":"+44 (0)28 4062 4966","images":null,"lat":"54.34701156616211","lng":"-6.2713189125061035"},"fields":{"slug":"/section-directory-content/car-hire/ballykelly-car-and-van-hire/"}}},{"node":{"frontmatter":{"title":"Casey Auto Rentals","category":"Car Hire","county":"Mayo","type":"Content","excerpt":null,"address":"Turlough Road, Castlebar and, Arrivals Hall of Ireland West Airport Knock, Castlebar and Knock, Co. Mayo","tel":"+353 (0)94 906 0500","images":null,"lat":"53.848934173583984","lng":"-9.284253120422363"},"fields":{"slug":"/section-directory-content/car-hire/casey-auto-rentals/"}}},{"node":{"frontmatter":{"title":"Carrick Self Drive","category":"Car Hire","county":"Antrim","type":"Content","excerpt":null,"address":"Carrick Self Drive, 77a Irish Quarter West, Carrickfergus, Co. Antrim, BT38 8AT","tel":"+44 (0)28 9335 1113","images":null,"lat":"54.715145111083984","lng":"-5.805984973907471"},"fields":{"slug":"/section-directory-content/car-hire/carrick-self-drive/"}}},{"node":{"frontmatter":{"title":"Comber Commercial Centre","category":"Car Hire","county":"Down","type":"Content","excerpt":null,"address":"Comber Commercial Centre, 3c Killinchy Street, Comber, Co. Down, BT23 5AP","tel":"+44 (0)28 9187 3245","images":null,"lat":"54.594329833984375","lng":"-5.70030403137207"},"fields":{"slug":"/section-directory-content/car-hire/comber-commercial-centre/"}}},{"node":{"frontmatter":{"title":"Cosmo Car Hire - Belfast International Airport","category":"Car Hire","county":"Antrim","type":"Content","excerpt":null,"address":"181 Airport Road Belfast International Airport, Aldergrove, Co. Antrim, BT29 4DW","tel":"+44 (0)28 9442 2777","images":null,"lat":"54.62057876586914","lng":"-6.216598987579346"},"fields":{"slug":"/section-directory-content/car-hire/cosmo-car-hire---belfast-international-airport/"}}},{"node":{"frontmatter":{"title":"Crane Car Van And Minibus Hire","category":"Car Hire","county":"Antrim","type":"Content","excerpt":null,"address":"Crane Car Van And Minibus Hire, 317 Old Park Road, Belfast, Antrim, BT14 7PQ","tel":"+44 (0)28 9074 0361","images":null,"lat":"54.59572982788086","lng":"-5.936308860778809"},"fields":{"slug":"/section-directory-content/car-hire/crane-car-van-and-minibus-hire/"}}},{"node":{"frontmatter":{"title":"Courtesy Vehicle Solutions","category":"Car Hire","county":"Antrim","type":"Content","excerpt":null,"address":"Scottish Provident Building 7 Donegall Square West, Belfast, Antrim, BT1 6JH","tel":"+44 (0)28 9091 8250","images":null,"lat":"54.59640884399414","lng":"-5.930952072143555"},"fields":{"slug":"/section-directory-content/car-hire/courtesy-vehicle-solutions/"}}},{"node":{"frontmatter":{"title":"Dan Dooley Rent A Car","category":"Car Hire","county":"Antrim","type":"Content","excerpt":null,"address":"Dan Dooley Rent A Car, 175b Airport Road Aldergrove, Crumlin, Co. Antrim, BT29 4DN","tel":"+44 (0)28 9445 2522","images":null,"lat":"54.62057876586914","lng":"-6.216598987579346"},"fields":{"slug":"/section-directory-content/car-hire/dan-dooley-rent-a-car/"}}},{"node":{"frontmatter":{"title":"Dollar Thrifty Car Rental","category":"Car Hire","county":"Dublin","type":"Content","excerpt":null,"address":"32 Northwood Court, Northwood Business Park, Santry, Co. Dublin, 9","tel":"+353 (0)18 44 1944","images":null,"lat":"53.404476165771484","lng":"-6.2469482421875"},"fields":{"slug":"/section-directory-content/car-hire/dollar-thrifty-car-rental/"}}},{"node":{"frontmatter":{"title":"Donnelly Brothers Car and Van Hire","category":"Car Hire","county":"Fermanagh","type":"Content","excerpt":null,"address":"101 Irvinestown Road, Enniskillen, Co. Fermanagh, BT74 6DN","tel":"+44 (0)28 6632 2974","images":null,"lat":"54.346771240234375","lng":"-7.645120143890381"},"fields":{"slug":"/section-directory-content/car-hire/donnelly-brothers-car-and-van-hire/"}}},{"node":{"frontmatter":{"title":"Desmond Motors Ford Rent A Car Limited","category":"Car Hire","county":"Derry","type":"Content","excerpt":null,"address":"Desmond Motors Ford Rent A Car Limited, Airport Road, Derry, Derry, BT47 3GY","tel":"+44 (0)28 7181 2222","images":null,"lat":"54.9918098449707","lng":"-7.320168972015381"},"fields":{"slug":"/section-directory-content/car-hire/desmond-motors-ford-rent-a-car-limited/"}}},{"node":{"frontmatter":{"title":"Hagans Motorhomes","category":"Car Hire","county":"Antrim","type":"Content","excerpt":null,"address":"Hagans Motorhomes, 184 Templepatrick Road, Ballyclare, Co. Antrim, BT39 0RA","tel":"+44 (0)28 9334 0200","images":null,"lat":"54.75114822387695","lng":"-5.998569011688232"},"fields":{"slug":"/section-directory-content/car-hire/hagans-motorhomes/"}}},{"node":{"frontmatter":{"title":"Europcar - George Best Belfast City Airport","category":"Car Hire","county":"Antrim","type":"Content","excerpt":null,"address":"Europcar -Belfast City Airport, Sydenham Bypass, Belfast, Antrim, BT3 9JH","tel":"+44 (0)28 9045 0904","images":null,"lat":"54.59572982788086","lng":"-5.936308860778809"},"fields":{"slug":"/section-directory-content/car-hire/europcar---george-best-belfast-city-airport/"}}},{"node":{"frontmatter":{"title":"Europcar- George Best Belfast City Airport","category":"Car Hire","county":"Antrim","type":"Content","excerpt":null,"address":"Europcar -Belfast City Airport, Sydenham Bypass, Belfast, Antrim, BT3 9JH","tel":"+44 (0)28 9045 0904","images":null,"lat":"54.59572982788086","lng":"-5.936308860778809"},"fields":{"slug":"/section-directory-content/car-hire/europcar--george-best-belfast-city-airport/"}}},{"node":{"frontmatter":{"title":"Annagh Motors Car Hire","category":"Car Hire","county":"Down","type":"Content","excerpt":null,"address":"Annagh Motors Car Hire, 51 Church Street, Banbridge, Co. Down, BT32 4AA","tel":"+44 (0)28 4066 2495","images":null,"lat":"54.34701156616211","lng":"-6.2713189125061035"},"fields":{"slug":"/section-directory-content/car-hire/annagh-motors-car-hire/"}}},{"node":{"frontmatter":{"title":"Gallen Vehicle Hire","category":"Car Hire","county":"Tyrone","type":"Content","excerpt":null,"address":"Gallen Vehicle Hire, 96A Drumlegagh Road South Drumquin, Omagh, Co. Tyrone, BT78 4TW","tel":"+44 (0)28 8224 6966","images":null,"lat":"54.651737213134766","lng":"-7.410804271697998"},"fields":{"slug":"/section-directory-content/car-hire/gallen-vehicle-hire/"}}},{"node":{"frontmatter":{"title":"Hertz Rent A Car- George Best Belfast City Airport","category":"Car Hire","county":"Antrim","type":"Content","excerpt":null,"address":"Hertz Rent A Car- Belfast City Airport, Belfast City Airport Sydenham Bypass, Belfast, Antrim, BT3 9JH","tel":"+44 (0)28 9073 2451","images":null,"lat":"54.59572982788086","lng":"-5.936308860778809"},"fields":{"slug":"/section-directory-content/car-hire/hertz-rent-a-car--george-best-belfast-city-airport/"}}},{"node":{"frontmatter":{"title":"Avis Rent A Car- Belfast","category":"Car Hire","county":"Antrim","type":"Content","excerpt":null,"address":"Avis Rent A Car- Belfast, 69-71 Great Victoria Street, Belfast, Antrim, BT2 7AF","tel":"+44 (0)28 9024 0404","images":null,"lat":"54.59572982788086","lng":"-5.936308860778809"},"fields":{"slug":"/section-directory-content/car-hire/avis-rent-a-car--belfast/"}}},{"node":{"frontmatter":{"title":"Europcar City Of Derry Airport","category":"Car Hire","county":"Derry","type":"Content","excerpt":null,"address":"Europcar City Of Derry Airport, City of Derry Airport Airport Road, Eglinton, Derry, BT47 3PZ","tel":"+44 (0)28 7181 2773","images":null,"lat":"54.9918098449707","lng":"-7.320168972015381"},"fields":{"slug":"/section-directory-content/car-hire/europcar-city-of-derry-airport/"}}},{"node":{"frontmatter":{"title":"Alamo and National Car Rental- Belfast City","category":"Car Hire","county":"Antrim","type":"Content","excerpt":null,"address":"Alamo and National Car Rental, Unit 1 90-92 Grosvenor Road, Belfast, Co. Antrim, BT12 5AX","tel":"+44 (0)28 9032 5520","images":null,"lat":"54.59572982788086","lng":"-5.936308860778809"},"fields":{"slug":"/section-directory-content/car-hire/alamo-and-national-car-rental--belfast-city/"}}},{"node":{"frontmatter":{"title":"Europcar Belfast International Airport","category":"Car Hire","county":"Antrim","type":"Content","excerpt":null,"address":"Europcar Belfast International Airport, Belfast International Airport Arrivals Hall, Crumlin, Antrim, BT29 4AB","tel":"+44 (0)28 9442 3444","images":null,"lat":"54.62057876586914","lng":"-6.216598987579346"},"fields":{"slug":"/section-directory-content/car-hire/europcar-belfast-international-airport/"}}},{"node":{"frontmatter":{"title":"Hertz Rent A Car-Belfast International Airport","category":"Car Hire","county":"Antrim","type":"Content","excerpt":null,"address":"Hertz Rent A Car-Belfast International Airport, Terminal Building Belfast International Airport, Crumlin, Antrim, BT29 4DW","tel":"+44 (0)28 9442 2533","images":null,"lat":"54.62057876586914","lng":"-6.216598987579346"},"fields":{"slug":"/section-directory-content/car-hire/hertz-rent-a-car-belfast-international-airport/"}}},{"node":{"frontmatter":{"title":"Irish Motorcycle Adventures","category":"Car Hire","county":"Down","type":"Content","excerpt":null,"address":"Irish Motorcycle Adventures, Head Office Irish Motorcycle Adventures 44 Carnesure Heights, Comber, Down, BT23 5RN","tel":"+44 (0)28 9581 0120","images":null,"lat":"54.546390533447266","lng":"-5.7449164390563965"},"fields":{"slug":"/section-directory-content/car-hire/irish-motorcycle-adventures/"}}},{"node":{"frontmatter":{"title":"Hertz Rent A Car - City of Derry Airport","category":"Car Hire","county":"Derry","type":"Content","excerpt":null,"address":"Hertz Rent A Car - City of Derry Airport, Arrivals Hall City of Derry Airport, Eglinton, Co. Derry, BT47 3PY","tel":"+44 (0)28 7181 1994","images":null,"lat":"54.9918098449707","lng":"-7.320168972015381"},"fields":{"slug":"/section-directory-content/car-hire/hertz-rent-a-car---city-of-derry-airport/"}}},{"node":{"frontmatter":{"title":"Lochside Garages Limited","category":"Car Hire","county":"Fermanagh","type":"Content","excerpt":null,"address":"Lochside Garages Limited, Tempo Road, Enniskillen, Co. Fermanagh, BT74 6HR","tel":"+44 (0)28 6632 8242","images":null,"lat":"54.346771240234375","lng":"-7.645120143890381"},"fields":{"slug":"/section-directory-content/car-hire/lochside-garages-limited/"}}},{"node":{"frontmatter":{"title":"Lindsay Ford Rental Bangor","category":"Car Hire","county":"Down","type":"Content","excerpt":null,"address":"Lindsay Ford Rental Bangor, 3 Balloo Park, Bangor, Co. Down, BT19 7PP","tel":"+44 (0)28 9147 4700","images":null,"lat":"54.645912170410156","lng":"-5.667966842651367"},"fields":{"slug":"/section-directory-content/car-hire/lindsay-ford-rental-bangor/"}}},{"node":{"frontmatter":{"title":"Lindsay Ford Rental Coleraine","category":"Car Hire","county":"Derry","type":"Content","excerpt":null,"address":"Lindsay Ford Rental Coleraine, 80-82 Bushmills Road, Coleraine, Derry, BT52 2BS","tel":"+44 (0)28 7035 5921","images":null,"lat":"55.138118743896484","lng":"-6.66002082824707"},"fields":{"slug":"/section-directory-content/car-hire/lindsay-ford-rental-coleraine/"}}},{"node":{"frontmatter":{"title":"Lindsay Ford Rental-Belfast","category":"Car Hire","county":"Antrim","type":"Content","excerpt":null,"address":"Lindsay Ford Rental-Belfast, 397 Upper Newtownards Road, Belfast, Antrim, BT4 3LG","tel":"+44 (0)28 9065 4687","images":null,"lat":"54.59572982788086","lng":"-5.936308860778809"},"fields":{"slug":"/section-directory-content/car-hire/lindsay-ford-rental-belfast/"}}},{"node":{"frontmatter":{"title":"Lindsay Ford Rental Lisburn","category":"Car Hire","county":"Antrim","type":"Content","excerpt":null,"address":"Lindsay Ford Rental Lisburn, 20 Market Place, Lisburn, Antrim, BT28 1AR","tel":"+44 (0)28 9260 0209","images":null,"lat":"54.510009765625","lng":"-6.043118953704834"},"fields":{"slug":"/section-directory-content/car-hire/lindsay-ford-rental-lisburn/"}}},{"node":{"frontmatter":{"title":"Kingdom Car Hire","category":"Car Hire","county":"Armagh","type":"Content","excerpt":null,"address":"Kingdom Car Hire, 14 Coolmillish Road, Markethill, Co. Armagh, BT60 1QA","tel":"+44 (0)28 3755 1169","images":null,"lat":"54.296939849853516","lng":"-6.5217390060424805"},"fields":{"slug":"/section-directory-content/car-hire/kingdom-car-hire/"}}},{"node":{"frontmatter":{"title":"Provincewide Harley-Davidson","category":"Car Hire","county":"Antrim","type":"Content","excerpt":null,"address":"Provincewide Harley-Davidson, 8 Ferguson's Way Kilbegs Business Park Kilbegs Road (behind Junction One International Outlet), Antrim, Co. Antrim, BT41 4LZ","tel":"+44 (0)28 9446 6999","images":null,"lat":"54.71554946899414","lng":"-6.2163801193237305"},"fields":{"slug":"/section-directory-content/car-hire/provincewide-harley-davidson/"}}},{"node":{"frontmatter":{"title":"Low Cost Car And Van Hire","category":"Car Hire","county":"Down","type":"Content","excerpt":null,"address":"Low Cost Car And Van Hire, 12 Church Street, Bangor, Down, BT20 3HT","tel":"+44 (0)28 9127 1535","images":null,"lat":"54.66252136230469","lng":"-5.6714301109313965"},"fields":{"slug":"/section-directory-content/car-hire/low-cost-car-and-van-hire/"}}},{"node":{"frontmatter":{"title":"Motability Ireland Limited","category":"Car Hire","county":"Meath","type":"Content","excerpt":null,"address":"The Irish Mobility Centre, Unit 21 Ashbourne Industrial Estate, Ashbourne, Co. Meath","tel":"+353 (0)1 835 9173","images":null,"lat":"53.5096321105957","lng":"-6.401942729949951"},"fields":{"slug":"/section-directory-content/car-hire/motability-ireland-limited/"}}},{"node":{"frontmatter":{"title":"Range Rover Rentals","category":"Car Hire","county":"Dublin","type":"Content","excerpt":null,"address":"Range Rover Rentals, Block A, Airside Industrial Estate, Swords, Co. Dublin","tel":"+353 (0)1 8701 400","images":null,"lat":"53.46068572998047","lng":"-6.206238269805908"},"fields":{"slug":"/section-directory-content/car-hire/range-rover-rentals/"}}},{"node":{"frontmatter":{"title":"Motorhomes Rental NI","category":"Car Hire","county":"Antrim","type":"Content","excerpt":null,"address":"Motorhomes Rental NI, 20A Kilbegs Road, Antrim, Co. Antrim, BT41 4NN","tel":"+44 (0)28 9446 1946","images":null,"lat":"54.73381423950195","lng":"-6.2360100746154785"},"fields":{"slug":"/section-directory-content/car-hire/motorhomes-rental-ni/"}}},{"node":{"frontmatter":{"title":"Superior Executive Car Services Ltd","category":"Car Hire","county":"Dublin","type":"Content","excerpt":null,"address":"Rear 26, Derravaragh Road, Terenure, Co. Dublin, Dublin 6w","tel":"+353 (0)14 92 7929","images":null,"lat":"53.3141975402832","lng":"-6.292283535003662"},"fields":{"slug":"/section-directory-content/car-hire/superior-executive-car-services-ltd/"}}},{"node":{"frontmatter":{"title":"National / Alamo Irish Car Rentals","category":"Car Hire","county":"Limerick","type":"Content","excerpt":null,"address":"Units 3 and 4 Westlink Business Park, Clondrinagh, Limerick City, Co. Limerick","tel":"+353 (0)61 20 6088","images":null,"lat":"52.67445373535156","lng":"-8.687199592590332"},"fields":{"slug":"/section-directory-content/car-hire/national- -alamo-irish-car-rentals/"}}},{"node":{"frontmatter":{"title":"McElvaney's Waste and Recycling","category":"Car Hire","county":"Monaghan","type":"Content","excerpt":null,"address":"Monaghan Recycling Centre, Scotchcorner, Ballybay, Co. Monaghan Co. Monaghan","tel":"(042)9744230","images":null,"lat":"54.18128742","lng":"-6.861127523"},"fields":{"slug":"/section-directory-content/car-hire/mcelvaneys-waste-and-recycling/"}}},{"node":{"frontmatter":{"title":"Nova Car Hire","category":"Car Hire","county":"Kerry","type":"Content","excerpt":null,"address":"Nove Rentacar Reservations, Nova Car Hire FEXCO Centre, Killorglin,, Co. Kerry, BT22 1NZ","tel":"0044 353 66 979 1801","images":null,"lat":"54.38146209716797","lng":"-5.548429012298584"},"fields":{"slug":"/section-directory-content/car-hire/nova-car-hire/"}}},{"node":{"frontmatter":{"title":"National Car Rental","category":"Car Hire","county":"Antrim","type":"Content","excerpt":null,"address":"Belfast International Airport, 175, Airport Road, Aldergrove, Belfast, Co. Antrim BT29 4AB","tel":"028 9433 0918","images":null,"lat":"054.6251810000","lng":"-006.2143400000"},"fields":{"slug":"/section-directory-content/car-hire/national-car-rental/"}}},{"node":{"frontmatter":{"title":"Phillip McCallen Motorcycle Rentals","category":"Car Hire","county":"Antrim","type":"Content","excerpt":null,"address":"Phillip McCallen Motorcycle Rentals, Unit 10/11 Portman Business Park Lissue Industrial Estate West Moira Road, Lisburn, Co. Antrim, BT28 2XF","tel":"+44 (0)28 9262 2886","images":null,"lat":"54.50161361694336","lng":"-6.0970282554626465"},"fields":{"slug":"/section-directory-content/car-hire/phillip-mccallen-motorcycle-rentals/"}}}]}},"pageContext":{"isCreatedByStatefulCreatePages":false,"slug":"/section-directory/car-hire/","category":"Car Hire"}}}