{"componentChunkName":"component---src-templates-section-directory-js","path":"/section-directory/marinas/","webpackCompilationHash":"","result":{"data":{"markdownRemark":{"html":"","frontmatter":{"category":"Marinas"}},"allMarkdownRemark":{"distinct":["Antrim","Armagh","Carlow","Cavan","Clare","Cork","Derry","Donegal","Down","Dublin","Fermanagh","Galway","Kerry","Longford","Offaly","Waterford","Westmeath","Wexford","Wicklow"],"edges":[{"node":{"frontmatter":{"title":"Adventure Play And Design Ltd","category":"Marinas","county":"Dublin","type":"Content","excerpt":null,"address":"Long Acre 4 Race Course Commons Lusk Co. Dublin","tel":"(01)8430830","images":null,"lat":"53.5184","lng":"-6.16765"},"fields":{"slug":"/section-directory-content/marinas/adventure-play-and-design-ltd/"}}},{"node":{"frontmatter":{"title":"Carrickavady Marina","category":"Marinas","county":"Fermanagh","type":"Content","excerpt":null,"address":"Boa Island Bridge, Portinode, Kesh, Enniskillen, Co. Fermanagh BT93 8AQ","tel":"028 6632 2666","images":null,"lat":"54.528055","lng":"-7.77425"},"fields":{"slug":"/section-directory-content/marinas/carrickavady-marina/"}}},{"node":{"frontmatter":{"title":"Cahersiveen Marina","category":"Marinas","county":"Kerry","type":"Content","excerpt":null,"address":"Marina Offices, The Pier, Cahersiveen, Co. Kerry","tel":"+353 (0)66 947 2777","images":null,"lat":"51.94257736206055","lng":"-10.228105545043945"},"fields":{"slug":"/section-directory-content/marinas/cahersiveen-marina/"}}},{"node":{"frontmatter":{"title":"Castle Archdale Marina","category":"Marinas","county":"Fermanagh","type":"Content","excerpt":null,"address":"12, Drumhoney Lane, Lisnarick, Enniskillen, Co. Fermanagh BT94 1NB","tel":"028 6862 1892","images":null,"lat":"54.465136","lng":"-7.69866"},"fields":{"slug":"/section-directory-content/marinas/castle-archdale-marina/"}}},{"node":{"frontmatter":{"title":"Ardglass Marina","category":"Marinas","county":"Down","type":"Content","excerpt":null,"address":"Ardglass Marina, 19 Quay Street, Ardglass, Down, BT30 7SA","tel":"+44 (0)28 4484 2332","images":null,"lat":"54.26125717163086","lng":"-5.607643127441406"},"fields":{"slug":"/section-directory-content/marinas/ardglass-marina/"}}},{"node":{"frontmatter":{"title":"Ballycastle Marina","category":"Marinas","county":"Antrim","type":"Content","excerpt":null,"address":"Ballycastle Marina, 14 Bayview Road, Ballycastle, Co. Antrim, BT54 6BT","tel":"+44 (0)28 2076 8525","images":null,"lat":"55.20366287231445","lng":"-6.243484020233154"},"fields":{"slug":"/section-directory-content/marinas/ballycastle-marina/"}}},{"node":{"frontmatter":{"title":"Ballycastle Harbour and Marina","category":"Marinas","county":"Antrim","type":"Content","excerpt":null,"address":"14, Bayview Rd, Ballycastle, Co. Antrim BT54 6BT","tel":"028 2076 8525","images":null,"lat":"55.206825","lng":"-6.24077"},"fields":{"slug":"/section-directory-content/marinas/ballycastle-harbour-and-marina/"}}},{"node":{"frontmatter":{"title":"Copelands Marina Ltd","category":"Marinas","county":"Down","type":"Content","excerpt":null,"address":"The Quarry, Marine Drive, Donaghadee, Co. Down BT21 0HE","tel":"028 9188 2184","images":null,"lat":"54.642707","lng":"-5.53384"},"fields":{"slug":"/section-directory-content/marinas/copelands-marina-ltd/"}}},{"node":{"frontmatter":{"title":"Cloondavaun Bay Marina","category":"Marinas","county":"Galway","type":"Content","excerpt":null,"address":"Clonmoylan, Ballyshrule, Portumna, Co. Galway","tel":"+353 (0)90 974 9227","images":null,"lat":"53.0681266784668","lng":"-8.315314292907715"},"fields":{"slug":"/section-directory-content/marinas/cloondavaun-bay-marina/"}}},{"node":{"frontmatter":{"title":"Carrickfergus Marina","category":"Marinas","county":"Antrim","type":"Content","excerpt":null,"address":"Carrickfergus Borough Council, 3 Quayside, Carrickfergus, Co. Antrim, BT38 8BJ","tel":"+44 (0)28 9336 6666","images":null,"lat":"54.71000671386719","lng":"-5.815503120422363"},"fields":{"slug":"/section-directory-content/marinas/carrickfergus-marina/"}}},{"node":{"frontmatter":{"title":"Coleraine Marina","category":"Marinas","county":"Antrim","type":"Content","excerpt":null,"address":"Coleraine Marina, Coleraine, Co. Antrim","tel":"+44 (0)28 7034 4768","images":null,"lat":"55.14461898803711","lng":"-6.675039291381836"},"fields":{"slug":"/section-directory-content/marinas/coleraine-marina/"}}},{"node":{"frontmatter":{"title":"Davis Liam and Co. Ltd","category":"Marinas","county":"Cork","type":"Content","excerpt":null,"address":"Unit 9 Portside Marina Comml pk Central Park Rd Cork Co. Cork","tel":"(021)4321707","images":null,"lat":"51.90054852","lng":"-8.448529689"},"fields":{"slug":"/section-directory-content/marinas/davis-liam-and-co-ltd/"}}},{"node":{"frontmatter":{"title":"Fenit Harbour Marina","category":"Marinas","county":"Kerry","type":"Content","excerpt":null,"address":"Tralee And Fenit Harbour Commissioners, Fenit, Co. Kerry","tel":"+353 (0)66 713 6231","images":null,"lat":"52.2730712890625","lng":"-9.87460708618164"},"fields":{"slug":"/section-directory-content/marinas/fenit-harbour-marina/"}}},{"node":{"frontmatter":{"title":"Erne Marine","category":"Marinas","county":"Fermanagh","type":"Content","excerpt":null,"address":"Bellanaleck Quay, Enniskillen, Co. Fermanagh BT92 2BA","tel":"07708 127700","images":null,"lat":"54.296405","lng":"-7.64015"},"fields":{"slug":"/section-directory-content/marinas/erne-marine/"}}},{"node":{"frontmatter":{"title":"Erinona Marina","category":"Marinas","county":"Fermanagh","type":"Content","excerpt":null,"address":"Boa Island Bridge, Portinode, Kesh, Enniskillen, Co. Fermanagh BT93 8AQ","tel":"028 6632 2666","images":null,"lat":"54.528055","lng":"-7.77425"},"fields":{"slug":"/section-directory-content/marinas/erinona-marina/"}}},{"node":{"frontmatter":{"title":"Glenarm Marina","category":"Marinas","county":"Antrim","type":"Content","excerpt":null,"address":"Glenarm Harbour, Glenarm, Co. Antrim, BT44 0EA","tel":"+44 (0)28 2884 1285","images":null,"lat":"54.86907958984375","lng":"-6.2760701179504395"},"fields":{"slug":"/section-directory-content/marinas/glenarm-marina/"}}},{"node":{"frontmatter":{"title":"Hanly's Marina","category":"Marinas","county":"Longford","type":"Content","excerpt":null,"address":"Ballyleague Lanesborough Longford Co. Longford","tel":"(043)3321246","images":null,"lat":"53.6728516","lng":"-7.989736008"},"fields":{"slug":"/section-directory-content/marinas/hanlys-marina/"}}},{"node":{"frontmatter":{"title":"Hodson Bay Public Harbour","category":"Marinas","county":"Westmeath","type":"Content","excerpt":null,"address":"Athlone, Co. Westmeath","tel":"+353 (0)44 934 8650","images":null,"lat":"53.41960144042969","lng":"-7.955041885375977"},"fields":{"slug":"/section-directory-content/marinas/hodson-bay-public-harbour/"}}},{"node":{"frontmatter":{"title":"Inland and Coastal Marina Systems Ltd","category":"Marinas","county":"Offaly","type":"Content","excerpt":null,"address":"Queen st Banagher Co. Offaly","tel":"(057)9153963","images":null,"lat":"53.18658237","lng":"-7.992823489"},"fields":{"slug":"/section-directory-content/marinas/inland-and-coastal-marina-systems-ltd/"}}},{"node":{"frontmatter":{"title":"Foyle Pontoon","category":"Marinas","county":"Derry","type":"Content","excerpt":null,"address":"Foyle Pontoon, Derry Port Port Road, Lisahally, Co. Derry, BT47 6FL","tel":"+44 (0)28 7186 0313 (24 hours)","images":null,"lat":"54.9918098449707","lng":"-7.320168972015381"},"fields":{"slug":"/section-directory-content/marinas/foyle-pontoon/"}}},{"node":{"frontmatter":{"title":"Kilmore Quay Harbour Office","category":"Marinas","county":"Wexford","type":"Content","excerpt":null,"address":"Harbour Masters Office, Kilmore Quay, Co. Wexford","tel":"+353 (0)53 912 9955","images":null,"lat":"52.171504974365234","lng":"-6.596811771392822"},"fields":{"slug":"/section-directory-content/marinas/kilmore-quay-harbour-office/"}}},{"node":{"frontmatter":{"title":"Institute of Chartered Accountants in Ireland","category":"Marinas","county":"Dublin","type":"Content","excerpt":null,"address":"47-49 Pearse St Dublin Co. Dublin","tel":"(01)6377200","images":null,"lat":"53.34395","lng":"-6.24846"},"fields":{"slug":"/section-directory-content/marinas/institute-of-chartered-accountants-in-ireland/"}}},{"node":{"frontmatter":{"title":"Irish Adventures","category":"Marinas","county":"Kerry","type":"Content","excerpt":null,"address":"Ballinaboula, Dingle, Co. Kerry","tel":"+353 (0)87 419 0318","images":null,"lat":"52.14725875854492","lng":"-10.289356231689453"},"fields":{"slug":"/section-directory-content/marinas/irish-adventures/"}}},{"node":{"frontmatter":{"title":"Kilrush Creek Marina","category":"Marinas","county":"Clare","type":"Content","excerpt":null,"address":"Kilrush Marina, Kilrush, Co. Clare","tel":"+353 (0)65 905 2072","images":null,"lat":"52.60895919799805","lng":"-7.643680572509766"},"fields":{"slug":"/section-directory-content/marinas/kilrush-creek-marina/"}}},{"node":{"frontmatter":{"title":"J Fitzsimons and Co","category":"Marinas","county":"Dublin","type":"Content","excerpt":null,"address":"11 Kinsealy Business Park, Malahide, Co. Dublin","tel":"(01)8666777","images":null,"lat":"53.42913","lng":"-6.16825"},"fields":{"slug":"/section-directory-content/marinas/j-fitzsimons-and-co/"}}},{"node":{"frontmatter":{"title":"Lee Radiator Services Ltd","category":"Marinas","county":"Cork","type":"Content","excerpt":null,"address":"Unit K1A Marina Commercial Park Centre Park Road Co. Cork","tel":"(021)4311588","images":null,"lat":"51.89739777","lng":"-8.457192852"},"fields":{"slug":"/section-directory-content/marinas/lee-radiator-services-ltd/"}}},{"node":{"frontmatter":{"title":"Lakeland Marine","category":"Marinas","county":"Fermanagh","type":"Content","excerpt":null,"address":"Muckross, Kesh, Co. Fermanagh","tel":"+44 (0)28 6863 1414","images":null,"lat":"54.346771240234375","lng":"-7.645120143890381"},"fields":{"slug":"/section-directory-content/marinas/lakeland-marine/"}}},{"node":{"frontmatter":{"title":"Lawrence Cove Marina","category":"Marinas","county":"Cork","type":"Content","excerpt":null,"address":"Bere Island, Beara, Co. Cork","tel":"+353 (0)27 75 044","images":null,"lat":"51.63432693481445","lng":"-9.82073974609375"},"fields":{"slug":"/section-directory-content/marinas/lawrence-cove-marina/"}}},{"node":{"frontmatter":{"title":"Kinsale Yacht Club Marina","category":"Marinas","county":"Cork","type":"Content","excerpt":null,"address":"Kinsale, Co. Cork","tel":"+353 (0)21 477 3433","images":null,"lat":"51.70183563232422","lng":"-8.52042293548584"},"fields":{"slug":"/section-directory-content/marinas/kinsale-yacht-club-marina/"}}},{"node":{"frontmatter":{"title":"Lough Swilly Marina","category":"Marinas","county":"Donegal","type":"Content","excerpt":null,"address":"Marina Offfice, Fahan, Inishowen, Co. Donegal","tel":"+353 (0)74 936 0008","images":null,"lat":"55.08945846557617","lng":"-7.467312812805176"},"fields":{"slug":"/section-directory-content/marinas/lough-swilly-marina/"}}},{"node":{"frontmatter":{"title":"Malahide Marina Village Ltd","category":"Marinas","county":"Dublin","type":"Content","excerpt":null,"address":"Malahide, Co. Dublin, North County","tel":"+353 (0)1 845 4129","images":null,"lat":"53.441158294677734","lng":"-6.163763046264648"},"fields":{"slug":"/section-directory-content/marinas/malahide-marina-village-ltd/"}}},{"node":{"frontmatter":{"title":"Marina Auto Crash Repairs","category":"Marinas","county":"Cork","type":"Content","excerpt":null,"address":"Unit G8 Marina Commercial pk Centre Park rd Cork Co. Cork","tel":"(021)4310660","images":null,"lat":"51.8982446","lng":"-8.446093343"},"fields":{"slug":"/section-directory-content/marinas/marina-auto-crash-repairs/"}}},{"node":{"frontmatter":{"title":"Marina's Beauty and Body Clinic","category":"Marinas","county":"Donegal","type":"Content","excerpt":null,"address":"11 Main st Dungloe Co. Donegal","tel":"(074)9521011","images":null,"lat":"54.950375","lng":"-8.360658"},"fields":{"slug":"/section-directory-content/marinas/marinas-beauty-and-body-clinic/"}}},{"node":{"frontmatter":{"title":"Peter Barrow Photographer","category":"Marinas","county":"Wicklow","type":"Content","excerpt":null,"address":"Blackberry Lodge Sparrow rd Dunlavin Co. Wicklow Co. Wicklow","tel":"(01)8829155","images":null,"lat":"53.0557","lng":"-6.68864"},"fields":{"slug":"/section-directory-content/marinas/peter-barrow-photographer/"}}},{"node":{"frontmatter":{"title":"Marine Transport Services","category":"Marinas","county":"Cork","type":"Content","excerpt":null,"address":"Cobh, Co. Cork","tel":"+353 (0)21 481 1485","images":null,"lat":"51.848304748535156","lng":"-8.321918487548828"},"fields":{"slug":"/section-directory-content/marinas/marine-transport-services/"}}},{"node":{"frontmatter":{"title":"Malahide Yacht Services","category":"Marinas","county":"Dublin","type":"Content","excerpt":null,"address":"2 Main Street, Malahide, Co. Dublin","tel":"+353 (0)18 45 3396","images":null,"lat":"53.45163345336914","lng":"-6.150725364685059"},"fields":{"slug":"/section-directory-content/marinas/malahide-yacht-services/"}}},{"node":{"frontmatter":{"title":"Masonry Fixing Services Ltd","category":"Marinas","county":"Dublin","type":"Content","excerpt":null,"address":"83 Cherry Orchard Ind Est Ballyfermot Dublin 10 Co. Dublin","tel":"(01)6426700","images":null,"lat":"53.3400407","lng":"-6.350765172"},"fields":{"slug":"/section-directory-content/marinas/masonry-fixing-services-ltd/"}}},{"node":{"frontmatter":{"title":"Poolbeg Yacht and Boat Club and Marina","category":"Marinas","county":"Dublin","type":"Content","excerpt":null,"address":"South Bank Pigeon Hse Rd Ringsend 4 Co. Dublin","tel":"(01)6689983","images":null,"lat":"53.34351469","lng":"-6.216552452"},"fields":{"slug":"/section-directory-content/marinas/poolbeg-yacht-and-boat-club-and-marina/"}}},{"node":{"frontmatter":{"title":"Lynch Marina Lic RCCH- ISHom","category":"Marinas","county":"Cavan","type":"Content","excerpt":null,"address":"Ryefield Virginia Co. Cavan Co. Cavan","tel":"(087)2715588","images":null,"lat":"53.78679373","lng":"-7.054578802"},"fields":{"slug":"/section-directory-content/marinas/lynch-marina-lic-rcch--ishom/"}}},{"node":{"frontmatter":{"title":"Royal Cork Yacht Club","category":"Marinas","county":"Cork","type":"Content","excerpt":null,"address":"Crosshaven, Co. Cork","tel":"+353 (0)21 483 1023","images":null,"lat":"51.804359436035156","lng":"-8.30378532409668"},"fields":{"slug":"/section-directory-content/marinas/royal-cork-yacht-club/"}}},{"node":{"frontmatter":{"title":"Sandy Bay Marina","category":"Marinas","county":"Antrim","type":"Content","excerpt":null,"address":"Eastwood Estate Agents, 17A Lough Road Glenavy, Lisburn, Co. Antrim, BT28 2LQ","tel":"+44 (0)28 9266 5870","images":null,"lat":"54.574954986572266","lng":"-6.276520252227783"},"fields":{"slug":"/section-directory-content/marinas/sandy-bay-marina/"}}},{"node":{"frontmatter":{"title":"Portaferry Marina","category":"Marinas","county":"Down","type":"Content","excerpt":null,"address":"11 The Strand, Portaferry, Co. Down, BT22 1PF","tel":"+44 (0)28 4272 9598","images":null,"lat":"54.38127517700195","lng":"-5.550124168395996"},"fields":{"slug":"/section-directory-content/marinas/portaferry-marina/"}}},{"node":{"frontmatter":{"title":"Staybro Printing and Marina Press Ltd","category":"Marinas","county":"Dublin","type":"Content","excerpt":null,"address":"19/21 Annesley pl 3 Co. Dublin","tel":"(01)8558576","images":null,"lat":"53.36033565","lng":"-6.24050243"},"fields":{"slug":"/section-directory-content/marinas/staybro-printing-and-marina-press-ltd/"}}},{"node":{"frontmatter":{"title":"Waterford Marina","category":"Marinas","county":"Waterford","type":"Content","excerpt":null,"address":"Waterford City Council, City Hall, Waterford City","tel":"+353 (0)51 30 9900","images":null,"lat":"52.2598991394043","lng":"-7.1065545082092285"},"fields":{"slug":"/section-directory-content/marinas/waterford-marina/"}}},{"node":{"frontmatter":{"title":"Ceatharlach Moorings","category":"Marinas","county":"Carlow","type":"Content","excerpt":null,"address":"Leighlin Road, Carlow Town, Co. Carlow","tel":"+353 (0)59 914 2284","images":null,"lat":"52.83439254760742","lng":"-6.918867111206055"},"fields":{"slug":"/section-directory-content/marinas/ceatharlach-moorings/"}}},{"node":{"frontmatter":{"title":"Tralee Marina Holiday Apartments","category":"Marinas","county":"Kerry","type":"Content","excerpt":null,"address":"Tralee Marina Tralee Co. Kerry","tel":"(066)7181222","images":null,"lat":"52.26547787","lng":"-9.716488998"},"fields":{"slug":"/section-directory-content/marinas/tralee-marina-holiday-apartments/"}}},{"node":{"frontmatter":{"title":"Star Outdoors Adventure Centre","category":"Marinas","county":"Kerry","type":"Content","excerpt":null,"address":"Dauros, Kenmare, Co. Kerry","tel":"+353 (0)64 664 1222","images":null,"lat":"51.84984588623047","lng":"-9.631325721740723"},"fields":{"slug":"/section-directory-content/marinas/star-outdoors-adventure-centre/"}}},{"node":{"frontmatter":{"title":"O'Donovan Marina BSc. (Hons) Couns./Psych.- Prof- Cert- In CBT","category":"Marinas","county":"Dublin","type":"Content","excerpt":null,"address":"Sout-West Dublin Co. Dublin","tel":"(087)7961427","images":null,"lat":"51.2186","lng":"-10.8634"},"fields":{"slug":"/section-directory-content/marinas/odonovan-marina-bsc-hons-couns psych--prof--cert--in-cbt/"}}},{"node":{"frontmatter":{"title":"Strangford Yacht Charter","category":"Marinas","county":"Down","type":"Content","excerpt":null,"address":"Strangford Lough Yacht Club, 30 Clea Lough Road, Killyleagh, Co. Down, BT30 9SY","tel":"+44 (0)78 3632 7272","images":null,"lat":"54.594329833984375","lng":"-5.70030403137207"},"fields":{"slug":"/section-directory-content/marinas/strangford-yacht-charter/"}}},{"node":{"frontmatter":{"title":"Kinnego Marina","category":"Marinas","county":"Armagh","type":"Content","excerpt":null,"address":"Oxford Island, Annaloiste Rd, Lurgan, Craigavon, Co. Armagh BT66 6NJ","tel":"028 3832 7573","images":null,"lat":"54.487251","lng":"-6.37243"},"fields":{"slug":"/section-directory-content/marinas/kinnego-marina/"}}}]}},"pageContext":{"isCreatedByStatefulCreatePages":false,"slug":"/section-directory/marinas/","category":"Marinas"}}}