{"componentChunkName":"component---src-templates-section-directory-js","path":"/section-directory/internal-ferry-services/","webpackCompilationHash":"","result":{"data":{"markdownRemark":{"html":"","frontmatter":{"category":"Internal Ferry Services"}},"allMarkdownRemark":{"distinct":["Antrim","Clare","Cork","Derry","Donegal","Down","Fermanagh","Galway","Kerry","Mayo","Tyrone","Waterford","Wicklow"],"edges":[{"node":{"frontmatter":{"title":"Aran Island Ferries","category":"Internal Ferry Services","county":"Galway","type":"Content","excerpt":null,"address":"Aran Island Ferries, Rossaveal, Co. Galway","tel":"+353 (0)91 56 8903","images":null,"lat":"53.27420425415039","lng":"-9.047575950622559"},"fields":{"slug":"/section-directory-content/internal-ferry-services/aran-island-ferries/"}}},{"node":{"frontmatter":{"title":"Arranmore Fast Ferries","category":"Internal Ferry Services","county":"Donegal","type":"Content","excerpt":null,"address":"Arranmore Island, Co. Donegal","tel":"+353 (0)87 317 1810","images":null,"lat":"54.996334075927734","lng":"-8.536290168762207"},"fields":{"slug":"/section-directory-content/internal-ferry-services/arranmore-fast-ferries/"}}},{"node":{"frontmatter":{"title":"Arranmore Ferry Service","category":"Internal Ferry Services","county":"Donegal","type":"Content","excerpt":null,"address":"Annie Bonner, Leabgarrow, ??rainn Mh??r, Co. Donegal","tel":"+353 (0)74 952 0532","images":null,"lat":"54.996334075927734","lng":"-8.536290168762207"},"fields":{"slug":"/section-directory-content/internal-ferry-services/arranmore-ferry-service/"}}},{"node":{"frontmatter":{"title":"Bere Island Ferries","category":"Internal Ferry Services","county":"Cork","type":"Content","excerpt":null,"address":"Ferry Lodge, Bere Island, Co. Cork","tel":"+353 (0)27 75 009","images":null,"lat":"51.636173248291016","lng":"-9.897658348083496"},"fields":{"slug":"/section-directory-content/internal-ferry-services/bere-island-ferries/"}}},{"node":{"frontmatter":{"title":"Blasket Island Ferry","category":"Internal Ferry Services","county":"Kerry","type":"Content","excerpt":null,"address":"D??n Chaoin, Dingle, Co. Kerry","tel":"+353 (0)66 915 6422","images":null,"lat":"52.13308334350586","lng":"-10.455812454223633"},"fields":{"slug":"/section-directory-content/internal-ferry-services/blasket-island-ferry/"}}},{"node":{"frontmatter":{"title":"Caledonian MacBrayne Limited","category":"Internal Ferry Services","county":"Antrim","type":"Content","excerpt":null,"address":"Caledonian MacBrayne Limited, 18 Bay View Road, Ballycastle, Antrim","tel":"+44 (0)28 2076 9299 (Ballycastle)","images":null,"lat":"55.20366287231445","lng":"-6.243484020233154"},"fields":{"slug":"/section-directory-content/internal-ferry-services/caledonian-macbrayne-limited/"}}},{"node":{"frontmatter":{"title":"Britton's Coach Tours","category":"Internal Ferry Services","county":"Tyrone","type":"Content","excerpt":null,"address":"21, Coolermoney Rd, Artigarvan, Strabane, Co. Tyrone BT82 0JX","tel":"028 7184 1815","images":null,"lat":"054.8721120000","lng":"-007.3975250000"},"fields":{"slug":"/section-directory-content/internal-ferry-services/brittons-coach-tours/"}}},{"node":{"frontmatter":{"title":"Cail??n ??ir Ferry and Cruise Service","category":"Internal Ferry Services","county":"Cork","type":"Content","excerpt":null,"address":"Baltimore, Skibbereen, Co. Cork","tel":"+353 (0)28 41 923","images":null,"lat":"51.441104888916016","lng":"-9.496665000915527"},"fields":{"slug":"/section-directory-content/internal-ferry-services/cailn-ir-ferry-and-cruise-service/"}}},{"node":{"frontmatter":{"title":"Celtic Link Ferries (Irl) Ltd","category":"Internal Ferry Services","county":"Wicklow","type":"Content","excerpt":null,"address":"Unit 3 Riverside Business Centre Tinahely Co. Wicklow","tel":"(0402)38084","images":null,"lat":"52.79913603","lng":"-6.464136756"},"fields":{"slug":"/section-directory-content/internal-ferry-services/celtic-link-ferries-irl-ltd/"}}},{"node":{"frontmatter":{"title":"Cape Clear Island Ferry Service","category":"Internal Ferry Services","county":"Cork","type":"Content","excerpt":null,"address":"Ionad Fiontair, Cape Clear Island, Baltimore, West Cork Co. Cork","tel":"(028)39159","images":null,"lat":"51.48040442","lng":"-9.37513458"},"fields":{"slug":"/section-directory-content/internal-ferry-services/cape-clear-island-ferry-service/"}}},{"node":{"frontmatter":{"title":"Capital Coach Hire","category":"Internal Ferry Services","county":"Down","type":"Content","excerpt":null,"address":"105, Airport Road West, Belfast, Co. Down BT3 9LN","tel":"07725 355865","images":null,"lat":"054.6249260000","lng":"-005.9009700000"},"fields":{"slug":"/section-directory-content/internal-ferry-services/capital-coach-hire/"}}},{"node":{"frontmatter":{"title":"Charabanc Coaches","category":"Internal Ferry Services","county":"Antrim","type":"Content","excerpt":null,"address":"8 Glenhurst Gardens, Newtownabbey, Co. Antrim, BT36 7JW","tel":"028 9028 7952","images":null,"lat":"054.6482310000","lng":"-005.9309210000"},"fields":{"slug":"/section-directory-content/internal-ferry-services/charabanc-coaches/"}}},{"node":{"frontmatter":{"title":"Copeland Islands boat trips","category":"Internal Ferry Services","county":"Down","type":"Content","excerpt":null,"address":"Quinton Nelsons Boats, 146 Killaughey Road, Donaghadee, Co. Down, BT21 0BQ","tel":"+44 (0)28 9188 3403","images":null,"lat":"54.64257049560547","lng":"-5.537768840789795"},"fields":{"slug":"/section-directory-content/internal-ferry-services/copeland-islands-boat-trips/"}}},{"node":{"frontmatter":{"title":"Dingle Marine Eco Tours","category":"Internal Ferry Services","county":"Kerry","type":"Content","excerpt":null,"address":"Burnham, Dingle, Co. Kerry","tel":"+353 (0)86 285 8802","images":null,"lat":"52.12269973754883","lng":"-10.308832168579102"},"fields":{"slug":"/section-directory-content/internal-ferry-services/dingle-marine-eco-tours/"}}},{"node":{"frontmatter":{"title":"Dan and Donal McCrohan Boat Operators","category":"Internal Ferry Services","county":"Kerry","type":"Content","excerpt":null,"address":"Valentia Island, Co. Kerry","tel":"+353 (0)66 947 6142","images":null,"lat":"51.90936279296875","lng":"-10.350902557373047"},"fields":{"slug":"/section-directory-content/internal-ferry-services/dan-and-donal-mccrohan-boat-operators/"}}},{"node":{"frontmatter":{"title":"Downshire Coach Travel","category":"Internal Ferry Services","county":"Down","type":"Content","excerpt":null,"address":"1 Meenan Road, Banbridge, Co. Down, BT32 3PJ","tel":"0 2840015014","images":null,"lat":"054.3070970000","lng":"-006.3339570000"},"fields":{"slug":"/section-directory-content/internal-ferry-services/downshire-coach-travel/"}}},{"node":{"frontmatter":{"title":"Dingle Bay Charters","category":"Internal Ferry Services","county":"Kerry","type":"Content","excerpt":null,"address":"Yacht Marina, Dingle, Co. Kerry","tel":"+353 (0)66 915 1344","images":null,"lat":"52.13813781738281","lng":"-10.275800704956055"},"fields":{"slug":"/section-directory-content/internal-ferry-services/dingle-bay-charters/"}}},{"node":{"frontmatter":{"title":"Clare Island Ferry Co. Ltd","category":"Internal Ferry Services","county":"Clare","type":"Content","excerpt":null,"address":"Clare Island Ferry Co. Ltd, Clare Island, Co. Mayo","tel":"+353 (0)98 23 737","images":null,"lat":"53.79245376586914","lng":"-9.988142013549805"},"fields":{"slug":"/section-directory-content/internal-ferry-services/clare-island-ferry-co-ltd/"}}},{"node":{"frontmatter":{"title":"Compass Coach Travel","category":"Internal Ferry Services","county":"Down","type":"Content","excerpt":null,"address":"76, Cootehall Road, Crawfordsburn, Bangor, Co. Down, BT19 1UW","tel":"028 9185 2880","images":null,"lat":"054.6517050000","lng":"-005.7244360000"},"fields":{"slug":"/section-directory-content/internal-ferry-services/compass-coach-travel/"}}},{"node":{"frontmatter":{"title":"Dingle Bay Ferries","category":"Internal Ferry Services","county":"Kerry","type":"Content","excerpt":null,"address":"Dingle Bay Ferries Limited, Dunroman, Lispole, Dingle, Co. Kerry","tel":"+353 (0)66 915 1640","images":null,"lat":"52.13225173950195","lng":"-10.176701545715332"},"fields":{"slug":"/section-directory-content/internal-ferry-services/dingle-bay-ferries/"}}},{"node":{"frontmatter":{"title":"Ferry Service to Long Island","category":"Internal Ferry Services","county":"Cork","type":"Content","excerpt":null,"address":"Colla Pier, Schull, Co. Cork","tel":"+353 (0)28 22 001","images":null,"lat":"51.495628356933594","lng":"-9.560779571533203"},"fields":{"slug":"/section-directory-content/internal-ferry-services/ferry-service-to-long-island/"}}},{"node":{"frontmatter":{"title":"Great Blasket Island Ferry","category":"Internal Ferry Services","county":"Kerry","type":"Content","excerpt":null,"address":"Yacht Marina, Dingle, Co. Kerry","tel":"+353 (0)66 915 1344","images":null,"lat":"52.139137268066406","lng":"-10.273266792297363"},"fields":{"slug":"/section-directory-content/internal-ferry-services/great-blasket-island-ferry/"}}},{"node":{"frontmatter":{"title":"Island Discovery - Inishbofin Ferry","category":"Internal Ferry Services","county":"Galway","type":"Content","excerpt":null,"address":"Cloonamore, Inishbofin, Co. Galway","tel":"+353 (0)95 45 819","images":null,"lat":"53.6213264465332","lng":"-10.193875312805176"},"fields":{"slug":"/section-directory-content/internal-ferry-services/island-discovery---inishbofin-ferry/"}}},{"node":{"frontmatter":{"title":"Inishfree Charters","category":"Internal Ferry Services","county":"Donegal","type":"Content","excerpt":null,"address":"The Pier, Burtonport, Co. Donegal","tel":"+353 (0)74 955 1533","images":null,"lat":"54.983863830566406","lng":"-8.430791854858398"},"fields":{"slug":"/section-directory-content/internal-ferry-services/inishfree-charters/"}}},{"node":{"frontmatter":{"title":"Lady Of The Lake Tours","category":"Internal Ferry Services","county":"Fermanagh","type":"Content","excerpt":null,"address":"Lady Of The Lake, Innishclare, Killadeas, Fermanagh","tel":"+44 (0)28 6862 2200","images":null,"lat":"54.346771240234375","lng":"-7.645120143890381"},"fields":{"slug":"/section-directory-content/internal-ferry-services/lady-of-the-lake-tours/"}}},{"node":{"frontmatter":{"title":"Ferry Molaise III to Devenish Island","category":"Internal Ferry Services","county":"Fermanagh","type":"Content","excerpt":null,"address":"Ferry Molaise III to Devenish Island, Trory Point, Devenish, Enniskillen, Co. Fermanagh, BT94 1PP","tel":"NOVAL","images":null,"lat":"54.346771240234375","lng":"-7.645120143890381"},"fields":{"slug":"/section-directory-content/internal-ferry-services/ferry-molaise-iii-to-devenish-island/"}}},{"node":{"frontmatter":{"title":"Lavelle's Passenger Boat Services","category":"Internal Ferry Services","county":"Kerry","type":"Content","excerpt":null,"address":"Valentia Island, Co. Kerry","tel":"+353 (0)66 947 6124","images":null,"lat":"51.90936279296875","lng":"-10.350902557373047"},"fields":{"slug":"/section-directory-content/internal-ferry-services/lavelles-passenger-boat-services/"}}},{"node":{"frontmatter":{"title":"Murphy Sea Cruise - Boat Trips to Skellig Rock","category":"Internal Ferry Services","county":"Kerry","type":"Content","excerpt":null,"address":"Portmagee, Co. Kerry","tel":"+353 (0)66 947 7156","images":null,"lat":"51.88372802734375","lng":"-10.36933422088623"},"fields":{"slug":"/section-directory-content/internal-ferry-services/murphy-sea-cruise---boat-trips-to-skellig-rock/"}}},{"node":{"frontmatter":{"title":"Joe Roddy and Sons Skellig Trips and Angling","category":"Internal Ferry Services","county":"Kerry","type":"Content","excerpt":null,"address":"Portmagee, Co. Kerry","tel":"+353 (0)87 120 9924","images":null,"lat":"51.885780334472656","lng":"-10.36289119720459"},"fields":{"slug":"/section-directory-content/internal-ferry-services/joe-roddy-and-sons-skellig-trips-and-angling/"}}},{"node":{"frontmatter":{"title":"Machire Rabhartaigh - Carmel Olivia Ferry","category":"Internal Ferry Services","county":"Donegal","type":"Content","excerpt":null,"address":"Magheraroarty, Co. Donegal","tel":"+353 (0)74 913 5635","images":null,"lat":"55.17500686645508","lng":"-8.17246150970459"},"fields":{"slug":"/section-directory-content/internal-ferry-services/machire-rabhartaigh---carmel-olivia-ferry/"}}},{"node":{"frontmatter":{"title":"Inishturk Ferries","category":"Internal Ferry Services","county":"Galway","type":"Content","excerpt":null,"address":"The Harbour, Inishturk Island North, Inishturk, Co. Galway","tel":"+353 (0)98 45 541","images":null,"lat":"53.51239776611328","lng":"-10.152639389038086"},"fields":{"slug":"/section-directory-content/internal-ferry-services/inishturk-ferries/"}}},{"node":{"frontmatter":{"title":"Cross River Ferries Ltd.","category":"Internal Ferry Services","county":"Cork","type":"Content","excerpt":null,"address":"Glenbrooks and Carrigaloe, Co. Cork","tel":"+353 (0)21 481 1223","images":null,"lat":"51.86144256591797","lng":"-8.325525283813477"},"fields":{"slug":"/section-directory-content/internal-ferry-services/cross-river-ferries-ltd/"}}},{"node":{"frontmatter":{"title":"Glengarriff and Garinish Boat Services","category":"Internal Ferry Services","county":"Cork","type":"Content","excerpt":null,"address":"Harbour Queen Ferry Boats, Glengarriff, Co. Cork","tel":"+353 (0)27 63 116","images":null,"lat":"51.75058364868164","lng":"-9.550806045532227"},"fields":{"slug":"/section-directory-content/internal-ferry-services/glengarriff-and-garinish-boat-services/"}}},{"node":{"frontmatter":{"title":"O???Malley Ferries, Clare Island","category":"Internal Ferry Services","county":"Mayo","type":"Content","excerpt":null,"address":"Clare Island, Westport, Co. Mayo","tel":"+353 (0)98 25 045","images":null,"lat":"53.802894592285156","lng":"-9.531205177307129"},"fields":{"slug":"/section-directory-content/internal-ferry-services/omalley-ferries,-clare-island/"}}},{"node":{"frontmatter":{"title":"MV Thresher Ferry","category":"Internal Ferry Services","county":"Cork","type":"Content","excerpt":null,"address":"Heir (Hare) Island and Cunnamore Pier, Co. Cork","tel":"+353 (0)86 809 2447","images":null,"lat":"51.49624252319336","lng":"-9.43885612487793"},"fields":{"slug":"/section-directory-content/internal-ferry-services/mv-thresher-ferry/"}}},{"node":{"frontmatter":{"title":"Seatruck Ferries Ltd","category":"Internal Ferry Services","county":"Down","type":"Content","excerpt":null,"address":"Ferry Terminal, The Docks, Warrenpoint, Newry, Co. Down BT34 3JR","tel":"028 4175 4400","images":null,"lat":"54.100853","lng":"-6.25871"},"fields":{"slug":"/section-directory-content/internal-ferry-services/seatruck-ferries-ltd/"}}},{"node":{"frontmatter":{"title":"Rathlin Island Ferry Ltd","category":"Internal Ferry Services","county":"Antrim","type":"Content","excerpt":null,"address":"Rathlin Island Ferry Limited, Ballycastle Ferry Terminal 18 Bayview Road, Ballycastle, Antrim, BT54 6RT","tel":"+44 (0)28 2076 9299","images":null,"lat":"55.20366287231445","lng":"-6.243484020233154"},"fields":{"slug":"/section-directory-content/internal-ferry-services/rathlin-island-ferry-ltd/"}}},{"node":{"frontmatter":{"title":"O'Malley Ferries (Clare Island) Ltd","category":"Internal Ferry Services","county":"Clare","type":"Content","excerpt":null,"address":"Strake Clare Island Westport Co. Mayo","tel":"(098)25045","images":null,"lat":"53.80448227","lng":"-9.995090621"},"fields":{"slug":"/section-directory-content/internal-ferry-services/omalley-ferries-clare-island-ltd/"}}},{"node":{"frontmatter":{"title":"Star Travel","category":"Internal Ferry Services","county":"Antrim","type":"Content","excerpt":null,"address":"66, Woodburn Road, Carrickfergus, Co. Antrim, BT38 8PS","tel":"0 2893065018","images":null,"lat":"054.7246050000","lng":"-005.8335230000"},"fields":{"slug":"/section-directory-content/internal-ferry-services/star-travel/"}}},{"node":{"frontmatter":{"title":"Seod Ghabhla","category":"Internal Ferry Services","county":"Derry","type":"Content","excerpt":null,"address":"Carrick Mc Garvey, Derrybeg, Letterkenny, Co. Donegal","tel":"+353 (0)87 660 7003","images":null,"lat":"55.07282638549805","lng":"-8.297452926635742"},"fields":{"slug":"/section-directory-content/internal-ferry-services/seod-ghabhla/"}}},{"node":{"frontmatter":{"title":"Skellig Boat Trips","category":"Internal Ferry Services","county":"Kerry","type":"Content","excerpt":null,"address":"Knightstown, Valentia Island, Co. Kerry","tel":"+353 (0)66 947 6120","images":null,"lat":"51.92509460449219","lng":"-10.290797233581543"},"fields":{"slug":"/section-directory-content/internal-ferry-services/skellig-boat-trips/"}}},{"node":{"frontmatter":{"title":"Translink","category":"Internal Ferry Services","county":"Antrim","type":"Content","excerpt":null,"address":"Central Station, East Bridge Street, Belfast, Co. Antrim, BT1 3NR","tel":"028 9066 6630","images":null,"lat":"054.5956430000","lng":"-005.9172720000"},"fields":{"slug":"/section-directory-content/internal-ferry-services/translink/"}}},{"node":{"frontmatter":{"title":"Tory Island Ferry Company","category":"Internal Ferry Services","county":"Derry","type":"Content","excerpt":null,"address":"Strand Road, Middletown, Derrybeg, Co. Donegal","tel":"+353 (0)74 953 1320","images":null,"lat":"54.825862884521484","lng":"-8.525734901428223"},"fields":{"slug":"/section-directory-content/internal-ferry-services/tory-island-ferry-company/"}}},{"node":{"frontmatter":{"title":"Owen Walsh Skellig Boat Trips","category":"Internal Ferry Services","county":"Kerry","type":"Content","excerpt":null,"address":"Valentia Island, Co. Kerry","tel":"+353 (0)66 947 6327","images":null,"lat":"51.92186737060547","lng":"-10.295459747314453"},"fields":{"slug":"/section-directory-content/internal-ferry-services/owen-walsh-skellig-boat-trips/"}}},{"node":{"frontmatter":{"title":"Cape Clear Island and Fastnet Cruises (Schull)","category":"Internal Ferry Services","county":"Cork","type":"Content","excerpt":null,"address":"Schull, Co. Cork","tel":"+353 (0)28 28 278","images":null,"lat":"51.526336669921875","lng":"-9.548206329345703"},"fields":{"slug":"/section-directory-content/internal-ferry-services/cape-clear-island-and-fastnet-cruises-schull/"}}},{"node":{"frontmatter":{"title":"Warrenpoint - Omeath Passenger Ferry and Carlingford Lough cruises","category":"Internal Ferry Services","county":"Down","type":"Content","excerpt":null,"address":"Warrenpoint Passenger Ferry, 12 Ardfield Avenue Warrenpoint, Newry, Co. Down, BT34 3UE","tel":"+44 (0)28 4175 3425","images":null,"lat":"54.10100173950195","lng":"-6.253808975219727"},"fields":{"slug":"/section-directory-content/internal-ferry-services/warrenpoint---omeath-passenger-ferry-and-carlingford-lough-cruises/"}}},{"node":{"frontmatter":{"title":"Murphy's Ferry Service","category":"Internal Ferry Services","county":"Cork","type":"Content","excerpt":null,"address":"Lawrence Cove, Bere Island, Co. Cork","tel":"+353 (0)27 75 014","images":null,"lat":"51.63425827026367","lng":"-9.824969291687012"},"fields":{"slug":"/section-directory-content/internal-ferry-services/murphys-ferry-service/"}}},{"node":{"frontmatter":{"title":"Passage East Car Ferry Co. Ltd","category":"Internal Ferry Services","county":"Waterford","type":"Content","excerpt":null,"address":"Passage East Car Ferry Co. Ltd, Barrack Street (Office), Passage East, Co. Waterford","tel":"+353 (0)51 38 2480","images":null,"lat":"52.22895812988281","lng":"-6.975089073181152"},"fields":{"slug":"/section-directory-content/internal-ferry-services/passage-east-car-ferry-co-ltd/"}}},{"node":{"frontmatter":{"title":"Valentia Island Ferries","category":"Internal Ferry Services","county":"Kerry","type":"Content","excerpt":null,"address":"Knightstown, Valentia Island, Co. Kerry","tel":"+353 (0)66 947 6141","images":null,"lat":"51.92509460449219","lng":"-10.290797233581543"},"fields":{"slug":"/section-directory-content/internal-ferry-services/valentia-island-ferries/"}}},{"node":{"frontmatter":{"title":"HEWITT COACHES","category":"Internal Ferry Services","county":"Antrim","type":"Content","excerpt":null,"address":"33, Thorburn Road, Newtownabbey, Co. Antrim, BT36 7JA","tel":"07960 466801","images":null,"lat":"054.6510180000","lng":"-005.9317850000"},"fields":{"slug":"/section-directory-content/internal-ferry-services/hewitt-coaches/"}}}]}},"pageContext":{"isCreatedByStatefulCreatePages":false,"slug":"/section-directory/internal-ferry-services/","category":"Internal Ferry Services"}}}