{"componentChunkName":"component---src-templates-section-directory-js","path":"/section-directory/wind-surfing/","webpackCompilationHash":"","result":{"data":{"markdownRemark":{"html":"","frontmatter":{"category":"Wind Surfing"}},"allMarkdownRemark":{"distinct":["Cork","Donegal","Dublin","Kerry","Offaly","Waterford","Wexford"],"edges":[{"node":{"frontmatter":{"title":"National Water Sports Centre","category":"Wind Surfing","county":"Donegal","type":"Content","excerpt":null,"address":"Lakeside Centre, Belleek Road, Ballyshannon, Co. Donegal","tel":"+353 (0)71 982 2922","images":null,"lat":"54.502723693847656","lng":"-8.18855094909668"},"fields":{"slug":"/section-directory-content/wind-surfing/national-water-sports-centre/"}}},{"node":{"frontmatter":{"title":"DMG Sailsports","category":"Wind Surfing","county":"Dublin","type":"Content","excerpt":null,"address":"Marina Centre, Malahide, Co. Dublin","tel":"+353 (0)18 45 6946","images":null,"lat":"53.455787658691406","lng":"-6.154308319091797"},"fields":{"slug":"/section-directory-content/wind-surfing/dmg-sailsports/"}}},{"node":{"frontmatter":{"title":"Dunmore East Adventure Centre","category":"Wind Surfing","county":"Waterford","type":"Content","excerpt":null,"address":"Stoney Cove, Dunmore East, Co. Waterford","tel":"+353 (0)51 38 3783","images":null,"lat":"52.1484260559082","lng":"-7.005855083465576"},"fields":{"slug":"/section-directory-content/wind-surfing/dunmore-east-adventure-centre/"}}},{"node":{"frontmatter":{"title":"Derrynane Sea Sports","category":"Wind Surfing","county":"Kerry","type":"Content","excerpt":null,"address":"Derrynane, Caherdaniel, Co. Kerry","tel":"+353 (0)66 947 5266","images":null,"lat":"51.76478576660156","lng":"-10.129175186157227"},"fields":{"slug":"/section-directory-content/wind-surfing/derrynane-sea-sports/"}}},{"node":{"frontmatter":{"title":"Pure Magic Kitesurfing","category":"Wind Surfing","county":"Dublin","type":"Content","excerpt":null,"address":"370 Clontarf Road, Clontarf, Co. Dublin","tel":"+353 (0)18 05 4912","images":null,"lat":"53.36307907104492","lng":"-6.178439140319824"},"fields":{"slug":"/section-directory-content/wind-surfing/pure-magic-kitesurfing/"}}},{"node":{"frontmatter":{"title":"Birr Outdoor Education Centre","category":"Wind Surfing","county":"Offaly","type":"Content","excerpt":null,"address":"Roscrea Road, Birr, Co. Offaly","tel":"+353 (0)57 912 0029","images":null,"lat":"53.09666442871094","lng":"-7.926122188568115"},"fields":{"slug":"/section-directory-content/wind-surfing/birr-outdoor-education-centre/"}}},{"node":{"frontmatter":{"title":"Eclipse Ireland - Kerrys Equestrian and Adventure Centre","category":"Wind Surfing","county":"Kerry","type":"Content","excerpt":null,"address":"Dromore Old, Blackwater Bridge, Killarney, Co. Kerry","tel":"+353 (0)64 668 2965","images":null,"lat":"51.857234954833984","lng":"-9.750615119934082"},"fields":{"slug":"/section-directory-content/wind-surfing/eclipse-ireland---kerrys-equestrian-and-adventure-centre/"}}},{"node":{"frontmatter":{"title":"The Oysterhaven Centre","category":"Wind Surfing","county":"Cork","type":"Content","excerpt":null,"address":"The Oysterhaven Centre, Oysterhaven, Kinsale, Co. Cork","tel":"+353 (0)21 477 0738","images":null,"lat":"51.69216537475586","lng":"-8.443704605102539"},"fields":{"slug":"/section-directory-content/wind-surfing/the-oysterhaven-centre/"}}},{"node":{"frontmatter":{"title":"Rosslare Windsurfing Centre","category":"Wind Surfing","county":"Wexford","type":"Content","excerpt":null,"address":"Rosslare, Rosslare, Co. Wexford","tel":"+353 (0)53 913 2101","images":null,"lat":"52.27670669555664","lng":"-6.402892112731934"},"fields":{"slug":"/section-directory-content/wind-surfing/rosslare-windsurfing-centre/"}}},{"node":{"frontmatter":{"title":"Norrin Radd Kiteboarding","category":"Wind Surfing","county":"Dublin","type":"Content","excerpt":null,"address":"44 Howth Road, Clontarf, Dublin City Area North, Co. Dublin","tel":"+353 (0)18 33 8827","images":null,"lat":"53.36573791503906","lng":"-6.224973678588867"},"fields":{"slug":"/section-directory-content/wind-surfing/norrin-radd-kiteboarding/"}}}]}},"pageContext":{"isCreatedByStatefulCreatePages":false,"slug":"/section-directory/wind-surfing/","category":"Wind Surfing"}}}