{"componentChunkName":"component---src-templates-section-directory-js","path":"/section-directory/bedandbreakfasts/","webpackCompilationHash":"","result":{"data":{"markdownRemark":{"html":"","frontmatter":{"category":"Bedandbreakfasts"}},"allMarkdownRemark":{"distinct":["Antrim","Armagh","Cork","Derry","Donegal","Down","Dublin","Fermanagh","Kerry","Leitrim","Louth","Mayo","Monaghan","Tyrone","Waterford","Westmeath","Wexford","Wicklow"],"edges":[{"node":{"frontmatter":{"title":"Abocurragh Farm Guesthouse","category":"Bedandbreakfasts","county":"Fermanagh","type":"Content","excerpt":null,"address":"Dp1, Abocurragh, Letterbreen, Enniskillen, Co. Fermanagh BT74 9AG","tel":"028 6634 8484","images":null,"lat":"54.287335","lng":"-7.77979"},"fields":{"slug":"/section-directory-content/bedandbreakfasts/abocurragh-farm-guesthouse/"}}},{"node":{"frontmatter":{"title":"Barnawee Bridge Guest House and Self Catering","category":"Bedandbreakfasts","county":"Waterford","type":"Content","excerpt":null,"address":"Kilminion Dungarvan Co. Waterford","tel":"(058)42074","images":null,"lat":"52.10109053","lng":"-7.583074543"},"fields":{"slug":"/section-directory-content/bedandbreakfasts/barnawee-bridge-guest-house-and-self-catering/"}}},{"node":{"frontmatter":{"title":"Aisleigh Guest House and Self Catering Accommodation","category":"Bedandbreakfasts","county":"Dublin","type":"Content","excerpt":null,"address":"Aisleigh Hse Dublin rd Carrick On Shannon Co. Leitrim","tel":"(071)9620313","images":null,"lat":"53.94637996","lng":"-8.080401897"},"fields":{"slug":"/section-directory-content/bedandbreakfasts/aisleigh-guest-house-and-self-catering-accommodation/"}}},{"node":{"frontmatter":{"title":"Beech Hill Country House B and B","category":"Bedandbreakfasts","county":"Down","type":"Content","excerpt":null,"address":"23, Ballymoney Rd, Holywood, Newtownards, Co. Down BT23 4TG","tel":"028 9042 5892","images":null,"lat":"54.630506","lng":"-5.77228"},"fields":{"slug":"/section-directory-content/bedandbreakfasts/beech-hill-country-house-b-and-b/"}}},{"node":{"frontmatter":{"title":"Bay View Guest House","category":"Bedandbreakfasts","county":"Fermanagh","type":"Content","excerpt":null,"address":"Tully Church Hill, Enniskillen, Co. Fermanagh BT93 6HP","tel":"028 6864 1250","images":null,"lat":"054.4554350000","lng":"-007.8117200000"},"fields":{"slug":"/section-directory-content/bedandbreakfasts/bay-view-guest-house/"}}},{"node":{"frontmatter":{"title":"Beltoy Farmhouse Accommodation","category":"Bedandbreakfasts","county":"Antrim","type":"Content","excerpt":null,"address":"45, Ballywillan Rd, Gleno, Larne, Co. Antrim BT40 3LH","tel":"028 9337 3725","images":null,"lat":"54.779823","lng":"-5.79938"},"fields":{"slug":"/section-directory-content/bedandbreakfasts/beltoy-farmhouse-accommodation/"}}},{"node":{"frontmatter":{"title":"Blue Skys House BandB","category":"Bedandbreakfasts","county":"Westmeath","type":"Content","excerpt":null,"address":"Sean Costelloe Street, Town Centre Athlone Co. Westmeath Co. Westmeath","tel":"(090)6478311","images":null,"lat":"53.42280451","lng":"-7.935015091"},"fields":{"slug":"/section-directory-content/bedandbreakfasts/blue-skys-house-bandb/"}}},{"node":{"frontmatter":{"title":"Anderson's Hillcrest House B and B","category":"Bedandbreakfasts","county":"Donegal","type":"Content","excerpt":null,"address":"Lurgybrack Sligo rd Letterkenny Donegal Co. Donegal","tel":"(074)9122300","images":null,"lat":"54.93560996","lng":"-7.696099944"},"fields":{"slug":"/section-directory-content/bedandbreakfasts/andersons-hillcrest-house-b-and-b/"}}},{"node":{"frontmatter":{"title":"Broad Cove Cottage Bed and Breakfast","category":"Bedandbreakfasts","county":"Down","type":"Content","excerpt":null,"address":"93, Ballagh Rd, Newcastle, Co. Down BT33 0LA","tel":"028 4372 7119","images":null,"lat":"054.1763960000","lng":"-005.8770000000"},"fields":{"slug":"/section-directory-content/bedandbreakfasts/broad-cove-cottage-bed-and-breakfast/"}}},{"node":{"frontmatter":{"title":"Carnalbanagh House Bed and Breakfast","category":"Bedandbreakfasts","county":"Derry","type":"Content","excerpt":null,"address":"192, Coleraine Road, Portstewart, Co. Derry, BT55 7PL","tel":"028 7083 6294","images":null,"lat":"055.1660470000","lng":"-006.7041860000"},"fields":{"slug":"/section-directory-content/bedandbreakfasts/carnalbanagh-house-bed-and-breakfast/"}}},{"node":{"frontmatter":{"title":"By-Ways Country Guest House","category":"Bedandbreakfasts","county":"Armagh","type":"Content","excerpt":null,"address":"37, Derryvore Lane, Lower Seagoe, Portadown, Craigavon, Co. Armagh BT63 5RS","tel":"028 3833 4625","images":null,"lat":"54.449174","lng":"-6.436123"},"fields":{"slug":"/section-directory-content/bedandbreakfasts/by-ways-country-guest-house/"}}},{"node":{"frontmatter":{"title":"Bay Cottage Bed and Breakfast","category":"Bedandbreakfasts","county":"Antrim","type":"Content","excerpt":null,"address":"61, Loughview Rd, Aldergrove, Crumlin, Co. Antrim BT29 4ED","tel":"028 9442 8350","images":null,"lat":"054.6700650000","lng":"-006.2720880000"},"fields":{"slug":"/section-directory-content/bedandbreakfasts/bay-cottage-bed-and-breakfast/"}}},{"node":{"frontmatter":{"title":"Braeside Country House","category":"Bedandbreakfasts","county":"Down","type":"Content","excerpt":null,"address":"Braeside Farm, 10, Browns Brae, Croft Rd, Holywood, Co. Down BT18 0HL","tel":"028 9042 6665","images":null,"lat":"54.63799","lng":"-5.81349"},"fields":{"slug":"/section-directory-content/bedandbreakfasts/braeside-country-house/"}}},{"node":{"frontmatter":{"title":"Carrigbyrne Lodge Country B and B","category":"Bedandbreakfasts","county":"Wexford","type":"Content","excerpt":null,"address":"Raheenakennedy Carrigbyrne New Ross Co. Wexford","tel":"(051)428741","images":null,"lat":"52.39271088","lng":"-6.808188096"},"fields":{"slug":"/section-directory-content/bedandbreakfasts/carrigbyrne-lodge-country-b-and-b/"}}},{"node":{"frontmatter":{"title":"Cherith House Bed and Breakfast","category":"Bedandbreakfasts","county":"Antrim","type":"Content","excerpt":null,"address":"39-41, Castle Rd, Ballynure, Ballyclare, Co. Antrim BT39 9QF","tel":"07879 260645","images":null,"lat":"54.776576","lng":"-5.926605"},"fields":{"slug":"/section-directory-content/bedandbreakfasts/cherith-house-bed-and-breakfast/"}}},{"node":{"frontmatter":{"title":"Cairnview Bed and Breakfast","category":"Bedandbreakfasts","county":"Antrim","type":"Content","excerpt":null,"address":"13, Croft Heights, Ballygally, Larne, Co. Antrim BT40 2QS","tel":"028 2858 3269","images":null,"lat":"54.894571","lng":"-5.857524"},"fields":{"slug":"/section-directory-content/bedandbreakfasts/cairnview-bed-and-breakfast/"}}},{"node":{"frontmatter":{"title":"Clearwater House B and B","category":"Bedandbreakfasts","county":"Derry","type":"Content","excerpt":null,"address":"11A, Ballymulligan Road, Magherafelt, Co. Derry, BT45 6ES","tel":"028 7930 0209","images":null,"lat":"054.7259220000","lng":"-006.5915330000"},"fields":{"slug":"/section-directory-content/bedandbreakfasts/clearwater-house-b-and-b/"}}},{"node":{"frontmatter":{"title":"Craigalappin Country House","category":"Bedandbreakfasts","county":"Antrim","type":"Content","excerpt":null,"address":"26 Craigalappin Road, Bushmills, Co. Antrim, BT57 8XY","tel":"028 2073 2027","images":null,"lat":"055.2064250000","lng":"-006.3920600000"},"fields":{"slug":"/section-directory-content/bedandbreakfasts/craigalappin-country-house/"}}},{"node":{"frontmatter":{"title":"Corrigans Shore Guest House","category":"Bedandbreakfasts","county":"Fermanagh","type":"Content","excerpt":null,"address":"Clonatrig Bellanaleck, Enniskillen, Co. Fermanagh BT92 2AR","tel":"028 6634 8572","images":null,"lat":"54.284661","lng":"-7.60179"},"fields":{"slug":"/section-directory-content/bedandbreakfasts/corrigans-shore-guest-house/"}}},{"node":{"frontmatter":{"title":"Cranford Bed and Breakfast","category":"Bedandbreakfasts","county":"Derry","type":"Content","excerpt":null,"address":"11, Circular Rd, Castlerock, Coleraine, Co. Derry BT51 4XA","tel":"028 7084 8669","images":null,"lat":"55.164277","lng":"-6.784087"},"fields":{"slug":"/section-directory-content/bedandbreakfasts/cranford-bed-and-breakfast/"}}},{"node":{"frontmatter":{"title":"Creeve House Country Guest Inn","category":"Bedandbreakfasts","county":"Antrim","type":"Content","excerpt":null,"address":"115, Staffordstown Rd, Randalstown, Antrim, Co. Antrim BT41 3LH","tel":"02894330783","images":null,"lat":"054.7236320000","lng":"-006.3557400000"},"fields":{"slug":"/section-directory-content/bedandbreakfasts/creeve-house-country-guest-inn/"}}},{"node":{"frontmatter":{"title":"Connollys BandB and Self Catering","category":"Bedandbreakfasts","county":"Monaghan","type":"Content","excerpt":null,"address":"Doohamlet Castleblaney Co. Monaghan Co. Monaghan","tel":"(086)3811374","images":null,"lat":"54.126491","lng":"-6.821494"},"fields":{"slug":"/section-directory-content/bedandbreakfasts/connollys-bandb-and-self-catering/"}}},{"node":{"frontmatter":{"title":"FSC Derrygonnelly","category":"Bedandbreakfasts","county":"Fermanagh","type":"Content","excerpt":null,"address":"Creamery St, Derrygonnelly, Enniskillen, Co. Fermanagh BT93 6HW","tel":"028 6864 1673","images":null,"lat":"54.418067","lng":"-7.81762"},"fields":{"slug":"/section-directory-content/bedandbreakfasts/fsc-derrygonnelly/"}}},{"node":{"frontmatter":{"title":"Harbour House Guesthouse Courtown","category":"Bedandbreakfasts","county":"Wexford","type":"Content","excerpt":null,"address":"Courtown Harbour Gorey Co. Wexford Co. Wexford","tel":"(053)9425117","images":null,"lat":"52.64361972","lng":"-6.229659874"},"fields":{"slug":"/section-directory-content/bedandbreakfasts/harbour-house-guesthouse-courtown/"}}},{"node":{"frontmatter":{"title":"Letterkeen House B and B","category":"Bedandbreakfasts","county":"Fermanagh","type":"Content","excerpt":null,"address":"Pettigo Rd, Letterkeen, Kesh, Enniskillen, Co. Fermanagh BT93 1QX","tel":"028 6863 2680","images":null,"lat":"54.533591","lng":"-7.72805"},"fields":{"slug":"/section-directory-content/bedandbreakfasts/letterkeen-house-b-and-b/"}}},{"node":{"frontmatter":{"title":"Longfields Lodge B and B","category":"Bedandbreakfasts","county":"Fermanagh","type":"Content","excerpt":null,"address":"Killadeas, Irvinestown, Enniskillen, Co. Fermanagh BT94 1RJ","tel":"028 6862 8788","images":null,"lat":"54.44105","lng":"-7.66831"},"fields":{"slug":"/section-directory-content/bedandbreakfasts/longfields-lodge-b-and-b/"}}},{"node":{"frontmatter":{"title":"Greenwood Lodge B and B","category":"Bedandbreakfasts","county":"Fermanagh","type":"Content","excerpt":null,"address":"17, Killyvilly Court, Tempo Rd, Enniskillen, Co. Fermanagh BT74 4DP","tel":"028 6632 5636","images":null,"lat":"54.357485","lng":"-7.59172"},"fields":{"slug":"/section-directory-content/bedandbreakfasts/greenwood-lodge-b-and-b/"}}},{"node":{"frontmatter":{"title":"Lough Bran House BandB","category":"Bedandbreakfasts","county":"Leitrim","type":"Content","excerpt":null,"address":"Ballinamore Rd, Faranagh Carrick-on-Shannon Co. Leitrim","tel":"(071)9620707","images":null,"lat":"53.97769565","lng":"-8.057556663"},"fields":{"slug":"/section-directory-content/bedandbreakfasts/lough-bran-house-bandb/"}}},{"node":{"frontmatter":{"title":"Killead Lodge","category":"Bedandbreakfasts","county":"Antrim","type":"Content","excerpt":null,"address":"25, Killead Road, Aldergrove, Crumlin, Co. Antrim, BT29 4EL","tel":"02894 459896","images":null,"lat":"054.6587780000","lng":"-006.1936320000"},"fields":{"slug":"/section-directory-content/bedandbreakfasts/killead-lodge/"}}},{"node":{"frontmatter":{"title":"Robin Hill Holistic Centre and Select Accommodation","category":"Bedandbreakfasts","county":"Cork","type":"Content","excerpt":null,"address":"Robin Hill Clinic Cobh Cork Co. Cork","tel":"(021)4812222","images":null,"lat":"51.854942","lng":"-8.297295"},"fields":{"slug":"/section-directory-content/bedandbreakfasts/robin-hill-holistic-centre-and-select-accommodation/"}}},{"node":{"frontmatter":{"title":"Riverside Farm Guest House","category":"Bedandbreakfasts","county":"Fermanagh","type":"Content","excerpt":null,"address":" Gortadrehid Little, Enniskillen, Co. Fermanagh BT92 2FN","tel":"028 6632 2725","images":null,"lat":"54.325953","lng":"-7.64869"},"fields":{"slug":"/section-directory-content/bedandbreakfasts/riverside-farm-guest-house/"}}},{"node":{"frontmatter":{"title":"Pearl Court Guest House and Serviced Apartment","category":"Bedandbreakfasts","county":"Antrim","type":"Content","excerpt":null,"address":"11, Malone Road, Belfast, Co. Antrim, BT9 6RT","tel":"028 9066 6145","images":null,"lat":"054.5818180000","lng":"-005.9378640000"},"fields":{"slug":"/section-directory-content/bedandbreakfasts/pearl-court-guest-house-and-serviced-apartment/"}}},{"node":{"frontmatter":{"title":"Cranmore House B and B","category":"Bedandbreakfasts","county":"Down","type":"Content","excerpt":null,"address":"163, Newcastle Rd, Kilkeel, Newry, Co. Down BT34 4NN","tel":"028 4176 2021","images":null,"lat":"054.0743470000","lng":"-005.9742900000"},"fields":{"slug":"/section-directory-content/bedandbreakfasts/cranmore-house-b-and-b/"}}},{"node":{"frontmatter":{"title":"The Derryvree House","category":"Bedandbreakfasts","county":"Fermanagh","type":"Content","excerpt":null,"address":"200, Belfast Rd, Maguiresbridge, Enniskillen, Co. Fermanagh BT94 4LD","tel":"028 8953 1251","images":null,"lat":"54.297759","lng":"-7.44143"},"fields":{"slug":"/section-directory-content/bedandbreakfasts/the-derryvree-house/"}}},{"node":{"frontmatter":{"title":"Lough Cowey Lodge","category":"Bedandbreakfasts","county":"Down","type":"Content","excerpt":null,"address":"9, Lough Cowey Rd, Portaferry, Newtownards, Co. Down BT22 1PJ","tel":"028 4272 8263","images":null,"lat":"054.4082730000","lng":"-005.5502460000"},"fields":{"slug":"/section-directory-content/bedandbreakfasts/lough-cowey-lodge/"}}},{"node":{"frontmatter":{"title":"Valleyview Country House","category":"Bedandbreakfasts","county":"Antrim","type":"Content","excerpt":null,"address":"6a, Ballyclogh Rd, Bushmills, Co. Antrim BT57 8TU","tel":"028 2074 2739","images":null,"lat":"055.1487770000","lng":"-006.5223120000"},"fields":{"slug":"/section-directory-content/bedandbreakfasts/valleyview-country-house/"}}},{"node":{"frontmatter":{"title":"Nanlo Bed and Breakfast","category":"Bedandbreakfasts","county":"Down","type":"Content","excerpt":null,"address":"54a, Drumnaconagher Rd, Crossgar, Downpatrick, Co. Down BT30 9JH","tel":"028 4483 2866","images":null,"lat":"54.382965","lng":"-5.81998"},"fields":{"slug":"/section-directory-content/bedandbreakfasts/nanlo-bed-and-breakfast/"}}},{"node":{"frontmatter":{"title":"The Millstone Bar, Restaurant and Accommodation","category":"Bedandbreakfasts","county":"Tyrone","type":"Content","excerpt":null,"address":"1, Glenpark Rd, Omagh, Co. Tyrone BT79 7SP","tel":"028 8224 4804","images":null,"lat":"54.642621","lng":"-7.298204"},"fields":{"slug":"/section-directory-content/bedandbreakfasts/the-millstone-bar,-restaurant-and-accommodation/"}}},{"node":{"frontmatter":{"title":"Tollyrose Country House Bed and Breakfast","category":"Bedandbreakfasts","county":"Down","type":"Content","excerpt":null,"address":"15, Hilltown Rd, Newcastle, Co. Down BT33 0PX","tel":"028 4372 6077","images":null,"lat":"54.225811","lng":"-5.94444"},"fields":{"slug":"/section-directory-content/bedandbreakfasts/tollyrose-country-house-bed-and-breakfast/"}}},{"node":{"frontmatter":{"title":"Phyllis and Joe O'Reilly BandB","category":"Bedandbreakfasts","county":"Waterford","type":"Content","excerpt":null,"address":"Anvill House Ashe Rd 686 The Orchard Kingsmeadow Co. Waterford","tel":"(051)373617","images":null,"lat":"52.24805417","lng":"-7.12748721"},"fields":{"slug":"/section-directory-content/bedandbreakfasts/phyllis-and-joe-oreilly-bandb/"}}},{"node":{"frontmatter":{"title":"Lakeview Guest House","category":"Bedandbreakfasts","county":"Fermanagh","type":"Content","excerpt":null,"address":"Blaney, A46 Rd, Drumcrow East, Enniskillen, Co. Fermanagh BT93 7EY","tel":"028 6864 1263","images":null,"lat":"54.44822","lng":"-7.79781"},"fields":{"slug":"/section-directory-content/bedandbreakfasts/lakeview-guest-house/"}}},{"node":{"frontmatter":{"title":"Whitehill Bed and Breakfast","category":"Bedandbreakfasts","county":"Antrim","type":"Content","excerpt":null,"address":"96, Gortgole Rd, Portglenone, Ballymena, Co. Antrim BT44 8AN","tel":"028 2582 2124","images":null,"lat":"54.886801","lng":"-6.485801"},"fields":{"slug":"/section-directory-content/bedandbreakfasts/whitehill-bed-and-breakfast/"}}},{"node":{"frontmatter":{"title":"West Coast House Bed and Breakfast","category":"Bedandbreakfasts","county":"Mayo","type":"Content","excerpt":null,"address":"School Road, Dooagh, Achill Island, Co. Mayo Co. Mayo","tel":"(098)43317","images":null,"lat":"53.97306519","lng":"-10.11520773"},"fields":{"slug":"/section-directory-content/bedandbreakfasts/west-coast-house-bed-and-breakfast/"}}},{"node":{"frontmatter":{"title":"WILLOWBANK HOUSE BED and BREAKFAST","category":"Bedandbreakfasts","county":"Fermanagh","type":"Content","excerpt":null,"address":"60, Bellevue Rd, Enniskillen, Co. Fermanagh BT74 4JH","tel":"02866 328582","images":null,"lat":"054.3067040000","lng":"-007.6266400000"},"fields":{"slug":"/section-directory-content/bedandbreakfasts/willowbank-house-bed-and-breakfast/"}}},{"node":{"frontmatter":{"title":"Windsor Lodge BandB Drogheda","category":"Bedandbreakfasts","county":"Louth","type":"Content","excerpt":null,"address":"One, The Court, North Road, Drogheda Co. Louth Co. Louth","tel":"(041)9841966","images":null,"lat":"53.72421288","lng":"-6.363359466"},"fields":{"slug":"/section-directory-content/bedandbreakfasts/windsor-lodge-bandb-drogheda/"}}},{"node":{"frontmatter":{"title":"Woodlands Paudie and Julia O'Donoghue","category":"Bedandbreakfasts","county":"Kerry","type":"Content","excerpt":null,"address":"Ballydowney Golf Course rd Killarney Co. Kerry Co. Kerry","tel":"(064)6631467","images":null,"lat":"52.06782135","lng":"-9.527056845"},"fields":{"slug":"/section-directory-content/bedandbreakfasts/woodlands-paudie-and-julia-odonoghue/"}}},{"node":{"frontmatter":{"title":"Norfolk House","category":"Bedandbreakfasts","county":"Fermanagh","type":"Content","excerpt":null,"address":"Dp1, Killykeeran, Brookeborough, Enniskillen, Co. Fermanagh BT94 4AQ","tel":"028 8953 1681","images":null,"lat":"54.30944","lng":"-7.43291"},"fields":{"slug":"/section-directory-content/bedandbreakfasts/norfolk-house/"}}},{"node":{"frontmatter":{"title":"Willow Brick Lodge BandB","category":"Bedandbreakfasts","county":"Antrim","type":"Content","excerpt":null,"address":"8, Woodvale Road, Lisburn, Co. Antrim, BT27 6UN","tel":"02892 638 429","images":null,"lat":"054.4749110000","lng":"-005.9258160000"},"fields":{"slug":"/section-directory-content/bedandbreakfasts/willow-brick-lodge-bandb/"}}},{"node":{"frontmatter":{"title":"Escombe Guest Accommodation","category":"Bedandbreakfasts","county":"Wicklow","type":"Content","excerpt":null,"address":"Lockstown Valleymount Glendalough rd Blessington Co. Wicklow","tel":"(045)867157","images":null,"lat":"53.07733038","lng":"-6.532135854"},"fields":{"slug":"/section-directory-content/bedandbreakfasts/escombe-guest-accommodation/"}}},{"node":{"frontmatter":{"title":"Glenfield Bed and Breakfast","category":"Bedandbreakfasts","county":"Antrim","type":"Content","excerpt":null,"address":"141, Church Rd, Glenwherry, Ballymena, Co. Antrim BT42 3EJ","tel":"028 2583 1283","images":null,"lat":"54.827221","lng":"-6.0585"},"fields":{"slug":"/section-directory-content/bedandbreakfasts/glenfield-bed-and-breakfast/"}}}]}},"pageContext":{"isCreatedByStatefulCreatePages":false,"slug":"/section-directory/bedandbreakfasts/","category":"Bedandbreakfasts"}}}