{"componentChunkName":"component---src-templates-section-directory-js","path":"/section-directory/italian-restaurants/","webpackCompilationHash":"","result":{"data":{"markdownRemark":{"html":"","frontmatter":{"category":"Italian Restaurants"}},"allMarkdownRemark":{"distinct":["Antrim","Cavan","Cork","Donegal","Down","Dublin","Galway","Kerry","Kildare","Kilkenny","Laois","Limerick","Mayo","Offaly","Tyrone","Waterford","Westmeath","Wicklow"],"edges":[{"node":{"frontmatter":{"title":"Acquolina Italian Restaurant","category":"Italian Restaurants","county":"Donegal","type":"Content","excerpt":null,"address":"The Old Courthouse, Visitor Centre, Lifford, Co. Donegal","tel":"+353 (0)74 914 1733","images":null,"lat":"54.83357238769531","lng":"-7.487743854522705"},"fields":{"slug":"/section-directory-content/italian-restaurants/acquolina-italian-restaurant/"}}},{"node":{"frontmatter":{"title":"Barbara Fisher - Italian Translator and Interpreter","category":"Italian Restaurants","county":"Down","type":"Content","excerpt":null,"address":"42, Main Street, Belfast, Newtownards, Co. Down, BT22 2SP","tel":"02842 738930","images":null,"lat":"054.4885530000","lng":"-005.5348460000"},"fields":{"slug":"/section-directory-content/italian-restaurants/barbara-fisher---italian-translator-and-interpreter/"}}},{"node":{"frontmatter":{"title":"Bullys Restaurant Douglas Village","category":"Italian Restaurants","county":"Cork","type":"Content","excerpt":null,"address":"7 Douglas Village East, Cork","tel":"+353 (0)21 489 2415","images":null,"lat":"51.87608337402344","lng":"-8.436033248901367"},"fields":{"slug":"/section-directory-content/italian-restaurants/bullys-restaurant-douglas-village/"}}},{"node":{"frontmatter":{"title":"Cactus Jacks","category":"Italian Restaurants","county":"Galway","type":"Content","excerpt":null,"address":"Courthouse Lane, Quay Street, Galway City Centre","tel":"+353 (0)91 56 3838","images":null,"lat":"53.27145767211914","lng":"-9.054463386535645"},"fields":{"slug":"/section-directory-content/italian-restaurants/cactus-jacks/"}}},{"node":{"frontmatter":{"title":"Bucci Il Ristorante","category":"Italian Restaurants","county":"Dublin","type":"Content","excerpt":null,"address":"7 Lower Camden Street, Dublin City Centre, Co. Dublin, Dublin 2","tel":"+353 (0)14 75 1000","images":null,"lat":"53.3360481262207","lng":"-6.265167236328125"},"fields":{"slug":"/section-directory-content/italian-restaurants/bucci-il-ristorante/"}}},{"node":{"frontmatter":{"title":"Central Translations (NI) Ltd","category":"Italian Restaurants","county":"Antrim","type":"Content","excerpt":null,"address":"Cathedral House, 23-31 Waring Street, Belfast, Co. Antrim, BT1 2DX","tel":"028 9002 8302","images":null,"lat":"054.6006150000","lng":"-005.9274200000"},"fields":{"slug":"/section-directory-content/italian-restaurants/central-translations-ni-ltd/"}}},{"node":{"frontmatter":{"title":"Cucina Italiana","category":"Italian Restaurants","county":"Kerry","type":"Content","excerpt":null,"address":"12 St. Anthony's Place, Killarney, Co. Kerry","tel":"+353 (0)64 662 6575","images":null,"lat":"52.058616638183594","lng":"-9.506180763244629"},"fields":{"slug":"/section-directory-content/italian-restaurants/cucina-italiana/"}}},{"node":{"frontmatter":{"title":"Cano's Pizzeria","category":"Italian Restaurants","county":"Tyrone","type":"Content","excerpt":null,"address":"Unit E, Buttermarket Centre Feenys Lane, Dungannon, Co. Tyrone, BT70 1TX","tel":"028 8772 2334","images":null,"lat":"054.5055910000","lng":"-006.7697600000"},"fields":{"slug":"/section-directory-content/italian-restaurants/canos-pizzeria/"}}},{"node":{"frontmatter":{"title":"Flanagans Restaurant And Pizzeria","category":"Italian Restaurants","county":"Dublin","type":"Content","excerpt":null,"address":"61 Upper O' Connell Street, Dublin City Centre, Co. Dublin, Dublin 1","tel":"+353 (0)18 73 1388","images":null,"lat":"53.34990310668945","lng":"-6.262606143951416"},"fields":{"slug":"/section-directory-content/italian-restaurants/flanagans-restaurant-and-pizzeria/"}}},{"node":{"frontmatter":{"title":"Caravaggios Restaurant","category":"Italian Restaurants","county":"Dublin","type":"Content","excerpt":null,"address":"The Alexander Hotel, Merrion Square, Dublin City Centre, Co. Dublin, Dublin 2","tel":"+353 (0)1 607 3700","images":null,"lat":"53.34184265136719","lng":"-6.249135971069336"},"fields":{"slug":"/section-directory-content/italian-restaurants/caravaggios-restaurant/"}}},{"node":{"frontmatter":{"title":"Da Pino","category":"Italian Restaurants","county":"Dublin","type":"Content","excerpt":null,"address":"38 - 40 Parliament Street, Dublin City Centre, Co. Dublin, Dublin 2","tel":"+353 (0)16 71 9308","images":null,"lat":"53.34419631958008","lng":"-6.267508506774902"},"fields":{"slug":"/section-directory-content/italian-restaurants/da-pino/"}}},{"node":{"frontmatter":{"title":"Ginos Pizza Restaurant","category":"Italian Restaurants","county":"Waterford","type":"Content","excerpt":null,"address":"Ginos Pizza Restaurant, The Applemarket, Waterford City, Co. Waterford","tel":"+353 (0)51 87 9513","images":null,"lat":"52.258216857910156","lng":"-7.11142110824585"},"fields":{"slug":"/section-directory-content/italian-restaurants/ginos-pizza-restaurant/"}}},{"node":{"frontmatter":{"title":"Frankie and Benny's","category":"Italian Restaurants","county":"Antrim","type":"Content","excerpt":null,"address":"Unit Ro2, Roof Garden, Victoria Square Shopping Centre, Belfast, Co. Antrim BT1 4QG","tel":"028 9072 7820","images":null,"lat":"54.599752","lng":"-5.925"},"fields":{"slug":"/section-directory-content/italian-restaurants/frankie-and-bennys/"}}},{"node":{"frontmatter":{"title":"Freddys Bistro","category":"Italian Restaurants","county":"Limerick","type":"Content","excerpt":null,"address":"Theatre Lane, Lower Glentworth Street, Limerick City Centre, Co. Limerick","tel":"+353 (0)61 41 8749","images":null,"lat":"52.660213470458984","lng":"-8.627358436584473"},"fields":{"slug":"/section-directory-content/italian-restaurants/freddys-bistro/"}}},{"node":{"frontmatter":{"title":"Il Vignardo Restaurant","category":"Italian Restaurants","county":"Dublin","type":"Content","excerpt":null,"address":"Hotel Isaacs,, Store Street, Co. Dublin, Dublin 1","tel":"+353 (0)18 55 3099","images":null,"lat":"53.34998321533203","lng":"-6.252706527709961"},"fields":{"slug":"/section-directory-content/italian-restaurants/il-vignardo-restaurant/"}}},{"node":{"frontmatter":{"title":"Giovannis Restaurant","category":"Italian Restaurants","county":"Dublin","type":"Content","excerpt":null,"address":"3 - 4 Townyard House, Townyard Lane, Malahide, Co. Dublin, Fingal","tel":"+353 (0)1 845 1733","images":null,"lat":"53.44185256958008","lng":"-6.162227630615234"},"fields":{"slug":"/section-directory-content/italian-restaurants/giovannis-restaurant/"}}},{"node":{"frontmatter":{"title":"Il Posto","category":"Italian Restaurants","county":"Dublin","type":"Content","excerpt":null,"address":"10 Saint Stephens Green, Dublin City Centre, Co. Dublin, Dublin 2","tel":"+353 (0)16 79 4769","images":null,"lat":"53.339385986328125","lng":"-6.260422229766846"},"fields":{"slug":"/section-directory-content/italian-restaurants/il-posto/"}}},{"node":{"frontmatter":{"title":"Casa Pasta Clontarf","category":"Italian Restaurants","county":"Dublin","type":"Content","excerpt":null,"address":"55 Clontarf Road, Dublin City Area North, Co. Dublin, Dublin 3","tel":"+353 (0)18 33 1402","images":null,"lat":"53.36274719238281","lng":"-6.218368053436279"},"fields":{"slug":"/section-directory-content/italian-restaurants/casa-pasta-clontarf/"}}},{"node":{"frontmatter":{"title":"Il Primo Ristorante","category":"Italian Restaurants","county":"Dublin","type":"Content","excerpt":null,"address":"16 Montague Street, Dublin City Centre, Co. Dublin, Dublin 2","tel":"+353 (0)14 78 3373","images":null,"lat":"53.33645248413086","lng":"-6.263859272003174"},"fields":{"slug":"/section-directory-content/italian-restaurants/il-primo-ristorante/"}}},{"node":{"frontmatter":{"title":"La Piccola Italia","category":"Italian Restaurants","county":"Limerick","type":"Content","excerpt":null,"address":"O Connell Street, Limerick, Limerick City Centre, Co. Limerick","tel":"+353 (0)61 31 5844","images":null,"lat":"52.6624641418457","lng":"-8.62635612487793"},"fields":{"slug":"/section-directory-content/italian-restaurants/la-piccola-italia/"}}},{"node":{"frontmatter":{"title":"La Dolche Vita","category":"Italian Restaurants","county":"Wicklow","type":"Content","excerpt":null,"address":"The Mall Centre, Main Street, Wicklow, Co. Wicklow","tel":"+353 (0)40 46 7075","images":null,"lat":"52.9727783203125","lng":"-6.050323009490967"},"fields":{"slug":"/section-directory-content/italian-restaurants/la-dolche-vita/"}}},{"node":{"frontmatter":{"title":"La Rivista","category":"Italian Restaurants","county":"Kilkenny","type":"Content","excerpt":null,"address":"22 Parliament Street, Kilkenny City, Co. Kilkenny","tel":"+353 (0)56 777 1666","images":null,"lat":"52.654972076416016","lng":"-7.254696846008301"},"fields":{"slug":"/section-directory-content/italian-restaurants/la-rivista/"}}},{"node":{"frontmatter":{"title":"Lannigans Restaurant Quality Hotel Waterford","category":"Italian Restaurants","county":"Waterford","type":"Content","excerpt":null,"address":"The Quays, Canada Street, Waterford City Centre, Co. Waterford","tel":"+353 (0)51 85 6600","images":null,"lat":"52.262020111083984","lng":"-7.111652851104736"},"fields":{"slug":"/section-directory-content/italian-restaurants/lannigans-restaurant-quality-hotel-waterford/"}}},{"node":{"frontmatter":{"title":"La Mezza Luna","category":"Italian Restaurants","county":"Dublin","type":"Content","excerpt":null,"address":"1 Temple Lane, Temple Bar, Dublin City Centre, Co. Dublin, Dublin 2","tel":"+353 (0)16 71 2840","images":null,"lat":"53.344261169433594","lng":"-6.2644877433776855"},"fields":{"slug":"/section-directory-content/italian-restaurants/la-mezza-luna/"}}},{"node":{"frontmatter":{"title":"Le Caprice Restaurant","category":"Italian Restaurants","county":"Dublin","type":"Content","excerpt":null,"address":"12 Saint Andrews Street, Dublin City Centre, Co. Dublin, Dublin 2","tel":"+353 (0)1 679 4050","images":null,"lat":"53.343658447265625","lng":"-6.2625603675842285"},"fields":{"slug":"/section-directory-content/italian-restaurants/le-caprice-restaurant/"}}},{"node":{"frontmatter":{"title":"Lautrecs Bistro","category":"Italian Restaurants","county":"Kilkenny","type":"Content","excerpt":null,"address":"Lautrecs Bistro, 9 Saint Kieran Street, Kilkenny, Co. Kilkenny","tel":"+353 (0)56 776 2720","images":null,"lat":"52.65372848510742","lng":"-7.261337757110596"},"fields":{"slug":"/section-directory-content/italian-restaurants/lautrecs-bistro/"}}},{"node":{"frontmatter":{"title":"Michelangelo Restaurant","category":"Italian Restaurants","county":"Kildare","type":"Content","excerpt":null,"address":"Main Street, Celbridge, Co. Kildare","tel":"+353 (0)16 27 1809","images":null,"lat":"53.339195251464844","lng":"-6.5431976318359375"},"fields":{"slug":"/section-directory-content/italian-restaurants/michelangelo-restaurant/"}}},{"node":{"frontmatter":{"title":"Mexico to Rome","category":"Italian Restaurants","county":"Dublin","type":"Content","excerpt":null,"address":"23 East Essex Street,, Temple Bar, Dublin city centre, Co. Dublin, Dublin 2","tel":"+353 (0)16 77 2727","images":null,"lat":"53.34572219848633","lng":"-6.26433801651001"},"fields":{"slug":"/section-directory-content/italian-restaurants/mexico-to-rome/"}}},{"node":{"frontmatter":{"title":"Mona Lisa Italian Restaurant","category":"Italian Restaurants","county":"Dublin","type":"Content","excerpt":null,"address":"16A D'Olier Street,, Dublin city centre, Co. Dublin, Dublin 2","tel":"+353 (0)16 77 0499","images":null,"lat":"53.34598922729492","lng":"-6.257900238037109"},"fields":{"slug":"/section-directory-content/italian-restaurants/mona-lisa-italian-restaurant/"}}},{"node":{"frontmatter":{"title":"Mezzo Italian Restaurant","category":"Italian Restaurants","county":"Offaly","type":"Content","excerpt":null,"address":"Bolger House, Patrick Street, Tullamore, Co. Offaly","tel":"+353 (0)57 932 9333","images":null,"lat":"53.275665283203125","lng":"-7.493520736694336"},"fields":{"slug":"/section-directory-content/italian-restaurants/mezzo-italian-restaurant/"}}},{"node":{"frontmatter":{"title":"Little Italy Restaurant","category":"Italian Restaurants","county":"Kilkenny","type":"Content","excerpt":null,"address":"21 John Street, Kilkenny City, Co. Kilkenny","tel":"+353 (0)56 771 2765","images":null,"lat":"52.652225494384766","lng":"-7.2493062019348145"},"fields":{"slug":"/section-directory-content/italian-restaurants/little-italy-restaurant/"}}},{"node":{"frontmatter":{"title":"Little Sicily","category":"Italian Restaurants","county":"Dublin","type":"Content","excerpt":null,"address":"13 Parliment Street, Temple Bar, Dublin City Centre, Co. Dublin, Dublin 2","tel":"+353 (0)16 71 3425","images":null,"lat":"53.34525680541992","lng":"-6.260227680206299"},"fields":{"slug":"/section-directory-content/italian-restaurants/little-sicily/"}}},{"node":{"frontmatter":{"title":"Ouzos Bistro","category":"Italian Restaurants","county":"Dublin","type":"Content","excerpt":null,"address":"11 Upper Baggot Street,, Dublin city centre, Co. Dublin, Dublin 4","tel":"+353 (0)16 67 3279","images":null,"lat":"53.33360290527344","lng":"-6.244969844818115"},"fields":{"slug":"/section-directory-content/italian-restaurants/ouzos-bistro/"}}},{"node":{"frontmatter":{"title":"Pasta Fresca","category":"Italian Restaurants","county":"Dublin","type":"Content","excerpt":null,"address":"2 - 4 Chatham Street, Dublin City Centre, Co. Dublin, Dublin 2","tel":"+353 (0)1 679 2402","images":null,"lat":"53.34285354614258","lng":"-6.259890079498291"},"fields":{"slug":"/section-directory-content/italian-restaurants/pasta-fresca/"}}},{"node":{"frontmatter":{"title":"Ragazzi Italian Restaurant","category":"Italian Restaurants","county":"Dublin","type":"Content","excerpt":null,"address":"109 Coliemore Road, Dalkey, Co. Dublin","tel":"+353 (0)12 84 7280","images":null,"lat":"53.27726364135742","lng":"-6.102770805358887"},"fields":{"slug":"/section-directory-content/italian-restaurants/ragazzi-italian-restaurant/"}}},{"node":{"frontmatter":{"title":"Reynards Restaurant at Errigal Country House Hotel","category":"Italian Restaurants","county":"Cavan","type":"Content","excerpt":null,"address":"Cavan Road, Cootehill, Co. Cavan","tel":"+353 (0)49 555 6901","images":null,"lat":"54.0724983215332","lng":"-7.081944465637207"},"fields":{"slug":"/section-directory-content/italian-restaurants/reynards-restaurant-at-errigal-country-house-hotel/"}}},{"node":{"frontmatter":{"title":"Romanza","category":"Italian Restaurants","county":"Dublin","type":"Content","excerpt":null,"address":"14 - 17 Lower Leeson Street, Dublin city centre, Co. Dublin, Dublin 2","tel":"+353 (0)16 62 2480","images":null,"lat":"53.33494567871094","lng":"-6.25624942779541"},"fields":{"slug":"/section-directory-content/italian-restaurants/romanza/"}}},{"node":{"frontmatter":{"title":"Mossley Mill Restaurant","category":"Italian Restaurants","county":"Antrim","type":"Content","excerpt":null,"address":"Newtownabbey Borough Council, Mossley Mill, Newtownabbey, Co. Antrim, BT36 5QA","tel":"028 9034 0022","images":null,"lat":"054.6959730000","lng":"-005.9480760000"},"fields":{"slug":"/section-directory-content/italian-restaurants/mossley-mill-restaurant/"}}},{"node":{"frontmatter":{"title":"Pasta Bella","category":"Italian Restaurants","county":"Westmeath","type":"Content","excerpt":null,"address":"Austin Friar Street, Mullingar, Co. Westmeath","tel":"+353 (0)44 934 7965","images":null,"lat":"53.52598190307617","lng":"-7.3353352546691895"},"fields":{"slug":"/section-directory-content/italian-restaurants/pasta-bella/"}}},{"node":{"frontmatter":{"title":"Siroccos Italian Restaurant","category":"Italian Restaurants","county":"Offaly","type":"Content","excerpt":null,"address":"Patrick Street, Tullamore, Co. Offaly","tel":"+353 (0)57 935 2839","images":null,"lat":"53.275665283203125","lng":"-7.493520736694336"},"fields":{"slug":"/section-directory-content/italian-restaurants/siroccos-italian-restaurant/"}}},{"node":{"frontmatter":{"title":"Spago Italian Bistro","category":"Italian Restaurants","county":"Laois","type":"Content","excerpt":null,"address":"Portlaoise Heritage Hotel, Jessop Street, Portlaoise, Co. Laois","tel":"+353 (0)57 867 8588","images":null,"lat":"53.034645080566406","lng":"-7.298871040344238"},"fields":{"slug":"/section-directory-content/italian-restaurants/spago-italian-bistro/"}}},{"node":{"frontmatter":{"title":"Stonebridge @ The Museum","category":"Italian Restaurants","county":"Antrim","type":"Content","excerpt":null,"address":"Ulster Museum, Botanic Gardens, Belfast, Co. Antrim, BT9 5AB","tel":"028 9044 0061","images":null,"lat":"054.5823410000","lng":"-005.9350700000"},"fields":{"slug":"/section-directory-content/italian-restaurants/stonebridge-@-the-museum/"}}},{"node":{"frontmatter":{"title":"The Anatolia Restaurant","category":"Italian Restaurants","county":"Offaly","type":"Content","excerpt":null,"address":"Harbour Street, Tullamore, Co. Offaly","tel":"+353 (0)57 932 3669","images":null,"lat":"53.27583694458008","lng":"-7.489635944366455"},"fields":{"slug":"/section-directory-content/italian-restaurants/the-anatolia-restaurant/"}}},{"node":{"frontmatter":{"title":"The Queens Dalkey","category":"Italian Restaurants","county":"Dublin","type":"Content","excerpt":null,"address":"12 Castle Street, The Queens, Dalkey, Co. Dublin, South County","tel":"+353 (0)1 285 4569","images":null,"lat":"53.27876663208008","lng":"-6.111220359802246"},"fields":{"slug":"/section-directory-content/italian-restaurants/the-queens-dalkey/"}}},{"node":{"frontmatter":{"title":"Talavera Restaurant","category":"Italian Restaurants","county":"Dublin","type":"Content","excerpt":null,"address":"Radisson SAS Saint Helens Hotel, Stillorgan Road, Dublin City Area South, Co. Dublin, South County","tel":"+353 (0)1 218 6000","images":null,"lat":"53.30299758911133","lng":"-6.215444564819336"},"fields":{"slug":"/section-directory-content/italian-restaurants/talavera-restaurant/"}}},{"node":{"frontmatter":{"title":"Torrinos Italian Restaurant","category":"Italian Restaurants","county":"Mayo","type":"Content","excerpt":null,"address":"Torrinos Italian Restaurant, Market Lane, Westport, Co. Mayo","tel":"+353 (0)98 28 338","images":null,"lat":"53.79999923706055","lng":"-9.516666412353516"},"fields":{"slug":"/section-directory-content/italian-restaurants/torrinos-italian-restaurant/"}}},{"node":{"frontmatter":{"title":"Town Bar and Grill","category":"Italian Restaurants","county":"Dublin","type":"Content","excerpt":null,"address":"21 Kildare Street, Dublin City Centre, Co. Dublin, Dublin 2","tel":"+353 (0)1 662 4724","images":null,"lat":"53.339656829833984","lng":"-6.25620698928833"},"fields":{"slug":"/section-directory-content/italian-restaurants/town-bar-and-grill/"}}},{"node":{"frontmatter":{"title":"Unicorn Cafe And Restaurant","category":"Italian Restaurants","county":"Dublin","type":"Content","excerpt":null,"address":"12B Merrion Court, Merrion Row, Dublin City Centre, Co. Dublin","tel":"+353 (0)16 76 2182","images":null,"lat":"53.338069915771484","lng":"-6.25484561920166"},"fields":{"slug":"/section-directory-content/italian-restaurants/unicorn-cafe-and-restaurant/"}}},{"node":{"frontmatter":{"title":"The Station House Bar and Grill","category":"Italian Restaurants","county":"Kerry","type":"Content","excerpt":null,"address":"Blennerville, Tralee, Co. Kerry","tel":"+353 (0)66 714 9980","images":null,"lat":"52.2560920715332","lng":"-9.735995292663574"},"fields":{"slug":"/section-directory-content/italian-restaurants/the-station-house-bar-and-grill/"}}},{"node":{"frontmatter":{"title":"Pizza Stop Ristorante Italiano","category":"Italian Restaurants","county":"Dublin","type":"Content","excerpt":null,"address":"6 to 10 Chatham Lane, Grafton Street, Dublin City Centre, Co. Dublin","tel":"+353 (0)1 679 6712","images":null,"lat":"53.340946197509766","lng":"-6.261499404907227"},"fields":{"slug":"/section-directory-content/italian-restaurants/pizza-stop-ristorante-italiano/"}}}]}},"pageContext":{"isCreatedByStatefulCreatePages":false,"slug":"/section-directory/italian-restaurants/","category":"Italian Restaurants"}}}