{"componentChunkName":"component---src-templates-section-directory-js","path":"/section-directory/monuments/","webpackCompilationHash":"","result":{"data":{"markdownRemark":{"html":"","frontmatter":{"category":"Monuments"}},"allMarkdownRemark":{"distinct":["Antrim","Armagh","Clare","Derry","Down","Dublin","Fermanagh","Galway","Kerry","Kilkenny","Limerick","Louth","Mayo","Meath","Sligo","Tyrone","Westmeath"],"edges":[{"node":{"frontmatter":{"title":"The Spanish Arch","category":"Monuments","county":"Galway","type":"Content","excerpt":"Situated on the left bank of River Corrib, The Spanish Arch of county Galway is an extension of the town wall from Martin's Tower to the bank of the r...","address":"Galway City Centre, Co. Galway","tel":"NOVAL","images":["the-spanish-arch-0.jpg","222","156","the-spanish-arch-1.jpg","500","253","the-spanish-arch-2.jpg","500","374","the-spanish-arch-3.jpg","500","375","the-spanish-arch-4.jpg","500","375","the-spanish-arch-5.jpg","500","375"],"lat":"53.27194595336914","lng":"-9.04888916015625"},"fields":{"slug":"/section-directory-content/monuments/the-spanish-arch/"}}},{"node":{"frontmatter":{"title":"Kenmare Stone Circle","category":"Monuments","county":"Kerry","type":"Content","excerpt":"Situated at the intersection of the Beara Peninsula and Iveragh  Peninsula, Kenmare is an impressively posh town. This Irish town provides  visitors g...","address":"Kenmare, Co. Kerry","tel":"+353 (0)64 663 1633","images":["kenmare-stone-circle-0.jpg","500","375","kenmare-stone-circle-1.jpg","500","374","kenmare-stone-circle-3.jpg","500","326"],"lat":"51.87870788574219","lng":"-9.583195686340332"},"fields":{"slug":"/section-directory-content/monuments/kenmare-stone-circle/"}}},{"node":{"frontmatter":{"title":"Giants Ring","category":"Monuments","county":"Antrim","type":"Content","excerpt":"Situated  in the north-east of Ireland, County Antrim is among the six counties that form  Northern Ireland. Covering an area of 2,800 km, County Antr...","address":"Giant's Ring, Near Shaw's Bridge, Lisburn, Co. Antrim","tel":"+44 (0)28 9054 6518","images":["giants-ring-1.jpg","223","191","giants-ring-3.jpg","500","362"],"lat":"54.59572982788086","lng":"-5.936308860778809"},"fields":{"slug":"/section-directory-content/monuments/giants-ring/"}}},{"node":{"frontmatter":{"title":"Rollo Gillespie Monument","category":"Monuments","county":"Down","type":"Content","excerpt":"Northern  Ireland impresses everyone with its fantastic melange of attractions and  activities. Named after its county town Downpatrick, County Down a...","address":"Rollo Gillespie Monument, The Square, Comber, Down, BT23 5DX","tel":"+44 (0)28 9182 6846","images":["rollo-gillespie-monument-0.jpg","375","500","rollo-gillespie-monument-1.jpg","500","332","rollo-gillespie-monument-2.jpg","500","363"],"lat":"54.594329833984375","lng":"-5.70030403137207"},"fields":{"slug":"/section-directory-content/monuments/rollo-gillespie-monument/"}}},{"node":{"frontmatter":{"title":"Proleek Dolmen","category":"Monuments","county":"Louth","type":"Content","excerpt":"Located at N1 or N52 North from Dundalk towards Newry, Proleek Dolmen is situated on a golf course, behind the Ballymacscanlon House Hotel on R173 reg...","address":"Dundalk, Co. Louth","tel":"+353 (0)42 933 5484","images":["proleek-dolmen-0.jpg","500","334","proleek-dolmen-1.jpg","250","330","proleek-dolmen-2.jpg","400","265","proleek-dolmen-4.jpg","225","300"],"lat":"54.032867431640625","lng":"-6.3585524559021"},"fields":{"slug":"/section-directory-content/monuments/proleek-dolmen/"}}},{"node":{"frontmatter":{"title":"Kilmacoliver Hill","category":"Monuments","county":"Kilkenny","type":"Content","excerpt":"Located  in the south-east of Ireland in the province of Leinster is a land of  magnificent beauty, County Kilkenny. County is fantastic blend of past...","address":"Tullaghought, Windgap, Kilkenny","tel":"NOVAL","images":["kilmacoliver-hill-0.jpg","500","140"],"lat":"52.42271423339844","lng":"-7.3641767501831055"},"fields":{"slug":"/section-directory-content/monuments/kilmacoliver-hill/"}}},{"node":{"frontmatter":{"title":"Newgrange","category":"Monuments","county":"Meath","type":"Content","excerpt":"Located  in the Country Meath  Newgrange is a prehistoric monument which is an integral  part of Brú na Bóinne, a UNESCO World Heritage Site. No guide...","address":"Donore, Co. Meath","tel":"+353 (0) 41 988 0300","images":["newgrange-1.jpg","350","263","newgrange-3.jpg","300","214","newgrange-4.jpg","175","263"],"lat":"53.694567","lng":"-6.4463"},"fields":{"slug":"/section-directory-content/monuments/newgrange/"}}},{"node":{"frontmatter":{"title":"Poulnabrone Portal Tomb","category":"Monuments","county":"Clare","type":"Content","excerpt":"Ireland  is blessed to have around 200 dolmens that have sheer magic attached to them.  Poulnabrone Portal Tomb is one of the most famous Irish dolmen...","address":"Tourist Information Office, Ennis, Co. Clare","tel":"+353 (0)65 682 8366","images":["poulnabrone-portal-tomb-1.jpg","500","375","poulnabrone-portal-tomb-2.jpg","500","332","poulnabrone-portal-tomb-3.jpg","262","206","poulnabrone-portal-tomb-4.jpg","500","425"],"lat":"53.10895538330078","lng":"-9.16501522064209"},"fields":{"slug":"/section-directory-content/monuments/poulnabrone-portal-tomb/"}}},{"node":{"frontmatter":{"title":"Dunmisk Enclosure","category":"Monuments","county":"Tyrone","type":"Content","excerpt":"Dunmisk Enclosure is an important site in County Tyrone, Ireland, since it contains the remains of a Christian burial ground and chapel as well as pre...","address":"Dunmisk Enclosure, Carrickmore, Omagh, Tyrone","tel":"+44 (0)28 8076 1112","images":["dunmisk-enclosure-1.jpg","297","198"],"lat":"54.615394592285156","lng":"-7.078927993774414"},"fields":{"slug":"/section-directory-content/monuments/dunmisk-enclosure/"}}},{"node":{"frontmatter":{"title":"Drumena Cashel","category":"Monuments","county":"Down","type":"Content","excerpt":"Drumena Cashel, County Down is one of the best examples of walled settlements that were used in the early Christian era that is 5th-11th century. It w...","address":"Drumena Cashel, Castlewellan, Down","tel":"+44 (0)28 9023 5000","images":["drumena-cashel-2.jpg","322","458","drumena-cashel-4.jpg","500","375"],"lat":"54.25764846801758","lng":"-5.9427900314331055"},"fields":{"slug":"/section-directory-content/monuments/drumena-cashel/"}}},{"node":{"frontmatter":{"title":"Puicin An Chairn Wedge Tomb","category":"Monuments","county":"Kerry","type":"Content","excerpt":"Bestowed  as the Kingdom of Kerry in 1787, County Kerry is located in south-west Ireland.  The count is bordered by County Cork to the south east and...","address":"Doonties, Lispole, Co. Kerry","tel":"+353 (0)66 915 1188","images":["puicin-an-chairn-wedge-tomb-0.jpg","500","331","puicin-an-chairn-wedge-tomb-1.jpg","500","331","puicin-an-chairn-wedge-tomb-2.jpg","500","331"],"lat":"52.12702560424805","lng":"-10.147708892822266"},"fields":{"slug":"/section-directory-content/monuments/puicin-an-chairn-wedge-tomb/"}}},{"node":{"frontmatter":{"title":"Ardboe Old Cross","category":"Monuments","county":"Tyrone","type":"Content","excerpt":"Ardboe  Old Cross in County Tyrone inspires many Christians who visit this high cross  from all over the world to admire the intricate Biblical carvin...","address":"Ardboe Old Cross, Cookstown, Tyrone","tel":"+44 (0)28 8676 9949","images":["ardboe-old-cross-0.jpg","250","333","ardboe-old-cross-1.jpg","329","486","ardboe-old-cross-2.jpg","495","370","ardboe-old-cross-7.jpg","375","500","ardboe-old-cross-8.jpg","333","500","ardboe-old-cross-9.jpg","333","500"],"lat":"54.63429641723633","lng":"-6.509385108947754"},"fields":{"slug":"/section-directory-content/monuments/ardboe-old-cross/"}}},{"node":{"frontmatter":{"title":"The Labby Rock","category":"Monuments","county":"Sligo","type":"Content","excerpt":"Among  all the Irish dolmens, the Lobby Rock is definitely one of the biggest portal  dolmens in Ireland if not the funniest looking. Its capstone is...","address":"Castlebaldwin, Sligo","tel":"+353 (0)71 916 1201","images":["the-labby-rock-0.jpg","500","321","the-labby-rock-4.jpg","500","294"],"lat":"54.07832336425781","lng":"-8.377496719360352"},"fields":{"slug":"/section-directory-content/monuments/the-labby-rock/"}}},{"node":{"frontmatter":{"title":"The Hill of Uisneach","category":"Monuments","county":"Westmeath","type":"Content","excerpt":"According  to the national folklore of Ireland, the hill of Uisneach was strategically  important in ancient times. Located between the villages of Ba...","address":"Ballymore, Co. Westmeath","tel":"+353 (0)87 257 6434","images":["the-hill-of-uisneach-2.jpg","490","368"],"lat":"53.48741149902344","lng":"-7.514139652252197"},"fields":{"slug":"/section-directory-content/monuments/the-hill-of-uisneach/"}}},{"node":{"frontmatter":{"title":"Annaghmare Court Tomb","category":"Monuments","county":"Down","type":"Content","excerpt":"A horseshoe shaped single court tomb, Annaghmare Court Tomb is located west to the sacred Slieve Gullion Mountains, in a forestry plantation in County...","address":"Newry Tourist Information Centre, Bagenal's Castle Castle Street, Newry, Co. Down, BT34 2DA","tel":"+44 (0)28 3031 3170","images":["annaghmare-court-tomb-1.jpg","400","212","annaghmare-court-tomb-2.jpg","500","375","annaghmare-court-tomb-3.jpg","500","375","annaghmare-court-tomb-4.jpg","400","256","annaghmare-court-tomb-6.jpg","500","341"],"lat":"54.12995910644531","lng":"-6.588328838348389"},"fields":{"slug":"/section-directory-content/monuments/annaghmare-court-tomb/"}}},{"node":{"frontmatter":{"title":"St Patricks Well and Magherakeel Monastic Site","category":"Monuments","county":"Derry","type":"Content","excerpt":"A  vibrant and a busy market town, Castlederg is situated in County Tyrone, west  of Northern Island. Close to the border of County Donegal and lying...","address":"Strabane District Council, Strabane District Council 47 Derry Road, Strabane, Co. Tyrone, BT82 8DY","tel":"+44 (0)28 7138 2204","images":["st-patricks-well-and-magherakeel-monastic-site-0.jpg","500","375","st-patricks-well-and-magherakeel-monastic-site-1.jpg","500","375","st-patricks-well-and-magherakeel-monastic-site-2.jpg","500","375","st-patricks-well-and-magherakeel-monastic-site-3.jpg","375","500","st-patricks-well-and-magherakeel-monastic-site-4.jpg","500","375"],"lat":"54.66459655761719","lng":"-7.698620796203613"},"fields":{"slug":"/section-directory-content/monuments/st-patricks-well-and-magherakeel-monastic-site/"}}},{"node":{"frontmatter":{"title":"Ballylumford Dolmen","category":"Monuments","county":"Antrim","type":"Content","excerpt":null,"address":"Ballylumford Dolmen, 91 Ballylumford Road, Larne, Co. Antrim, BT40 3RN","tel":"NOVAL","images":null,"lat":"54.83698654174805","lng":"-5.767982006072998"},"fields":{"slug":"/section-directory-content/monuments/ballylumford-dolmen/"}}},{"node":{"frontmatter":{"title":"Ballygroll Prehistoric Complex","category":"Monuments","county":"Derry","type":"Content","excerpt":null,"address":"Ballygroll Prehistoric Complex, Derry, Derry","tel":"+44 (0)28 7126 7284","images":null,"lat":"54.9918098449707","lng":"-7.320168972015381"},"fields":{"slug":"/section-directory-content/monuments/ballygroll-prehistoric-complex/"}}},{"node":{"frontmatter":{"title":"Ballykeel Portal Tomb (Dolmen)","category":"Monuments","county":"Down","type":"Content","excerpt":null,"address":"Newry Tourist Information Centre, Bagenal's Castle Castle Street, Newry, Co. Down, BT34 2DA","tel":"+44 (0)28 3031 3170","images":null,"lat":"54.1292610168457","lng":"-6.480827331542969"},"fields":{"slug":"/section-directory-content/monuments/ballykeel-portal-tomb-dolmen/"}}},{"node":{"frontmatter":{"title":"Cahercommaun Stone Fort","category":"Monuments","county":"Clare","type":"Content","excerpt":null,"address":"Tourist Information Office, Ennis, Co. Clare","tel":"+353 (0)65 682 8366","images":null,"lat":"52.741729736328125","lng":"-8.773719787597656"},"fields":{"slug":"/section-directory-content/monuments/cahercommaun-stone-fort/"}}},{"node":{"frontmatter":{"title":"Burial Place Of Brian Boru","category":"Monuments","county":"Armagh","type":"Content","excerpt":null,"address":"Burial Place Of Brian Boru, 43 Abbey Street, Armagh, Armagh, BT61 7DY","tel":"+44 (0)28 3752 3142","images":null,"lat":"54.34937286376953","lng":"-6.657351016998291"},"fields":{"slug":"/section-directory-content/monuments/burial-place-of-brian-boru/"}}},{"node":{"frontmatter":{"title":"Big Lamp Carrickfergus","category":"Monuments","county":"Antrim","type":"Content","excerpt":null,"address":"Big Lamp Carrickfergus, Market Place, Carrickfergus, Antrim, BT38 7AW","tel":"NOVAL","images":null,"lat":"54.715145111083984","lng":"-5.805984973907471"},"fields":{"slug":"/section-directory-content/monuments/big-lamp-carrickfergus/"}}},{"node":{"frontmatter":{"title":"Arthur Griffith","category":"Monuments","county":"Dublin","type":"Content","excerpt":null,"address":"Office of the Houses of the Oireachtas, Leinster House, Merrion Street, Co. Dublin, Dublin 2","tel":"+353 (0)1 618 3000","images":null,"lat":"53.33899688720703","lng":"-6.252420425415039"},"fields":{"slug":"/section-directory-content/monuments/arthur-griffith/"}}},{"node":{"frontmatter":{"title":"Corliss Fort","category":"Monuments","county":"Down","type":"Content","excerpt":null,"address":"Newry Tourist Information Centre, Bagenal's Castle Castle Street, Newry, Co. Down, BT34 2DA","tel":"+44 (0)28 3031 3170","images":null,"lat":"54.17662811279297","lng":"-6.339670181274414"},"fields":{"slug":"/section-directory-content/monuments/corliss-fort/"}}},{"node":{"frontmatter":{"title":"Clontygora Court Cairn","category":"Monuments","county":"Down","type":"Content","excerpt":null,"address":"Newry Tourist Information Centre, Bagenal's Castle Castle Street, Newry, Co. Down, BT34 2DA","tel":"+44 (0)28 3031 3170","images":null,"lat":"54.11709976196289","lng":"-6.313493251800537"},"fields":{"slug":"/section-directory-content/monuments/clontygora-court-cairn/"}}},{"node":{"frontmatter":{"title":"Creggandevesky Court Tomb","category":"Monuments","county":"Tyrone","type":"Content","excerpt":null,"address":"Creggandevesky Court Tomb, Omagh, Tyrone, BT79 9AF","tel":"+44 (0)28 8076 1112","images":null,"lat":"54.65936279296875","lng":"-7.035791873931885"},"fields":{"slug":"/section-directory-content/monuments/creggandevesky-court-tomb/"}}},{"node":{"frontmatter":{"title":"Donegore Motte","category":"Monuments","county":"Antrim","type":"Content","excerpt":null,"address":"Donegore Motte, 24 Donegore Hill, Dunadry, Co. Antrim, BT41 2HW","tel":"+44 (0)28 9443 2175","images":null,"lat":"54.72447204589844","lng":"-6.129425048828125"},"fields":{"slug":"/section-directory-content/monuments/donegore-motte/"}}},{"node":{"frontmatter":{"title":"Dromore Motte and Bailey","category":"Monuments","county":"Antrim","type":"Content","excerpt":null,"address":"Dromore Motte and Bailey, EHSNI Historic Monuments Waterman House 5-33 Hill Street, Belfast, Co. Antrim, BT1 2LA","tel":"+44 (0)28 9054 3037","images":null,"lat":"54.41469955444336","lng":"-6.149199962615967"},"fields":{"slug":"/section-directory-content/monuments/dromore-motte-and-bailey/"}}},{"node":{"frontmatter":{"title":"Donaghmore High Cross","category":"Monuments","county":"Down","type":"Content","excerpt":null,"address":"Banbridge Gateway Tourist Information Centre, FE McWilliam Gallery and Studio 200 Newry Road, Banbridge, Co. Down, BT32 3NB","tel":"+44 (0)28 4062 3322","images":null,"lat":"54.34958267211914","lng":"-6.265516757965088"},"fields":{"slug":"/section-directory-content/monuments/donaghmore-high-cross/"}}},{"node":{"frontmatter":{"title":"Gleninsheen Wedge Toomb","category":"Monuments","county":"Clare","type":"Content","excerpt":null,"address":"Tourist Information Office, Ennis, Co. Clare","tel":"+353 (0)65 682 8366","images":null,"lat":"52.741729736328125","lng":"-8.773719787597656"},"fields":{"slug":"/section-directory-content/monuments/gleninsheen-wedge-toomb/"}}},{"node":{"frontmatter":{"title":"Knockoneill Court Tomb","category":"Monuments","county":"Derry","type":"Content","excerpt":null,"address":"Knockoneill Court Tomb, Knockoneill Road, Derry, Co. Derry, BT46 5NX","tel":"+44 (0)28 8224 7831","images":null,"lat":"54.845821380615234","lng":"-6.672308921813965"},"fields":{"slug":"/section-directory-content/monuments/knockoneill-court-tomb/"}}},{"node":{"frontmatter":{"title":"Kilnasaggart Inscribed Stone","category":"Monuments","county":"Down","type":"Content","excerpt":null,"address":"Newry Tourist Information Centre, Bagenal's Castle Castle Street, Newry, Co. Down, BT34 2DA","tel":"+44 (0)28 3031 3170","images":null,"lat":"54.07988739013672","lng":"-6.376859188079834"},"fields":{"slug":"/section-directory-content/monuments/kilnasaggart-inscribed-stone/"}}},{"node":{"frontmatter":{"title":"Oscar Wilde","category":"Monuments","county":"Dublin","type":"Content","excerpt":null,"address":"C/O Dublin Tourism Information Centre, Suffolk Street, Dublin City Centre, Co. Dublin, Dublin 2","tel":"+353 (0)1 605 7700","images":null,"lat":"53.34092330932617","lng":"-6.250675201416016"},"fields":{"slug":"/section-directory-content/monuments/oscar-wilde/"}}},{"node":{"frontmatter":{"title":"Mayo Memorial Peace Park","category":"Monuments","county":"Mayo","type":"Content","excerpt":null,"address":"Mayo Peace Park, Garden of Remembrance, Castlebar, Co. Mayo","tel":"NOVAL","images":null,"lat":"53.849998474121094","lng":"-9.300000190734863"},"fields":{"slug":"/section-directory-content/monuments/mayo-memorial-peace-park/"}}},{"node":{"frontmatter":{"title":"Sphere With Sphere","category":"Monuments","county":"Dublin","type":"Content","excerpt":null,"address":"Trinity College, Dublin City Centre, Dublin, Dublin 2","tel":"+353 (0)1 608 1000","images":null,"lat":"53.3442497253418","lng":"-6.254487991333008"},"fields":{"slug":"/section-directory-content/monuments/sphere-with-sphere/"}}},{"node":{"frontmatter":{"title":"Sampsons Tower","category":"Monuments","county":"Derry","type":"Content","excerpt":null,"address":"Sampsons Tower, 7 Connell Street, Limavady, Derry, BT49 0HA","tel":"+44 (0)28 7776 0307","images":null,"lat":"55.05282974243164","lng":"-6.949748992919922"},"fields":{"slug":"/section-directory-content/monuments/sampsons-tower/"}}},{"node":{"frontmatter":{"title":"Molly Malone","category":"Monuments","county":"Dublin","type":"Content","excerpt":null,"address":"C/O Dublin Tourism, Suffolk Street, Co. Dublin, Dublin 2","tel":"+353 (0)1 605 7700","images":null,"lat":"53.34353256225586","lng":"-6.259502410888672"},"fields":{"slug":"/section-directory-content/monuments/molly-malone/"}}},{"node":{"frontmatter":{"title":"Navan Fort","category":"Monuments","county":"Armagh","type":"Content","excerpt":null,"address":"The Navan Centre, 81 Killylea Road, Armagh, Co. Armagh, BT60 4LD","tel":"+44 (0)28 3752 9644","images":null,"lat":"54.34953308105469","lng":"-6.700162410736084"},"fields":{"slug":"/section-directory-content/monuments/navan-fort/"}}},{"node":{"frontmatter":{"title":"The Clock Tower","category":"Monuments","county":"Fermanagh","type":"Content","excerpt":null,"address":"The Clock Tower, Main Street, Irvinestown, Fermanagh, BT94 1GL","tel":"+44 (0)28 8224 7831","images":null,"lat":"54.346771240234375","lng":"-7.645120143890381"},"fields":{"slug":"/section-directory-content/monuments/the-clock-tower/"}}},{"node":{"frontmatter":{"title":"The Cenotaph","category":"Monuments","county":"Tyrone","type":"Content","excerpt":null,"address":"The Cenotaph, Drumragh Avenue, Omagh, Tyrone, BT78 1DP","tel":"+44 (0)28 8224 7831","images":null,"lat":"54.5994987487793","lng":"-7.305112838745117"},"fields":{"slug":"/section-directory-content/monuments/the-cenotaph/"}}},{"node":{"frontmatter":{"title":"Templeton Mausoleum","category":"Monuments","county":"Antrim","type":"Content","excerpt":null,"address":"Templeton Mausoleum, Templepatrick, Co. Antrim","tel":"+44 (0)28 9751 0721","images":null,"lat":"54.75114822387695","lng":"-5.998569011688232"},"fields":{"slug":"/section-directory-content/monuments/templeton-mausoleum/"}}},{"node":{"frontmatter":{"title":"Tirkane Sweathouse","category":"Monuments","county":"Derry","type":"Content","excerpt":null,"address":"Magherafelt Tourist Information Centre, The Bridewell 6 Church Street, Magherafelt, Derry, BT45 6AN","tel":"+44 (0)28 7963 1510","images":null,"lat":"54.860145568847656","lng":"-6.693303108215332"},"fields":{"slug":"/section-directory-content/monuments/tirkane-sweathouse/"}}},{"node":{"frontmatter":{"title":"Tullaghoge Fort","category":"Monuments","county":"Tyrone","type":"Content","excerpt":null,"address":"Tullayhogue Fort, Tullywiggan Road Tullahogue, Cookstown, Co. Tyrone","tel":"+44 (0)28 8676 9949","images":null,"lat":"54.64448928833008","lng":"-6.744750022888184"},"fields":{"slug":"/section-directory-content/monuments/tullaghoge-fort/"}}},{"node":{"frontmatter":{"title":"The Holestone Marriage Stone","category":"Monuments","county":"Antrim","type":"Content","excerpt":null,"address":"The Holestone Marriage Stone, Holestone Road, Antrim, Antrim","tel":"+44 (0)28 9442 8331","images":null,"lat":"54.71554946899414","lng":"-6.2163801193237305"},"fields":{"slug":"/section-directory-content/monuments/the-holestone-marriage-stone/"}}},{"node":{"frontmatter":{"title":"The Town Walls and North Gate","category":"Monuments","county":"Antrim","type":"Content","excerpt":null,"address":"The Town Walls and North Gate, Carrickfergus, Antrim","tel":"NOVAL","images":null,"lat":"54.715145111083984","lng":"-5.805984973907471"},"fields":{"slug":"/section-directory-content/monuments/the-town-walls-and-north-gate/"}}},{"node":{"frontmatter":{"title":"Treaty Stone","category":"Monuments","county":"Limerick","type":"Content","excerpt":null,"address":"Tourist Information Office, Arthurs Quay, Limerick, Co. Limerick","tel":"+353 (0)61 31 7522","images":null,"lat":"52.66439437866211","lng":"-8.634660720825195"},"fields":{"slug":"/section-directory-content/monuments/treaty-stone/"}}},{"node":{"frontmatter":{"title":"Tynan Cross","category":"Monuments","county":"Armagh","type":"Content","excerpt":null,"address":"Armagh Tourist Information Centre, 40 English Street, Armagh, Co. Armagh, BT61 7BA","tel":"+44 (0)28 3752 1800","images":null,"lat":"54.34708023071289","lng":"-6.648488998413086"},"fields":{"slug":"/section-directory-content/monuments/tynan-cross/"}}},{"node":{"frontmatter":{"title":"Let The Dance Begin Sculpture","category":"Monuments","county":"Tyrone","type":"Content","excerpt":null,"address":"Let The Dance Begin Sculpture, Lifford Road, Strabane, Co. Tyrone, BT82 8EP","tel":"+44 (0)28 7138 2204","images":null,"lat":"54.829532623291016","lng":"-7.472884178161621"},"fields":{"slug":"/section-directory-content/monuments/let-the-dance-begin-sculpture/"}}},{"node":{"frontmatter":{"title":"St Colmcilles Bed Chair and Holy Well","category":"Monuments","county":"Tyrone","type":"Content","excerpt":null,"address":"St Colmcille???s Bed, Chair and Holy Well, Carrickmore, Omagh, Co. Tyrone","tel":"+44 (0)28 8076 1112","images":null,"lat":"54.615394592285156","lng":"-7.078927993774414"},"fields":{"slug":"/section-directory-content/monuments/st-colmcilles-bed-chair-and-holy-well/"}}},{"node":{"frontmatter":{"title":"The Dorsey (Na Doirse)","category":"Monuments","county":"Down","type":"Content","excerpt":null,"address":"Newry Tourist Information Centre, Bagenal's Castle Castle Street, Newry, Co. Down, BT34 2DA","tel":"+44 (0)28 3031 3170","images":null,"lat":"54.17662811279297","lng":"-6.339670181274414"},"fields":{"slug":"/section-directory-content/monuments/the-dorsey-na-doirse/"}}}]}},"pageContext":{"isCreatedByStatefulCreatePages":false,"slug":"/section-directory/monuments/","category":"Monuments"}}}