{"componentChunkName":"component---src-templates-section-directory-js","path":"/section-directory/taxi-services/","webpackCompilationHash":"","result":{"data":{"markdownRemark":{"html":"","frontmatter":{"category":"Taxi Services"}},"allMarkdownRemark":{"distinct":["Antrim","Armagh","Derry","Down","Dublin","Fermanagh","Leitrim","Longford","Louth","Monaghan","Sligo","Tyrone","Waterford","Westmeath","Wicklow"],"edges":[{"node":{"frontmatter":{"title":"8 Seater Taxi Bus","category":"Taxi Services","county":"Armagh","type":"Content","excerpt":null,"address":"2-4, Ashgrove Rd, Portadown, Craigavon, Co. Armagh BT62 1PA","tel":"07841 349759","images":null,"lat":"54.434234","lng":"-6.449641"},"fields":{"slug":"/section-directory-content/taxi-services/8-seater-taxi-bus/"}}},{"node":{"frontmatter":{"title":"A 2 B Taxi's (NI) Ltd","category":"Taxi Services","county":"Armagh","type":"Content","excerpt":null,"address":"31, Woodhouse St, Portadown, Craigavon, Co. Armagh BT62 1JG","tel":"028 3835 1088","images":null,"lat":"54.423466","lng":"-6.44406"},"fields":{"slug":"/section-directory-content/taxi-services/a-2-b-taxis-ni-ltd/"}}},{"node":{"frontmatter":{"title":"A O'Connor","category":"Taxi Services","county":"Fermanagh","type":"Content","excerpt":null,"address":"Station House, Legg, Belleek, Enniskillen, Co. Fermanagh BT93 3BP","tel":"028 6865 8552","images":null,"lat":"54.471866","lng":"-7.90951"},"fields":{"slug":"/section-directory-content/taxi-services/a-oconnor/"}}},{"node":{"frontmatter":{"title":"B.M Taxis / Shoreline Cabs","category":"Taxi Services","county":"Antrim","type":"Content","excerpt":null,"address":"29, Ashbourne Park, Coleraine, Co. Antrim, BT51 3RE","tel":"028 7035 4267","images":null,"lat":"055.1238940000","lng":"-006.6887910000"},"fields":{"slug":"/section-directory-content/taxi-services/bm-taxis- -shoreline-cabs/"}}},{"node":{"frontmatter":{"title":"Adrian and Hector Taxis Cookstown","category":"Taxi Services","county":"Tyrone","type":"Content","excerpt":null,"address":"10, Westland Drive, Cookstown, Co. Tyrone BT80 8BS","tel":"028 8676 2827","images":null,"lat":"054.6459180000","lng":"-006.7590290000"},"fields":{"slug":"/section-directory-content/taxi-services/adrian-and-hector-taxis-cookstown/"}}},{"node":{"frontmatter":{"title":"Aldergrove Taxis","category":"Taxi Services","county":"Antrim","type":"Content","excerpt":null,"address":"38, Straidhavern Road, Nutts Corner, Crumlin, Co. Antrim, BT29 4SN","tel":"02894 422226","images":null,"lat":"054.6476700000","lng":"-006.1452610000"},"fields":{"slug":"/section-directory-content/taxi-services/aldergrove-taxis/"}}},{"node":{"frontmatter":{"title":"7 Towers Taxis","category":"Taxi Services","county":"Antrim","type":"Content","excerpt":null,"address":"Unit 7, Ballee Shopping Centre, Ballee Drive, Ballymena, Co. Antrim BT42 3EX","tel":"028 2564 8900","images":null,"lat":"54.848469","lng":"-6.27202"},"fields":{"slug":"/section-directory-content/taxi-services/7-towers-taxis/"}}},{"node":{"frontmatter":{"title":"A 8 Seater Taxi Bus","category":"Taxi Services","county":"Antrim","type":"Content","excerpt":null,"address":"39a, Lislunnan Rd, Kells, Ballymena, Co. Antrim BT42 3NR","tel":"07850 501633","images":null,"lat":"054.7830290000","lng":"-006.1929620000"},"fields":{"slug":"/section-directory-content/taxi-services/a-8-seater-taxi-bus/"}}},{"node":{"frontmatter":{"title":"Byrne Coach and Taxi Hire","category":"Taxi Services","county":"Tyrone","type":"Content","excerpt":null,"address":"12, Mullanabreen Rd, Castlederg, Co. Tyrone BT81 7UT","tel":"028 8167 0460","images":null,"lat":"54.684764","lng":"-7.688373"},"fields":{"slug":"/section-directory-content/taxi-services/byrne-coach-and-taxi-hire/"}}},{"node":{"frontmatter":{"title":"Cross Cabs","category":"Taxi Services","county":"Down","type":"Content","excerpt":null,"address":"10a, Cardinal O'Fiaich Square, Crossmaglen, Newry, Co. Down BT35 9AA","tel":"028 3086 8550","images":null,"lat":"54.076476","lng":"-6.607069"},"fields":{"slug":"/section-directory-content/taxi-services/cross-cabs/"}}},{"node":{"frontmatter":{"title":"Arrow Taxis","category":"Taxi Services","county":"Antrim","type":"Content","excerpt":null,"address":"Unit 4, Ardilaun House, Pennybridge Industrial Estate, Ballymena, Co. Antrim, BT42 3HB","tel":"02825 637711","images":null,"lat":"054.8514780000","lng":"-006.2593110000"},"fields":{"slug":"/section-directory-content/taxi-services/arrow-taxis/"}}},{"node":{"frontmatter":{"title":"Dundonald Taxis","category":"Taxi Services","county":"Antrim","type":"Content","excerpt":null,"address":"985, Upper Newtownards Rd, Dundonald, Belfast, Co. Antrim BT16 1RN","tel":"028 9048 2222","images":null,"lat":"54.594758","lng":"-5.8017"},"fields":{"slug":"/section-directory-content/taxi-services/dundonald-taxis/"}}},{"node":{"frontmatter":{"title":"C.C.R Cabs","category":"Taxi Services","county":"Antrim","type":"Content","excerpt":null,"address":"2, Hightown Rd, Glengormley, Newtownabbey, Co. Antrim BT36 7UA","tel":"028 9058 8444","images":null,"lat":"054.6699630000","lng":"-005.9618930000"},"fields":{"slug":"/section-directory-content/taxi-services/ccr-cabs/"}}},{"node":{"frontmatter":{"title":"Black and White Taxis","category":"Taxi Services","county":"Antrim","type":"Content","excerpt":null,"address":"217, Staffordstown Rd, Toomebridge, Antrim, Co. Antrim BT41 3QT","tel":"028 7965 0900","images":null,"lat":"54.735356","lng":"-6.421971"},"fields":{"slug":"/section-directory-content/taxi-services/black-and-white-taxis/"}}},{"node":{"frontmatter":{"title":"Doddy Seamus and Margaret Taxi and Wedding Car Hire","category":"Taxi Services","county":"Sligo","type":"Content","excerpt":null,"address":"Cloonkeavy Ballymote Co. Sligo","tel":"(071)9189024","images":null,"lat":"54.08222945","lng":"-8.563162906"},"fields":{"slug":"/section-directory-content/taxi-services/doddy-seamus-and-margaret-taxi-and-wedding-car-hire/"}}},{"node":{"frontmatter":{"title":"Gerry Grant Taxis","category":"Taxi Services","county":"Down","type":"Content","excerpt":null,"address":"67, Milltown Street, Warrenpoint, Newry, Co. Down, BT34 3PU","tel":"07736 826322","images":null,"lat":"054.1274890000","lng":"-006.2633610000"},"fields":{"slug":"/section-directory-content/taxi-services/gerry-grant-taxis/"}}},{"node":{"frontmatter":{"title":"Joe's Taxis","category":"Taxi Services","county":"Antrim","type":"Content","excerpt":null,"address":"Unit 22, Ardilaun House, Pennybridge Industrial Estate, Ballymena, Co. Antrim BT42 3HB","tel":"028 2564 7799","images":null,"lat":"54.848336","lng":"-6.257644"},"fields":{"slug":"/section-directory-content/taxi-services/joes-taxis/"}}},{"node":{"frontmatter":{"title":"Glassath Taxis","category":"Taxi Services","county":"Derry","type":"Content","excerpt":null,"address":"Unit 19e, Rathmore Business Park, Blighs Lane, Derry, Co. Derry BT48 0LZ","tel":"028 7136 1111","images":null,"lat":"54.995997","lng":"-7.33757"},"fields":{"slug":"/section-directory-content/taxi-services/glassath-taxis/"}}},{"node":{"frontmatter":{"title":"Lakeshore Cabs","category":"Taxi Services","county":"Wicklow","type":"Content","excerpt":null,"address":"Lakeshore Holiday Village Burgage Blessington Co. Wicklow Co. Wicklow","tel":"(045)865800","images":null,"lat":"53.1616","lng":"-6.53531"},"fields":{"slug":"/section-directory-content/taxi-services/lakeshore-cabs/"}}},{"node":{"frontmatter":{"title":"Dublin West Taxi Alliance Premier","category":"Taxi Services","county":"Dublin","type":"Content","excerpt":null,"address":"Monastery rd Clondalkin Dublin 22 Co. Dublin","tel":"(01)4671900","images":null,"lat":"53.32124083","lng":"-6.392148066"},"fields":{"slug":"/section-directory-content/taxi-services/dublin-west-taxi-alliance-premier/"}}},{"node":{"frontmatter":{"title":"Erne Cabs","category":"Taxi Services","county":"Fermanagh","type":"Content","excerpt":null,"address":"9, Cherryhill, Forthill, Irvinestown, Enniskillen, Co. Fermanagh BT94 1FH","tel":"028 6862 8889","images":null,"lat":"54.477491","lng":"-7.636"},"fields":{"slug":"/section-directory-content/taxi-services/erne-cabs/"}}},{"node":{"frontmatter":{"title":"G Taxis","category":"Taxi Services","county":"Armagh","type":"Content","excerpt":null,"address":"26, Loughview, Gawleys Gate, Craigavon, Co. Armagh, BT67 0EJ","tel":"0 2892155027","images":null,"lat":"054.5326040000","lng":"-006.3321980000"},"fields":{"slug":"/section-directory-content/taxi-services/g-taxis/"}}},{"node":{"frontmatter":{"title":"Leaf Taxis","category":"Taxi Services","county":"Antrim","type":"Content","excerpt":null,"address":"Twin Spires Centre, 155, Northumberland St, Belfast, Co. Antrim BT13 2JF","tel":"028 9031 4131","images":null,"lat":"54.600111","lng":"-5.946858"},"fields":{"slug":"/section-directory-content/taxi-services/leaf-taxis/"}}},{"node":{"frontmatter":{"title":"Mitaxi Cookstown Dungannon Magherfelt","category":"Taxi Services","county":"Tyrone","type":"Content","excerpt":null,"address":"29, Orritor Crescent, Cookstown, Co. Tyrone, BT80 8BQ","tel":"0752 676 80 50","images":null,"lat":"054.6481490000","lng":"-006.7479950000"},"fields":{"slug":"/section-directory-content/taxi-services/mitaxi-cookstown-dungannon-magherfelt/"}}},{"node":{"frontmatter":{"title":"Mals Taxis Cookstown","category":"Taxi Services","county":"Tyrone","type":"Content","excerpt":null,"address":"8 Ratheen Avenue, Cookstown, Co. Tyrone, BT80 8HL","tel":"07760 225503","images":null,"lat":"054.6398460000","lng":"-006.7518690000"},"fields":{"slug":"/section-directory-content/taxi-services/mals-taxis-cookstown/"}}},{"node":{"frontmatter":{"title":"K Jays Taxis","category":"Taxi Services","county":"Armagh","type":"Content","excerpt":null,"address":"Unit 3, Tullygally Shopping Centre, Tullygally, Craigavon, Co. Armagh BT65 5AU","tel":"028 3834 5524","images":null,"lat":"054.4515160000","lng":"-006.3617700000"},"fields":{"slug":"/section-directory-content/taxi-services/k-jays-taxis/"}}},{"node":{"frontmatter":{"title":"Mullingar Taxi-Cabs","category":"Taxi Services","county":"Westmeath","type":"Content","excerpt":null,"address":"Unit 6 Brosna Business Park Lynn Road Mullingar Co. Westmeath","tel":"(044)42382","images":null,"lat":"53.5158","lng":"-7.34341"},"fields":{"slug":"/section-directory-content/taxi-services/mullingar-taxi-cabs/"}}},{"node":{"frontmatter":{"title":"Michael Maguire Taxi Service","category":"Taxi Services","county":"Fermanagh","type":"Content","excerpt":null,"address":"4, Castlebalfour Drive, Lisnaskea, Enniskillen, Co. Fermanagh BT92 0GA","tel":"028 6772 1621","images":null,"lat":"54.2484","lng":"-7.44234"},"fields":{"slug":"/section-directory-content/taxi-services/michael-maguire-taxi-service/"}}},{"node":{"frontmatter":{"title":"Mr Clean N.I.","category":"Taxi Services","county":"Fermanagh","type":"Content","excerpt":null,"address":"Super Vale, Link Rd, Irvinestown, Enniskillen, Co. Fermanagh BT94 1FD","tel":"028 6862 2323","images":null,"lat":"54.473447","lng":"-7.63274"},"fields":{"slug":"/section-directory-content/taxi-services/mr-clean-ni/"}}},{"node":{"frontmatter":{"title":"Link Taxis","category":"Taxi Services","county":"Antrim","type":"Content","excerpt":null,"address":"Unit 19, Westlink Enterprise Centre, 30-50, Distillery St, Belfast, Co. Antrim BT12 5BJ","tel":"028 9033 3370","images":null,"lat":"54.594046","lng":"-5.9461"},"fields":{"slug":"/section-directory-content/taxi-services/link-taxis/"}}},{"node":{"frontmatter":{"title":"National Private Hire and Taxi Association","category":"Taxi Services","county":"Dublin","type":"Content","excerpt":null,"address":"Newmarket hse Newmarket square The Coombe, Dublin 8 Co. Dublin","tel":"(01)4531977","images":null,"lat":"53.3381","lng":"-6.27597"},"fields":{"slug":"/section-directory-content/taxi-services/national-private-hire-and-taxi-association/"}}},{"node":{"frontmatter":{"title":"Port and Vale Taxis","category":"Taxi Services","county":"Armagh","type":"Content","excerpt":null,"address":"12, Fitzgerald Park, Portadown, Craigavon, Co. Armagh BT62 3QR","tel":"07725 944021","images":null,"lat":"54.413703","lng":"-6.45931"},"fields":{"slug":"/section-directory-content/taxi-services/port-and-vale-taxis/"}}},{"node":{"frontmatter":{"title":"O'Halloran Gerard Minibus and Taxi Services","category":"Taxi Services","county":"Westmeath","type":"Content","excerpt":null,"address":"Dublin rd Athlone Co. Westmeath","tel":"(071)9621639","images":null,"lat":"53.94771338","lng":"-8.084581175"},"fields":{"slug":"/section-directory-content/taxi-services/ohalloran-gerard-minibus-and-taxi-services/"}}},{"node":{"frontmatter":{"title":"G.Durkin Taxis T/A Carrig Cabs","category":"Taxi Services","county":"Leitrim","type":"Content","excerpt":null,"address":"Carrick-on-Shannon Co. Leitrim Co. Leitrim","tel":"(087)2570498","images":null,"lat":"53.95375115","lng":"-8.094005636"},"fields":{"slug":"/section-directory-content/taxi-services/gdurkin-taxis-t a-carrig-cabs/"}}},{"node":{"frontmatter":{"title":"Scott's Taxis","category":"Taxi Services","county":"Derry","type":"Content","excerpt":null,"address":"11, Ballymoghan Lane, Magherafelt, Co. Derry BT45 6HW","tel":"028 7930 0000","images":null,"lat":"054.7549010000","lng":"-006.6088700000"},"fields":{"slug":"/section-directory-content/taxi-services/scotts-taxis/"}}},{"node":{"frontmatter":{"title":"Parkwest Taxi's and Corporate Service","category":"Taxi Services","county":"Dublin","type":"Content","excerpt":null,"address":"Parkwest Road Parkwest Ind Est Nangor Road 12 Co. Dublin","tel":"(01)6120555","images":null,"lat":"53.33180616","lng":"-6.37478719"},"fields":{"slug":"/section-directory-content/taxi-services/parkwest-taxis-and-corporate-service/"}}},{"node":{"frontmatter":{"title":"Nab a Cab","category":"Taxi Services","county":"Armagh","type":"Content","excerpt":null,"address":"Unit 10, Armagh Shopping Centre, Thomas St, Armagh, Co. Armagh BT61 7AE","tel":"028 3752 4244","images":null,"lat":"54.345234","lng":"-6.65911"},"fields":{"slug":"/section-directory-content/taxi-services/nab-a-cab/"}}},{"node":{"frontmatter":{"title":"River Side Cabs","category":"Taxi Services","county":"Monaghan","type":"Content","excerpt":null,"address":"Old Castleblayney rd Clough Valley Lr Carrickmacross Co. Monaghan","tel":"(086)8065111","images":null,"lat":"53.98410478","lng":"-6.717256023"},"fields":{"slug":"/section-directory-content/taxi-services/river-side-cabs/"}}},{"node":{"frontmatter":{"title":"Swift Cabs","category":"Taxi Services","county":"Derry","type":"Content","excerpt":null,"address":"Glendermott Valley Business Park, Church Brae, Altnagelvin, Derry, Co. Derry BT47 2LS","tel":"028 7131 3300","images":null,"lat":"54.981826","lng":"-7.29197"},"fields":{"slug":"/section-directory-content/taxi-services/swift-cabs/"}}},{"node":{"frontmatter":{"title":"JandL Dunmore E. Private Hire","category":"Taxi Services","county":"Waterford","type":"Content","excerpt":null,"address":"1 The Woods Dunmore East Waterford Co. Waterford","tel":"(051)383000","images":null,"lat":"52.153621","lng":"-6.998439"},"fields":{"slug":"/section-directory-content/taxi-services/jandl-dunmore-e-private-hire/"}}},{"node":{"frontmatter":{"title":"Tommy Farrell Hackney Services","category":"Taxi Services","county":"Longford","type":"Content","excerpt":null,"address":"Sonnagh Aughnacliffe Longford Co. Longford","tel":"(043)6684958","images":null,"lat":"53.83399046","lng":"-7.610703485"},"fields":{"slug":"/section-directory-content/taxi-services/tommy-farrell-hackney-services/"}}},{"node":{"frontmatter":{"title":"Street Kabz","category":"Taxi Services","county":"Armagh","type":"Content","excerpt":null,"address":"23, Knocknamuckly Lane, Portadown, Craigavon, Co. Armagh BT63 5PF","tel":"028 3839 4040","images":null,"lat":"54.410268","lng":"-6.389271"},"fields":{"slug":"/section-directory-content/taxi-services/street-kabz/"}}},{"node":{"frontmatter":{"title":"Whitehead Taxis","category":"Taxi Services","county":"Antrim","type":"Content","excerpt":null,"address":"4, Islandmagee Rd, Whitehead, Carrickfergus, Co. Antrim BT38 9NE","tel":"028 9335 3302","images":null,"lat":"54.755775","lng":"-5.707042"},"fields":{"slug":"/section-directory-content/taxi-services/whitehead-taxis/"}}},{"node":{"frontmatter":{"title":"Pete's Taxis","category":"Taxi Services","county":"Armagh","type":"Content","excerpt":null,"address":"11, Thornhill Crescent, Tandragee, Craigavon, Co. Armagh BT62 2NZ","tel":"028 3884 1999","images":null,"lat":"54.354275","lng":"-6.404264"},"fields":{"slug":"/section-directory-content/taxi-services/petes-taxis/"}}},{"node":{"frontmatter":{"title":"Town and Country Taxis","category":"Taxi Services","county":"Derry","type":"Content","excerpt":null,"address":"32a, Moneysallin Rd, Kilrea, Coleraine, Co. Derry BT51 5TQ","tel":"028 2954 1500","images":null,"lat":"54.925085","lng":"-6.572201"},"fields":{"slug":"/section-directory-content/taxi-services/town-and-country-taxis/"}}},{"node":{"frontmatter":{"title":"City and Co. Cabs","category":"Taxi Services","county":"Waterford","type":"Content","excerpt":null,"address":"U49 Tycor Business ctr Tycor rd Waterford Co. Waterford","tel":"(051)877710","images":null,"lat":"52.25390184","lng":"-7.131790581"},"fields":{"slug":"/section-directory-content/taxi-services/city-and-co-cabs/"}}},{"node":{"frontmatter":{"title":"Yorkgate Taxis","category":"Taxi Services","county":"Antrim","type":"Content","excerpt":null,"address":"Cityside Shopping Centre, York Rd, Belfast, Co. Antrim BT15 1WA","tel":"028 9074 3939","images":null,"lat":"54.608471","lng":"-5.924905"},"fields":{"slug":"/section-directory-content/taxi-services/yorkgate-taxis/"}}},{"node":{"frontmatter":{"title":"Roslea Taxis and Minibus Hire","category":"Taxi Services","county":"Fermanagh","type":"Content","excerpt":null,"address":"Derryneese, Rosslea, Enniskillen, Co. Fermanagh BT92 7LD","tel":"028 6775 1245","images":null,"lat":"54.271244","lng":"-7.20846"},"fields":{"slug":"/section-directory-content/taxi-services/roslea-taxis-and-minibus-hire/"}}},{"node":{"frontmatter":{"title":"Rock Cabs","category":"Taxi Services","county":"Louth","type":"Content","excerpt":null,"address":"Unit 11A Loughran Stores Cleremount Bus Pk, Haggardstown Dundalk Co. Louth","tel":"(042)9323333","images":null,"lat":"53.97943054","lng":"-6.393365604"},"fields":{"slug":"/section-directory-content/taxi-services/rock-cabs/"}}},{"node":{"frontmatter":{"title":"Glenavy Taxis","category":"Taxi Services","county":"Antrim","type":"Content","excerpt":null,"address":"12, Crumlin Road, Glenavy, Crumlin, Co. Antrim, BT29 4LG","tel":"07798 731462","images":null,"lat":"054.5919560000","lng":"-006.2139410000"},"fields":{"slug":"/section-directory-content/taxi-services/glenavy-taxis/"}}}]}},"pageContext":{"isCreatedByStatefulCreatePages":false,"slug":"/section-directory/taxi-services/","category":"Taxi Services"}}}