{"componentChunkName":"component---src-templates-section-directory-js","path":"/section-directory/flying/","webpackCompilationHash":"","result":{"data":{"markdownRemark":{"html":"","frontmatter":{"category":"Flying"}},"allMarkdownRemark":{"distinct":["Antrim","Armagh","Derry","Down","Fermanagh","Mayo"],"edges":[{"node":{"frontmatter":{"title":"Aero- Heli","category":"Flying","county":"Down","type":"Content","excerpt":null,"address":"Aero-Heli, 61 Portaferry Road, Newtownards, Co. Down, BT23 8SG","tel":"+44 (0)28 9181 0445","images":null,"lat":"54.594329833984375","lng":"-5.70030403137207"},"fields":{"slug":"/section-directory-content/flying/aero--heli/"}}},{"node":{"frontmatter":{"title":"Cairn Farm Fly Fishery","category":"Flying","county":"Antrim","type":"Content","excerpt":null,"address":"27, Cairn Rd, Carrickfergus, Co. Antrim BT38 9AP","tel":"028 9336 8273","images":null,"lat":"54.764516","lng":"-5.854152"},"fields":{"slug":"/section-directory-content/flying/cairn-farm-fly-fishery/"}}},{"node":{"frontmatter":{"title":"Aero-Heli","category":"Flying","county":"Down","type":"Content","excerpt":null,"address":"61, Portaferry Rd, Newtownards, Co. Down BT23 8SG","tel":"028 9181 0445","images":null,"lat":"054.5871430000","lng":"-005.6844080000"},"fields":{"slug":"/section-directory-content/flying/aero-heli/"}}},{"node":{"frontmatter":{"title":"Causeway Flying Club","category":"Flying","county":"Antrim","type":"Content","excerpt":null,"address":"Causeway Flying Club, Causeway Flying Club Windsor House 61-71 Main House, Portrush, Co. Antrim, BT56 8BN","tel":"+44 (0)28 7082 3793","images":null,"lat":"55.20753479003906","lng":"-6.654110908508301"},"fields":{"slug":"/section-directory-content/flying/causeway-flying-club/"}}},{"node":{"frontmatter":{"title":"CITY OF DERRY AIRPORT","category":"Flying","county":"Derry","type":"Content","excerpt":null,"address":"Airport Rd, Eglinton, Derry, Co. Derry BT47 3GY","tel":"028 7181 0784","images":null,"lat":"55.03973","lng":"-7.15586"},"fields":{"slug":"/section-directory-content/flying/city-of-derry-airport/"}}},{"node":{"frontmatter":{"title":"Carrickmannon Fishery","category":"Flying","county":"Down","type":"Content","excerpt":null,"address":"130, Station Road, Saintfield, Ballynahinch, Co. Down, BT24 7EL","tel":"028 9751 0654","images":null,"lat":"054.4690420000","lng":"-005.7828530000"},"fields":{"slug":"/section-directory-content/flying/carrickmannon-fishery/"}}},{"node":{"frontmatter":{"title":"Fly NI Airsports","category":"Flying","county":"Armagh","type":"Content","excerpt":null,"address":"Fly NI- Microlight Airsports, 26 Tarsan Lane, Portadown, Co. Armagh, BT63 5RT","tel":"+44 (0)84 4094 0189","images":null,"lat":"54.45169448852539","lng":"-6.397026062011719"},"fields":{"slug":"/section-directory-content/flying/fly-ni-airsports/"}}},{"node":{"frontmatter":{"title":"Eurojet Aviation Limited","category":"Flying","county":"Antrim","type":"Content","excerpt":null,"address":"Eurojet Aviation Limited, 197 Ballyrobin Road, Antrim, Antrim, BT41 4TF","tel":"+44 (0)28 9442 2646","images":null,"lat":"54.675262451171875","lng":"-6.165924072265625"},"fields":{"slug":"/section-directory-content/flying/eurojet-aviation-limited/"}}},{"node":{"frontmatter":{"title":"Cloud Surfer Ireland","category":"Flying","county":"Derry","type":"Content","excerpt":null,"address":"Cloud Surfer Ireland, 59 Drummond Manor, Limavady, Co. Derry, BT49 0UQ","tel":"+44 (0)75 1868 0389","images":null,"lat":"55.04276657104492","lng":"-6.917380332946777"},"fields":{"slug":"/section-directory-content/flying/cloud-surfer-ireland/"}}},{"node":{"frontmatter":{"title":"Full Swing Entertainment","category":"Flying","county":"Derry","type":"Content","excerpt":null,"address":"15, Curryfree Rd, Waterside, Derry, Co. Derry BT47 3UH","tel":"028 7134 9664","images":null,"lat":"54.940672","lng":"-7.32217"},"fields":{"slug":"/section-directory-content/flying/full-swing-entertainment/"}}},{"node":{"frontmatter":{"title":"Moonjumper International","category":"Flying","county":"Antrim","type":"Content","excerpt":null,"address":"Suite 9, Sandal Village Centre, Knocklynn Road, Coleraine, Co. Antrim, BT52 1WT","tel":"+44 (0)28 7035 6356","images":null,"lat":"55.131710052490234","lng":"-6.6742401123046875"},"fields":{"slug":"/section-directory-content/flying/moonjumper-international/"}}},{"node":{"frontmatter":{"title":"Kernan Aviation","category":"Flying","county":"Armagh","type":"Content","excerpt":null,"address":"56, Mullahead Rd, Tandragee, Craigavon, Co. Armagh BT62 2LA","tel":"028 3884 1492","images":null,"lat":"54.388874","lng":"-6.405922"},"fields":{"slug":"/section-directory-content/flying/kernan-aviation/"}}},{"node":{"frontmatter":{"title":"Enniskillen Flying School","category":"Flying","county":"Fermanagh","type":"Content","excerpt":null,"address":"Enniskillen St Angelo Airport, Enniskillen, Co. Fermanagh, BT94 2FP","tel":"+44 (0)28 6632 2077","images":null,"lat":"54.346771240234375","lng":"-7.645120143890381"},"fields":{"slug":"/section-directory-content/flying/enniskillen-flying-school/"}}},{"node":{"frontmatter":{"title":"Eglinton Flying Club Ltd","category":"Flying","county":"Derry","type":"Content","excerpt":null,"address":"17a, Airfield Rd, Eglinton, Derry, Co. Derry BT47 3PZ","tel":"028 7181 0962","images":null,"lat":"54.625129","lng":"-6.15332"},"fields":{"slug":"/section-directory-content/flying/eglinton-flying-club-ltd/"}}},{"node":{"frontmatter":{"title":"Foyle Flight Training City of Derry Airport","category":"Flying","county":"Antrim","type":"Content","excerpt":null,"address":"191, Old Cullybackey Rd, Cullybackey, Ballymena, Co. Antrim BT42 1BT","tel":"028 7181 2555","images":null,"lat":"54.886469","lng":"-6.346494"},"fields":{"slug":"/section-directory-content/flying/foyle-flight-training-city-of-derry-airport/"}}},{"node":{"frontmatter":{"title":"Flying Over Ards","category":"Flying","county":"Down","type":"Content","excerpt":null,"address":"Flying Over Ards, Portaferry Road, Newtownards, Down, BT22 2AH","tel":"+44 (0)28 9181 3327","images":null,"lat":"54.594329833984375","lng":"-5.70030403137207"},"fields":{"slug":"/section-directory-content/flying/flying-over-ards/"}}},{"node":{"frontmatter":{"title":"Northern Ireland Microlights","category":"Flying","county":"Down","type":"Content","excerpt":null,"address":"Northern Ireland Microlights, Northern Ireland Microlights 17 Cleland Park North, Bangor, Co. Down, BT20 3EN","tel":"+44 (0)28 9146 2728","images":null,"lat":"54.583587646484375","lng":"-5.685741424560547"},"fields":{"slug":"/section-directory-content/flying/northern-ireland-microlights/"}}},{"node":{"frontmatter":{"title":"Ireland West Aviation","category":"Flying","county":"Mayo","type":"Content","excerpt":null,"address":"Charlestown, Co. Mayo","tel":"+353 (0)94 936 7716","images":null,"lat":"53.622222900390625","lng":"-4.9277777671813965"},"fields":{"slug":"/section-directory-content/flying/ireland-west-aviation/"}}},{"node":{"frontmatter":{"title":"Northern Light Aviation","category":"Flying","county":"Armagh","type":"Content","excerpt":null,"address":"Northern Lights Aviation, Craigavon,  Co. Armagh","tel":"+44 (0)28 3884 0399","images":null,"lat":"54.38816452026367","lng":"-6.403744697570801"},"fields":{"slug":"/section-directory-content/flying/northern-light-aviation/"}}},{"node":{"frontmatter":{"title":"Ulster Flying Club Ltd","category":"Flying","county":"Down","type":"Content","excerpt":null,"address":"Ards Airport, Portaferry Rd, Newtownards, Co. Down BT23 8SG","tel":"028 9181 3327","images":null,"lat":"55.038779","lng":"-7.16934"},"fields":{"slug":"/section-directory-content/flying/ulster-flying-club-ltd/"}}},{"node":{"frontmatter":{"title":"Stone Falls Trout Fishery and School Of Fly Fishing","category":"Flying","county":"Derry","type":"Content","excerpt":null,"address":"63, Altikeeragh Rd, Castlerock, Coleraine, Co. Derry BT51 4SR","tel":"028 7084 8380","images":null,"lat":"55.138684","lng":"-6.817384"},"fields":{"slug":"/section-directory-content/flying/stone-falls-trout-fishery-and-school-of-fly-fishing/"}}},{"node":{"frontmatter":{"title":"Ulster Microlights","category":"Flying","county":"Down","type":"Content","excerpt":null,"address":"Ulster Microlights, Newtownards Aerodrome Portaferry Road, Newtownards, Down","tel":"+44 (0)28 9087 3244","images":null,"lat":"54.594329833984375","lng":"-5.70030403137207"},"fields":{"slug":"/section-directory-content/flying/ulster-microlights/"}}},{"node":{"frontmatter":{"title":"Ulster Flying Club","category":"Flying","county":"Down","type":"Content","excerpt":null,"address":"Ards Airport, Portaferry Road, Newtownards, Co. Down, BT23 8SG","tel":"0289 124 4216","images":null,"lat":"054.5871430000","lng":"-005.6844080000"},"fields":{"slug":"/section-directory-content/flying/ulster-flying-club/"}}},{"node":{"frontmatter":{"title":"Ulster Hang Gliding and Paragliding Club","category":"Flying","county":"Down","type":"Content","excerpt":null,"address":"Ulster Hang Gliding and Paragliding Club, 56 Magheraknock Road, Ballynahinch, Co. Down, BT24 8TJ","tel":"+44 78 34544646","images":null,"lat":"54.41849136352539","lng":"-5.912269115447998"},"fields":{"slug":"/section-directory-content/flying/ulster-hang-gliding-and-paragliding-club/"}}},{"node":{"frontmatter":{"title":"Unique Helicopters Ltd","category":"Flying","county":"Fermanagh","type":"Content","excerpt":null,"address":"St. Angelo Airport, Trory, Enniskillen, Co. Fermanagh BT94 2FP","tel":"028 6632 6636","images":null,"lat":"54.587143","lng":"-5.684408"},"fields":{"slug":"/section-directory-content/flying/unique-helicopters-ltd/"}}},{"node":{"frontmatter":{"title":"Unique Helicopters","category":"Flying","county":"Fermanagh","type":"Content","excerpt":null,"address":"Enniskillen Airport, Enniskillen, Co. Fermanagh","tel":"+44 (0)28 6632 6636","images":null,"lat":"54.346771240234375","lng":"-7.645120143890381"},"fields":{"slug":"/section-directory-content/flying/unique-helicopters/"}}},{"node":{"frontmatter":{"title":"Ulster Seaplane Association Ltd","category":"Flying","county":"Antrim","type":"Content","excerpt":null,"address":"Causeway Airfield Rhee Lane Aghadowey, Coleraine, Co. Antrim, BT56 8BN","tel":"+44 (0)28 7082 3793","images":null,"lat":"55.20753479003906","lng":"-6.654110908508301"},"fields":{"slug":"/section-directory-content/flying/ulster-seaplane-association-ltd/"}}},{"node":{"frontmatter":{"title":"Wild Geese Skydiving Centre","category":"Flying","county":"Derry","type":"Content","excerpt":null,"address":"Wild Geese Skydiving Centre, Wildgeese Skydiving Centre, Movenis Airfield, 116 Carrowreagh Road, Garvagh, Co. Derry, BT51 5LQ","tel":"+44 (0)28 2955 8609","images":null,"lat":"54.986785888671875","lng":"-6.644533157348633"},"fields":{"slug":"/section-directory-content/flying/wild-geese-skydiving-centre/"}}},{"node":{"frontmatter":{"title":"WOODFORD FLY FISHERY","category":"Flying","county":"Antrim","type":"Content","excerpt":null,"address":"12c, Woodburn Rd, Carrickfergus, Co. Antrim BT38 8HQ","tel":"028 9336 0225","images":null,"lat":"54.718689","lng":"-5.821057"},"fields":{"slug":"/section-directory-content/flying/woodford-fly-fishery/"}}},{"node":{"frontmatter":{"title":"Woodgate Aviation (NI) Ltd","category":"Flying","county":"Antrim","type":"Content","excerpt":null,"address":"187, Airport Road, Crumlin, Co. Antrim, BT29 4DW","tel":"028 9442 2478","images":null,"lat":"054.6602020000","lng":"-006.2366600000"},"fields":{"slug":"/section-directory-content/flying/woodgate-aviation-ni-ltd/"}}},{"node":{"frontmatter":{"title":"The Amphibious Flying Club","category":"Flying","county":"Fermanagh","type":"Content","excerpt":null,"address":"Enniskillen Airport, Enniskillen, Co. Fermanagh, BT94 2FP","tel":"+44 (0)79 6221 3976","images":null,"lat":"54.346771240234375","lng":"-7.645120143890381"},"fields":{"slug":"/section-directory-content/flying/the-amphibious-flying-club/"}}},{"node":{"frontmatter":{"title":"Ulster Gliding Centre","category":"Flying","county":"Derry","type":"Content","excerpt":null,"address":"Ulster Gliding Club, Bellarena Airfield 367 Seacoast Road, Derry, BT49 0LA","tel":"+44 (0)28 7775 0301","images":null,"lat":"55.05282974243164","lng":"-6.949748992919922"},"fields":{"slug":"/section-directory-content/flying/ulster-gliding-centre/"}}},{"node":{"frontmatter":{"title":"WILD GEESE SKYDIVING CLUB","category":"Flying","county":"Derry","type":"Content","excerpt":null,"address":"116, Carrowreagh Rd, Garvagh, Coleraine, Co. Derry BT51 5LQ","tel":"028 2933 6330","images":null,"lat":"054.9864180000","lng":"-006.6448650000"},"fields":{"slug":"/section-directory-content/flying/wild-geese-skydiving-club/"}}},{"node":{"frontmatter":{"title":"The Amphibious Flying Club Ltd,","category":"Flying","county":"Fermanagh","type":"Content","excerpt":null,"address":"St. Angelo Airport, Rossahilly, Ballinamallard, Enniskillen, Co. Fermanagh BT94 2FP","tel":"028 6634 6861","images":null,"lat":"054.9864180000","lng":"-006.6448650000"},"fields":{"slug":"/section-directory-content/flying/the-amphibious-flying-club-ltd,/"}}},{"node":{"frontmatter":{"title":"Tildarg Fisheries","category":"Flying","county":"Antrim","type":"Content","excerpt":null,"address":"42, Breckenhill Rd, Doagh, Ballyclare, Co. Antrim BT39 0TB","tel":"0 2893449022","images":null,"lat":"054.7884620000","lng":"-006.0715240000"},"fields":{"slug":"/section-directory-content/flying/tildarg-fisheries/"}}},{"node":{"frontmatter":{"title":"Noclyn Aviation Ltd","category":"Flying","county":"Fermanagh","type":"Content","excerpt":null,"address":"Enniskillen Airport (St Angelo), Enniskillen, Co. Fermanagh, BT94 2FP","tel":"+44 (0)28 6634 7872","images":null,"lat":"54.394344329833984","lng":"-7.657723903656006"},"fields":{"slug":"/section-directory-content/flying/noclyn-aviation-ltd/"}}},{"node":{"frontmatter":{"title":"Corralea Activity Centre Ltd","category":"Flying","county":"Fermanagh","type":"Content","excerpt":null,"address":"Corralea, Belcoo, Enniskillen, Co. Fermanagh BT93 5DZ","tel":"028 6638 6123","images":null,"lat":"54.310934","lng":"-7.93649"},"fields":{"slug":"/section-directory-content/flying/corralea-activity-centre-ltd/"}}}]}},"pageContext":{"isCreatedByStatefulCreatePages":false,"slug":"/section-directory/flying/","category":"Flying"}}}