{"componentChunkName":"component---src-templates-section-directory-js","path":"/section-directory/zoos-and-aquariums/","webpackCompilationHash":"","result":{"data":{"markdownRemark":{"html":"","frontmatter":{"category":"Zoos And Aquariums"}},"allMarkdownRemark":{"distinct":["Antrim","Armagh","Derry","Down","Dublin","Fermanagh","Galway","Kerry","Kilkenny","Sligo","Waterford","Wexford","Wicklow"],"edges":[{"node":{"frontmatter":{"title":"AMC AQUATICS","category":"Zoos And Aquariums","county":"Derry","type":"Content","excerpt":null,"address":"31c, Catherine St, Limavady, Co. Derry BT49 9DA","tel":"028 7744 1294","images":null,"lat":"055.0501170000","lng":"-006.9517600000"},"fields":{"slug":"/section-directory-content/zoos-and-aquariums/amc-aquatics/"}}},{"node":{"frontmatter":{"title":"Aquaria and Pond Services","category":"Zoos And Aquariums","county":"Down","type":"Content","excerpt":null,"address":"6, Drumaknockan Rd, Hillsborough, Co. Down BT26 6QR","tel":"028 9269 9279","images":null,"lat":"54.423859","lng":"-6.077294"},"fields":{"slug":"/section-directory-content/zoos-and-aquariums/aquaria-and-pond-services/"}}},{"node":{"frontmatter":{"title":"Armagh Co. Museum","category":"Zoos And Aquariums","county":"Armagh","type":"Content","excerpt":null,"address":"The Mall East, Armagh, Co. Armagh BT61 9BE","tel":"028 3752 3070","images":null,"lat":"054.3496170000","lng":"-006.6486500000"},"fields":{"slug":"/section-directory-content/zoos-and-aquariums/armagh-co-museum/"}}},{"node":{"frontmatter":{"title":"Belfast Welcome Centre","category":"Zoos And Aquariums","county":"Antrim","type":"Content","excerpt":null,"address":"Tourist Information Belfast and N.I., 47 Donegall Place, Belfast, Co. Antrim, BT1 5AD","tel":"028 9024 6609","images":null,"lat":"054.5977390000","lng":"-005.9302110000"},"fields":{"slug":"/section-directory-content/zoos-and-aquariums/belfast-welcome-centre/"}}},{"node":{"frontmatter":{"title":"A.C.W Pet Supplies","category":"Zoos And Aquariums","county":"Antrim","type":"Content","excerpt":null,"address":"Unit 1B Avondale Business Park, Ballyclare, Co. Antrim, BT39 9AU","tel":"028 9334 0376","images":null,"lat":"054.7454180000","lng":"-006.0093300000"},"fields":{"slug":"/section-directory-content/zoos-and-aquariums/acw-pet-supplies/"}}},{"node":{"frontmatter":{"title":"Belfast Zoo","category":"Zoos And Aquariums","county":"Antrim","type":"Content","excerpt":null,"address":"Belfast Zoo, Antim Road, Belfast, Co. Antrim, BT36 7PN","tel":"+44 (0)28 9077 6277","images":null,"lat":"54.64892578125","lng":"-5.933844089508057"},"fields":{"slug":"/section-directory-content/zoos-and-aquariums/belfast-zoo/"}}},{"node":{"frontmatter":{"title":"Carrick Pet Stores","category":"Zoos And Aquariums","county":"Antrim","type":"Content","excerpt":null,"address":"24, North St, Carrickfergus, Co. Antrim BT38 7AQ","tel":"028 9335 1599","images":null,"lat":"054.7154120000","lng":"-005.8072880000"},"fields":{"slug":"/section-directory-content/zoos-and-aquariums/carrick-pet-stores/"}}},{"node":{"frontmatter":{"title":"Castle Espie Wetland Centre","category":"Zoos And Aquariums","county":"Down","type":"Content","excerpt":null,"address":"78, Ballydrain Road, Comber, Newtownards, Co. Down, BT23 6EA","tel":"028 9187 4146","images":null,"lat":"054.5241320000","lng":"-005.6906700000"},"fields":{"slug":"/section-directory-content/zoos-and-aquariums/castle-espie-wetland-centre/"}}},{"node":{"frontmatter":{"title":"Beechill Pet Supplies","category":"Zoos And Aquariums","county":"Down","type":"Content","excerpt":null,"address":"4, Main St, Saintfield, Ballynahinch, Co. Down BT24 7AA","tel":"028 9751 9291","images":null,"lat":"054.4605410000","lng":"-005.8308010000"},"fields":{"slug":"/section-directory-content/zoos-and-aquariums/beechill-pet-supplies/"}}},{"node":{"frontmatter":{"title":"Cottage Koi Farm","category":"Zoos And Aquariums","county":"Armagh","type":"Content","excerpt":null,"address":"47, Ballynarry Rd, Portadown, Craigavon, Co. Armagh BT62 1TX","tel":"028 3885 1626","images":null,"lat":"54.491109","lng":"-6.539865"},"fields":{"slug":"/section-directory-content/zoos-and-aquariums/cottage-koi-farm/"}}},{"node":{"frontmatter":{"title":"Copper Coast Mini Farm","category":"Zoos And Aquariums","county":"Waterford","type":"Content","excerpt":null,"address":"Ballyadam, Fenor, Co. Waterford","tel":"+353 (0)51 39 6870","images":null,"lat":"52.15625","lng":"-7.216291904449463"},"fields":{"slug":"/section-directory-content/zoos-and-aquariums/copper-coast-mini-farm/"}}},{"node":{"frontmatter":{"title":"AYTON COACHES LIBERTY TOURS (NI)","category":"Zoos And Aquariums","county":"Derry","type":"Content","excerpt":null,"address":"4, Woodside Heights, Derry, Co. Derry BT47 2LQ","tel":"028 7122 0846","images":null,"lat":"054.9862610000","lng":"-007.3014500000"},"fields":{"slug":"/section-directory-content/zoos-and-aquariums/ayton-coaches-liberty-tours-ni/"}}},{"node":{"frontmatter":{"title":"Craigavon Koi and Aquatics","category":"Zoos And Aquariums","county":"Armagh","type":"Content","excerpt":null,"address":"18, Deans Rd, Lurgan, Craigavon, Co. Armagh BT66 8TF","tel":"028 3832 5874","images":null,"lat":"54.429959","lng":"-6.3477"},"fields":{"slug":"/section-directory-content/zoos-and-aquariums/craigavon-koi-and-aquatics/"}}},{"node":{"frontmatter":{"title":"Dingle Oceanworld Aquarium","category":"Zoos And Aquariums","county":"Kerry","type":"Content","excerpt":null,"address":"The Wood, Dingle, Co. Kerry","tel":"+353 (0)66 915 2111","images":null,"lat":"52.142616271972656","lng":"-10.280864715576172"},"fields":{"slug":"/section-directory-content/zoos-and-aquariums/dingle-oceanworld-aquarium/"}}},{"node":{"frontmatter":{"title":"Causeway Koi","category":"Zoos And Aquariums","county":"Antrim","type":"Content","excerpt":null,"address":"115, Atlantic Road, Co. Antrim, Portush, Co. Antrim, BT56 8PB","tel":"028 7044 1115","images":null,"lat":"055.1799970000","lng":"-006.6594600000"},"fields":{"slug":"/section-directory-content/zoos-and-aquariums/causeway-koi/"}}},{"node":{"frontmatter":{"title":"Belfast Zoological Gardens","category":"Zoos And Aquariums","county":"Antrim","type":"Content","excerpt":null,"address":"Antrim Rd, Newtownabbey, Co. Antrim BT36 7PN","tel":"028 9077 6277","images":null,"lat":"54.658255","lng":"-5.940495"},"fields":{"slug":"/section-directory-content/zoos-and-aquariums/belfast-zoological-gardens/"}}},{"node":{"frontmatter":{"title":"Dublin Zoo","category":"Zoos And Aquariums","county":"Dublin","type":"Content","excerpt":null,"address":"Dublin Zoo, Phoenix Park, Co. Dublin, Dublin 8","tel":"+353 (0)14 74 8900","images":null,"lat":"53.355010986328125","lng":"-6.304197311401367"},"fields":{"slug":"/section-directory-content/zoos-and-aquariums/dublin-zoo/"}}},{"node":{"frontmatter":{"title":"Dobbies Garden World Lisburn","category":"Zoos And Aquariums","county":"Antrim","type":"Content","excerpt":null,"address":"Dobbies Garden World, Saintfield Road, Lisburn, Co. Antrim, BT27 5PG","tel":"028 9244 6055","images":null,"lat":"054.4879930000","lng":"-005.9894640000"},"fields":{"slug":"/section-directory-content/zoos-and-aquariums/dobbies-garden-world-lisburn/"}}},{"node":{"frontmatter":{"title":"Exotic Aquatics","category":"Zoos And Aquariums","county":"Antrim","type":"Content","excerpt":null,"address":"Unit 3 Block B, Prince Regent Road, Belfast, Co. Antrim, BT5 6QR","tel":"028 9079 0006","images":null,"lat":"054.5812980000","lng":"-005.8722900000"},"fields":{"slug":"/section-directory-content/zoos-and-aquariums/exotic-aquatics/"}}},{"node":{"frontmatter":{"title":"Dobbies Garden Lisburn","category":"Zoos And Aquariums","county":"Antrim","type":"Content","excerpt":null,"address":"Dobbies Garden World, Saintfield Road, Lisburn, Co. Antrim, BT27 5PG","tel":"028 9244 2847","images":null,"lat":"054.4879930000","lng":"-005.9894640000"},"fields":{"slug":"/section-directory-content/zoos-and-aquariums/dobbies-garden-lisburn/"}}},{"node":{"frontmatter":{"title":"Dolly Doolittles Pet Store","category":"Zoos And Aquariums","county":"Antrim","type":"Content","excerpt":null,"address":"122 Longstone Street, Lisburn, Co. Antrim, BT28 1TR","tel":"028 9244 3173","images":null,"lat":"054.5094950000","lng":"-006.0564220000"},"fields":{"slug":"/section-directory-content/zoos-and-aquariums/dolly-doolittles-pet-store/"}}},{"node":{"frontmatter":{"title":"Eagles Flying Irish Raptor Research Centre","category":"Zoos And Aquariums","county":"Sligo","type":"Content","excerpt":null,"address":"Portinch, Ballymote, Co. Sligo","tel":"+353 (0)71 918 9310","images":null,"lat":"54.10149002075195","lng":"-8.57153606414795"},"fields":{"slug":"/section-directory-content/zoos-and-aquariums/eagles-flying-irish-raptor-research-centre/"}}},{"node":{"frontmatter":{"title":"Grosvenor Tropicals","category":"Zoos And Aquariums","county":"Antrim","type":"Content","excerpt":null,"address":"Unit 6, Riverside Centre, Young Street, Lisburn, Co. Antrim, BT27 5EA","tel":"028 9210 8941","images":null,"lat":"054.5076550000","lng":"-006.0376400000"},"fields":{"slug":"/section-directory-content/zoos-and-aquariums/grosvenor-tropicals/"}}},{"node":{"frontmatter":{"title":"Dundonald International Ice Bowl","category":"Zoos And Aquariums","county":"Antrim","type":"Content","excerpt":null,"address":"111, Old Dundonald Road, Dundonald, Belfast, Co. Antrim, BT16 1XT","tel":"028 9080 9100","images":null,"lat":"054.5880000000","lng":"-005.8172220000"},"fields":{"slug":"/section-directory-content/zoos-and-aquariums/dundonald-international-ice-bowl/"}}},{"node":{"frontmatter":{"title":"Exploris Aquarium","category":"Zoos And Aquariums","county":"Down","type":"Content","excerpt":null,"address":"Wolfies Easter Extravaganza at the Exploris Aquarium, Exploris Aquarium The Ropewalk Castle Street, Portaferry, Co. Down, BT22 1NZ","tel":"+44 (0)28 4272 8062","images":null,"lat":"54.38146209716797","lng":"-5.548429012298584"},"fields":{"slug":"/section-directory-content/zoos-and-aquariums/exploris-aquarium/"}}},{"node":{"frontmatter":{"title":"Haire Bros Roofing and Lining","category":"Zoos And Aquariums","county":"Derry","type":"Content","excerpt":null,"address":"48, Cloyfin Road, Coleraine, Co. Derry BT52 2NY","tel":"028 7044 0752","images":null,"lat":"055.1490640000","lng":"-006.6399380000"},"fields":{"slug":"/section-directory-content/zoos-and-aquariums/haire-bros-roofing-and-lining/"}}},{"node":{"frontmatter":{"title":"Fur, Feathers and Fins","category":"Zoos And Aquariums","county":"Down","type":"Content","excerpt":null,"address":"Unit 1, Corriewood Industrial Estate, Castlewellan, Co. Down, BT31 9NF","tel":"07840 993097","images":null,"lat":"054.2592480000","lng":"-005.9305400000"},"fields":{"slug":"/section-directory-content/zoos-and-aquariums/fur,-feathers-and-fins/"}}},{"node":{"frontmatter":{"title":"Jubilee Pet Supplies","category":"Zoos And Aquariums","county":"Down","type":"Content","excerpt":null,"address":"Scrabo Business Park, Jubilee Road, Newtownards, Co. Down, BT23 4YH","tel":"028 9181 7500","images":null,"lat":"054.5846300000","lng":"-005.7024200000"},"fields":{"slug":"/section-directory-content/zoos-and-aquariums/jubilee-pet-supplies/"}}},{"node":{"frontmatter":{"title":"Failte Ireland","category":"Zoos And Aquariums","county":"Antrim","type":"Content","excerpt":null,"address":"Belfast Welcome Centre, 47, Donegall Place, Belfast, Co. Antrim, BT1 5AD","tel":"028 9031 2345","images":null,"lat":"054.5977390000","lng":"-005.9302110000"},"fields":{"slug":"/section-directory-content/zoos-and-aquariums/failte-ireland/"}}},{"node":{"frontmatter":{"title":"Imaginary Micky's Walking Tours","category":"Zoos And Aquariums","county":"Antrim","type":"Content","excerpt":null,"address":"121, Spamount St, Belfast, Co. Antrim BT15 2FE","tel":"07414 073145","images":null,"lat":"054.6118350000","lng":"-005.9316570000"},"fields":{"slug":"/section-directory-content/zoos-and-aquariums/imaginary-mickys-walking-tours/"}}},{"node":{"frontmatter":{"title":"Galway Atlantaquaria","category":"Zoos And Aquariums","county":"Galway","type":"Content","excerpt":null,"address":"The Promenade, Salthill, Co. Galway","tel":"+353 (0)91 58 5100","images":null,"lat":"53.25990676879883","lng":"-9.074019432067871"},"fields":{"slug":"/section-directory-content/zoos-and-aquariums/galway-atlantaquaria/"}}},{"node":{"frontmatter":{"title":"Kia Ora Mini Farm","category":"Zoos And Aquariums","county":"Wexford","type":"Content","excerpt":null,"address":"Courteencurragh, Gorey, Co. Wexford","tel":"+353 (0)53 94 21166","images":null,"lat":"52.67559814453125","lng":"-6.254579067230225"},"fields":{"slug":"/section-directory-content/zoos-and-aquariums/kia-ora-mini-farm/"}}},{"node":{"frontmatter":{"title":"McComb's Executive Travel and Tours","category":"Zoos And Aquariums","county":"Antrim","type":"Content","excerpt":null,"address":"First Floor, Unit C, Loughside Industrial Estate, Dargan Cresent, Belfast, Co. Antrim, BT3 9JP","tel":"028 9031 5333","images":null,"lat":"054.6269750000","lng":"-005.9088300000"},"fields":{"slug":"/section-directory-content/zoos-and-aquariums/mccombs-executive-travel-and-tours/"}}},{"node":{"frontmatter":{"title":"Jollyes Petfood Superstores","category":"Zoos And Aquariums","county":"Down","type":"Content","excerpt":null,"address":"1, Faulkner Road, Bangor, Co. Down, BT20 3JS","tel":"028 9127 3590","images":null,"lat":"054.6492860000","lng":"-005.6868700000"},"fields":{"slug":"/section-directory-content/zoos-and-aquariums/jollyes-petfood-superstores/"}}},{"node":{"frontmatter":{"title":"National Sealife Centre","category":"Zoos And Aquariums","county":"Wicklow","type":"Content","excerpt":null,"address":"Strand Road, Bray, Co. Wicklow","tel":"+353 (0)12 86 6939","images":null,"lat":"53.19798278808594","lng":"-6.100263595581055"},"fields":{"slug":"/section-directory-content/zoos-and-aquariums/national-sealife-centre/"}}},{"node":{"frontmatter":{"title":"Riverwatch Visitor Centre and Aquarium","category":"Zoos And Aquariums","county":"Derry","type":"Content","excerpt":null,"address":"Loughs Agency - Riverwatch, 22 Victoria Road, Derry, Derry, BT47 2AB","tel":"+44 (0)28 7134 2100","images":null,"lat":"54.9918098449707","lng":"-7.320168972015381"},"fields":{"slug":"/section-directory-content/zoos-and-aquariums/riverwatch-visitor-centre-and-aquarium/"}}},{"node":{"frontmatter":{"title":"Ladysmith Pet Supplies and Aquatics","category":"Zoos And Aquariums","county":"Derry","type":"Content","excerpt":null,"address":"38A Main Street, Maghera, Co. Derry, BT46 5AE","tel":"028 7954 9212","images":null,"lat":"054.8442570000","lng":"-006.6726120000"},"fields":{"slug":"/section-directory-content/zoos-and-aquariums/ladysmith-pet-supplies-and-aquatics/"}}},{"node":{"frontmatter":{"title":"Northern Aquatics","category":"Zoos And Aquariums","county":"Antrim","type":"Content","excerpt":null,"address":"20, Cherryvale Park, Newtownabbey, Co. Antrim BT36 7UQ","tel":"028 9084 4408","images":null,"lat":"54.338052","lng":"-6.58352"},"fields":{"slug":"/section-directory-content/zoos-and-aquariums/northern-aquatics/"}}},{"node":{"frontmatter":{"title":"Pet Connection","category":"Zoos And Aquariums","county":"Down","type":"Content","excerpt":null,"address":"Unit 26, Ashtree Enterprise Park, Rathfriland Rd, Newry, Co. Down BT34 1BY","tel":"028 3083 3442","images":null,"lat":"054.1882380000","lng":"-006.3200610000"},"fields":{"slug":"/section-directory-content/zoos-and-aquariums/pet-connection/"}}},{"node":{"frontmatter":{"title":"Odyssey","category":"Zoos And Aquariums","county":"Antrim","type":"Content","excerpt":null,"address":"The Odyssey Trust, 2 Queens Quay, Belfast, Co. Antrim, BT3 9QQ","tel":"028 9045 1055","images":null,"lat":"054.6026770000","lng":"-005.9177500000"},"fields":{"slug":"/section-directory-content/zoos-and-aquariums/odyssey/"}}},{"node":{"frontmatter":{"title":"Ocean and Country Visitor Centre","category":"Zoos And Aquariums","county":"Galway","type":"Content","excerpt":null,"address":"Derryinver, Letterfrack, Co. Galway","tel":"+353 (0)95 43 473","images":null,"lat":"53.60101318359375","lng":"-9.993680000305176"},"fields":{"slug":"/section-directory-content/zoos-and-aquariums/ocean-and-country-visitor-centre/"}}},{"node":{"frontmatter":{"title":"Sentry Hill Historic House and Visitor Centre","category":"Zoos And Aquariums","county":"Antrim","type":"Content","excerpt":null,"address":"40, Ballycraigy Road, Co. Antrim, Newtownabbey, Co. Antrim, BT36 8SX","tel":"028 9083 2363","images":null,"lat":"054.6865740000","lng":"-005.9651860000"},"fields":{"slug":"/section-directory-content/zoos-and-aquariums/sentry-hill-historic-house-and-visitor-centre/"}}},{"node":{"frontmatter":{"title":"Pet Shop Boyz","category":"Zoos And Aquariums","county":"Fermanagh","type":"Content","excerpt":null,"address":"56c, Tempo Road, Enniskillen, Co. Fermanagh, BT74 6HR","tel":"028 66 347994","images":null,"lat":"054.3450880000","lng":"-007.6218300000"},"fields":{"slug":"/section-directory-content/zoos-and-aquariums/pet-shop-boyz/"}}},{"node":{"frontmatter":{"title":"The Fish House","category":"Zoos And Aquariums","county":"Antrim","type":"Content","excerpt":null,"address":"Unit 17, Loughanhill Industrial Estate, Coleraine, Co. Antrim, BT52 2NJ","tel":"028 7044 1532","images":null,"lat":"055.1486190000","lng":"-006.6499800000"},"fields":{"slug":"/section-directory-content/zoos-and-aquariums/the-fish-house/"}}},{"node":{"frontmatter":{"title":"Running Waters Pond Construction","category":"Zoos And Aquariums","county":"Down","type":"Content","excerpt":null,"address":"20, Rathcunningham Rd, Killyleagh, Downpatrick, Co. Down BT30 9PE","tel":"028 4482 1532","images":null,"lat":"54.422553","lng":"-5.6467"},"fields":{"slug":"/section-directory-content/zoos-and-aquariums/running-waters-pond-construction/"}}},{"node":{"frontmatter":{"title":"Streamvale Open Farm","category":"Zoos And Aquariums","county":"Antrim","type":"Content","excerpt":null,"address":"38 Ballyhanwood Road, Belfast, Co. Antrim, BT5 7SN","tel":"02890 483244","images":null,"lat":"054.5824640000","lng":"-005.8194800000"},"fields":{"slug":"/section-directory-content/zoos-and-aquariums/streamvale-open-farm/"}}},{"node":{"frontmatter":{"title":"Reptile Village","category":"Zoos And Aquariums","county":"Kilkenny","type":"Content","excerpt":null,"address":"The Demense, Gowran, Co. Kilkenny","tel":"+353 (0)56 772 6757","images":null,"lat":"52.61030197143555","lng":"-7.057747840881348"},"fields":{"slug":"/section-directory-content/zoos-and-aquariums/reptile-village/"}}},{"node":{"frontmatter":{"title":"World of Owls","category":"Zoos And Aquariums","county":"Antrim","type":"Content","excerpt":null,"address":"15, Aghaloughan Rd, Randalstown, Antrim, Co. Antrim BT41 3LG","tel":"028 9447 2307","images":null,"lat":"54.73359","lng":"-6.340445"},"fields":{"slug":"/section-directory-content/zoos-and-aquariums/world-of-owls/"}}},{"node":{"frontmatter":{"title":"Pets R Us","category":"Zoos And Aquariums","county":"Derry","type":"Content","excerpt":null,"address":"7, Connell Street Car Park, Limavady, Co. Derry, BT49 0DB","tel":"028 7744 1560","images":null,"lat":"055.0520250000","lng":"-006.9502200000"},"fields":{"slug":"/section-directory-content/zoos-and-aquariums/pets-r-us/"}}},{"node":{"frontmatter":{"title":"TM Coach Hire","category":"Zoos And Aquariums","county":"Antrim","type":"Content","excerpt":null,"address":"Unit 10, Dunmurry Industrial Estate, Dunmurry, Belfast, Co. Antrim, BT17 9HU","tel":"028 9061 6666","images":null,"lat":"054.5461100000","lng":"-006.0208300000"},"fields":{"slug":"/section-directory-content/zoos-and-aquariums/tm-coach-hire/"}}}]}},"pageContext":{"isCreatedByStatefulCreatePages":false,"slug":"/section-directory/zoos-and-aquariums/","category":"Zoos And Aquariums"}}}