{"componentChunkName":"component---src-templates-section-directory-js","path":"/section-directory/asian-restaurants/","webpackCompilationHash":"","result":{"data":{"markdownRemark":{"html":"","frontmatter":{"category":"Asian Restaurants"}},"allMarkdownRemark":{"distinct":["Antrim","Clare","Cork","Derry","Down","Dublin","Galway","Kerry","Limerick","Meath","Sligo","Waterford","Westmeath","Wicklow"],"edges":[{"node":{"frontmatter":{"title":"Abacus Cantonese Restaurant and Takeout","category":"Asian Restaurants","county":"Antrim","type":"Content","excerpt":null,"address":"115 Eglantine Avenue, Belfast, Co. Antrim, BT9 6EU","tel":"02890 028543","images":null,"lat":"054.5808700000","lng":"-005.9404380000"},"fields":{"slug":"/section-directory-content/asian-restaurants/abacus-cantonese-restaurant-and-takeout/"}}},{"node":{"frontmatter":{"title":"Bokhara Bangor","category":"Asian Restaurants","county":"Down","type":"Content","excerpt":null,"address":"2A King Street, Bangor, Co. Down, BT20 3AH","tel":"028 9124 0751","images":null,"lat":"054.6616430000","lng":"-005.6694690000"},"fields":{"slug":"/section-directory-content/asian-restaurants/bokhara-bangor/"}}},{"node":{"frontmatter":{"title":"Bokhara Holywood","category":"Asian Restaurants","county":"Down","type":"Content","excerpt":null,"address":"149-153, High Street, Holywood, Co. Down, BT18 9LG","tel":"028 9042 6767","images":null,"lat":"054.6395210000","lng":"-005.8377650000"},"fields":{"slug":"/section-directory-content/asian-restaurants/bokhara-holywood/"}}},{"node":{"frontmatter":{"title":"Bombay Brasserie","category":"Asian Restaurants","county":"Antrim","type":"Content","excerpt":null,"address":"241 Lisburn Road, Belfast, Co. Antrim, BT9 7EN","tel":"028 9543 8940","images":null,"lat":"054.5814340000","lng":"-005.9478400000"},"fields":{"slug":"/section-directory-content/asian-restaurants/bombay-brasserie/"}}},{"node":{"frontmatter":{"title":"Chanze Chinese Restaurant","category":"Asian Restaurants","county":"Dublin","type":"Content","excerpt":null,"address":"7 St Andrew's Street, Co. Dublin, 2","tel":"+353 (0)1 679 2988","images":null,"lat":"53.34366989135742","lng":"-6.260427474975586"},"fields":{"slug":"/section-directory-content/asian-restaurants/chanze-chinese-restaurant/"}}},{"node":{"frontmatter":{"title":"China House","category":"Asian Restaurants","county":"Dublin","type":"Content","excerpt":null,"address":"15 Firhouse Shopping Centre, Ballcullenb Avenue, Firhouse, Co. Dublin, Dublin 24","tel":"+353 (0)14 51 3349","images":null,"lat":"53.2816047668457","lng":"-6.340394973754883"},"fields":{"slug":"/section-directory-content/asian-restaurants/china-house/"}}},{"node":{"frontmatter":{"title":"China China","category":"Asian Restaurants","county":"Derry","type":"Content","excerpt":null,"address":"11-13, Rainey Street, Magherafelt, Co. Derry, BT45 5DA","tel":"02879 300518","images":null,"lat":"054.7554620000","lng":"-006.6089380000"},"fields":{"slug":"/section-directory-content/asian-restaurants/china-china/"}}},{"node":{"frontmatter":{"title":"China Gold","category":"Asian Restaurants","county":"Cork","type":"Content","excerpt":null,"address":"43/44 Patrick Street, Cork City","tel":"+353 (0)21 427 3535","images":null,"lat":"51.89811325073242","lng":"-8.47319221496582"},"fields":{"slug":"/section-directory-content/asian-restaurants/china-gold/"}}},{"node":{"frontmatter":{"title":"China Garden Restaurant","category":"Asian Restaurants","county":"Meath","type":"Content","excerpt":null,"address":"58 Brews Hill, Navan, Navan (An Uaimh), Co. Meath","tel":"+353 (0)46 902 2621","images":null,"lat":"53.646690368652344","lng":"-6.700315475463867"},"fields":{"slug":"/section-directory-content/asian-restaurants/china-garden-restaurant/"}}},{"node":{"frontmatter":{"title":"Chopsticks Oriental Restaurant and Take Away","category":"Asian Restaurants","county":"Clare","type":"Content","excerpt":null,"address":"Market Square, Scarriff, Co. Clare","tel":"+353 (0)61 92 1283","images":null,"lat":"52.910675048828125","lng":"-8.532158851623535"},"fields":{"slug":"/section-directory-content/asian-restaurants/chopsticks-oriental-restaurant-and-take-away/"}}},{"node":{"frontmatter":{"title":"China Szechuan Restaurant","category":"Asian Restaurants","county":"Dublin","type":"Content","excerpt":null,"address":"4 Lower Kilmacud Road, Stillorgan, Co. Dublin, South County","tel":"+353 (0)1 288 4817","images":null,"lat":"53.288475036621094","lng":"-6.1991047859191895"},"fields":{"slug":"/section-directory-content/asian-restaurants/china-szechuan-restaurant/"}}},{"node":{"frontmatter":{"title":"Fans Restaurant","category":"Asian Restaurants","county":"Dublin","type":"Content","excerpt":null,"address":"60 Dame Street, Dublin City Centre, Co. Dublin, Dublin 2","tel":"+353 (0)16 79 4263","images":null,"lat":"53.3440055847168","lng":"-6.264197826385498"},"fields":{"slug":"/section-directory-content/asian-restaurants/fans-restaurant/"}}},{"node":{"frontmatter":{"title":"Chungs Cuisine","category":"Asian Restaurants","county":"Limerick","type":"Content","excerpt":null,"address":"Unit 7B, Castletroy Commerical Centre, Castletroy, Co. Limerick","tel":"+353 (0)61 20 1134","images":null,"lat":"53.0","lng":"-8.557160377502441"},"fields":{"slug":"/section-directory-content/asian-restaurants/chungs-cuisine/"}}},{"node":{"frontmatter":{"title":"Dynasty Chinese Restaurant","category":"Asian Restaurants","county":"Cork","type":"Content","excerpt":null,"address":"31 Bridge Street, Skibbereen, Co. Cork","tel":"+353 (0)28 23 419","images":null,"lat":"51.551124572753906","lng":"-9.274643898010254"},"fields":{"slug":"/section-directory-content/asian-restaurants/dynasty-chinese-restaurant/"}}},{"node":{"frontmatter":{"title":"Green Chilli Indian Restaurant","category":"Asian Restaurants","county":"Down","type":"Content","excerpt":null,"address":"32, Dufferin Avenue, Bangor, Co. Down BT20 3AA","tel":"028 9146 0030","images":null,"lat":"054.6594610000","lng":"-005.6709210000"},"fields":{"slug":"/section-directory-content/asian-restaurants/green-chilli-indian-restaurant/"}}},{"node":{"frontmatter":{"title":"Da Tang Noodle House","category":"Asian Restaurants","county":"Galway","type":"Content","excerpt":null,"address":"Da Tang Noodle House, Middle Street, Galway City Centre","tel":"+353 (0)91 56 1443","images":null,"lat":"53.27194595336914","lng":"-9.04888916015625"},"fields":{"slug":"/section-directory-content/asian-restaurants/da-tang-noodle-house/"}}},{"node":{"frontmatter":{"title":"Imperial Chinese Restaurant","category":"Asian Restaurants","county":"Dublin","type":"Content","excerpt":null,"address":"12a Wicklow Street, Co. Dublin, 2","tel":"+353 (0)1 677 2580","images":null,"lat":"53.34300231933594","lng":"-6.260875225067139"},"fields":{"slug":"/section-directory-content/asian-restaurants/imperial-chinese-restaurant/"}}},{"node":{"frontmatter":{"title":"Franzini OBriens","category":"Asian Restaurants","county":"Meath","type":"Content","excerpt":null,"address":"Trim, Co. Meath","tel":"+353 (0)46 943 1002","images":null,"lat":"53.55360794067383","lng":"-6.780640125274658"},"fields":{"slug":"/section-directory-content/asian-restaurants/franzini-obriens/"}}},{"node":{"frontmatter":{"title":"Jade Plalace","category":"Asian Restaurants","county":"Waterford","type":"Content","excerpt":null,"address":"3/4 The Mall,, Waterford City, Co. Waterford","tel":"+353 (0)51 85 5611","images":null,"lat":"52.25967788696289","lng":"-7.105782985687256"},"fields":{"slug":"/section-directory-content/asian-restaurants/jade-plalace/"}}},{"node":{"frontmatter":{"title":"Jasmine Palace Chinese Reataurant","category":"Asian Restaurants","county":"Limerick","type":"Content","excerpt":null,"address":"O Connell Mall, O Connell Street, Limerick City Centre, Co. Limerick","tel":"+353 (0)61 41 2484","images":null,"lat":"52.662105560302734","lng":"-8.626203536987305"},"fields":{"slug":"/section-directory-content/asian-restaurants/jasmine-palace-chinese-reataurant/"}}},{"node":{"frontmatter":{"title":"Maxim House Restaurant","category":"Asian Restaurants","county":"Waterford","type":"Content","excerpt":null,"address":"8 O Connell Street, Waterford city, Co. Waterford","tel":"+353 (0)51 87 5820","images":null,"lat":"52.26232147216797","lng":"-7.115938186645508"},"fields":{"slug":"/section-directory-content/asian-restaurants/maxim-house-restaurant/"}}},{"node":{"frontmatter":{"title":"Kingsland Dublin","category":"Asian Restaurants","county":"Dublin","type":"Content","excerpt":null,"address":"15 Dame Street, Dublin City Centre, Co. Dublin, Dublin 2","tel":"+353 (0)16 79 8286","images":null,"lat":"53.34405517578125","lng":"-6.2653069496154785"},"fields":{"slug":"/section-directory-content/asian-restaurants/kingsland-dublin/"}}},{"node":{"frontmatter":{"title":"Mayflower Chinese and Seafood Restaurant","category":"Asian Restaurants","county":"Kerry","type":"Content","excerpt":null,"address":"College Square, Killarney, Co. Kerry","tel":"+353 (0)64 663 2212","images":null,"lat":"52.05842590332031","lng":"-9.507617950439453"},"fields":{"slug":"/section-directory-content/asian-restaurants/mayflower-chinese-and-seafood-restaurant/"}}},{"node":{"frontmatter":{"title":"Prince","category":"Asian Restaurants","county":"Dublin","type":"Content","excerpt":null,"address":"112 Middle Abbey Street, Dublin city centre, Dublin City Centre, Co. Dublin, Dublin 1","tel":"+353 (0)18 72 7917","images":null,"lat":"53.34811019897461","lng":"-6.263610363006592"},"fields":{"slug":"/section-directory-content/asian-restaurants/prince/"}}},{"node":{"frontmatter":{"title":"SONALI TANDOORI and BALTI RESTAURANT","category":"Asian Restaurants","county":"Antrim","type":"Content","excerpt":null,"address":"703, Lisburn Rd, Belfast, Co. Antrim BT9 7GU","tel":"028 9066 6833","images":null,"lat":"054.5723360000","lng":"-005.9602000000"},"fields":{"slug":"/section-directory-content/asian-restaurants/sonali-tandoori-and-balti-restaurant/"}}},{"node":{"frontmatter":{"title":"Royal Park Chinese Restaurant","category":"Asian Restaurants","county":"Wicklow","type":"Content","excerpt":null,"address":"Church Road, Greystones, Co. Wicklow","tel":"+353 (0)12 87 4041","images":null,"lat":"53.14441680908203","lng":"-6.063084125518799"},"fields":{"slug":"/section-directory-content/asian-restaurants/royal-park-chinese-restaurant/"}}},{"node":{"frontmatter":{"title":"Pearl River","category":"Asian Restaurants","county":"Cork","type":"Content","excerpt":null,"address":"21 Princes Street, Cork City","tel":"+353 (0)21 427 4149","images":null,"lat":"51.8968391418457","lng":"-8.472887992858887"},"fields":{"slug":"/section-directory-content/asian-restaurants/pearl-river/"}}},{"node":{"frontmatter":{"title":"Pings Restaurant","category":"Asian Restaurants","county":"Dublin","type":"Content","excerpt":null,"address":"The Grove, Stillorgan, Co. Dublin","tel":"+353 (0)12 83 1373","images":null,"lat":"53.289268493652344","lng":"-6.215432643890381"},"fields":{"slug":"/section-directory-content/asian-restaurants/pings-restaurant/"}}},{"node":{"frontmatter":{"title":"The Amber Court Chinese Restaurant and Take Away","category":"Asian Restaurants","county":"Westmeath","type":"Content","excerpt":null,"address":"Dominick Street, Mullingar, Co. Westmeath","tel":"+353 (0)44 934 1241","images":null,"lat":"53.52424240112305","lng":"-7.347063064575195"},"fields":{"slug":"/section-directory-content/asian-restaurants/the-amber-court-chinese-restaurant-and-take-away/"}}},{"node":{"frontmatter":{"title":"Tung Sing Restaurant","category":"Asian Restaurants","county":"Cork","type":"Content","excerpt":null,"address":"23a Patrick Street, Cork City","tel":"+353 (0)21 427 4616","images":null,"lat":"51.89860534667969","lng":"-8.471148490905762"},"fields":{"slug":"/section-directory-content/asian-restaurants/tung-sing-restaurant/"}}},{"node":{"frontmatter":{"title":"The Imperial Palace","category":"Asian Restaurants","county":"Derry","type":"Content","excerpt":null,"address":"15, Queen St, Magherafelt, Co. Derry BT45 6AA","tel":"028 7963 1709","images":null,"lat":"054.7549010000","lng":"-006.6088700000"},"fields":{"slug":"/section-directory-content/asian-restaurants/the-imperial-palace/"}}},{"node":{"frontmatter":{"title":"SPICE INDIAN RESTAURANT","category":"Asian Restaurants","county":"Antrim","type":"Content","excerpt":null,"address":"2-4, Bridge St, Lisburn, Co. Antrim BT28 1XY","tel":"02892 443379","images":null,"lat":"054.5107810000","lng":"-006.0417340000"},"fields":{"slug":"/section-directory-content/asian-restaurants/spice-indian-restaurant/"}}},{"node":{"frontmatter":{"title":"The Jharna","category":"Asian Restaurants","county":"Antrim","type":"Content","excerpt":null,"address":"133 Lisburn Road, Belfast, Co. Antrim, BT9 7AG","tel":"028 9038 1299","images":null,"lat":"054.5842940000","lng":"-005.9427830000"},"fields":{"slug":"/section-directory-content/asian-restaurants/the-jharna/"}}},{"node":{"frontmatter":{"title":"Wongs Chinese Restaurant Monkstown","category":"Asian Restaurants","county":"Dublin","type":"Content","excerpt":null,"address":"5A The Crescent, Monkstown, Co. Dublin","tel":"+353 (0)12 30 1212","images":null,"lat":"53.288856506347656","lng":"-6.1704607009887695"},"fields":{"slug":"/section-directory-content/asian-restaurants/wongs-chinese-restaurant-monkstown/"}}},{"node":{"frontmatter":{"title":"Wongs Chinese Restaurant Clontarf Road","category":"Asian Restaurants","county":"Dublin","type":"Content","excerpt":null,"address":"436 Clontarf Road, Dublin City Area North, Co. Dublin, Dublin 3","tel":"+353 (0)18 33 4400","images":null,"lat":"53.36515426635742","lng":"-6.176067352294922"},"fields":{"slug":"/section-directory-content/asian-restaurants/wongs-chinese-restaurant-clontarf-road/"}}},{"node":{"frontmatter":{"title":"The Strand Bar and Jade Garden Restaurant","category":"Asian Restaurants","county":"Sligo","type":"Content","excerpt":null,"address":"Strandhill, Co. Sligo","tel":"+353 (0)71 916 8140 (Bar)","images":null,"lat":"54.27064514160156","lng":"-8.608264923095703"},"fields":{"slug":"/section-directory-content/asian-restaurants/the-strand-bar-and-jade-garden-restaurant/"}}},{"node":{"frontmatter":{"title":"Victoria Chinese Restaurant","category":"Asian Restaurants","county":"Dublin","type":"Content","excerpt":null,"address":"4 Main Street, Clondalkin, Co. Dublin","tel":"+353 (0)14 57 2389","images":null,"lat":"53.28791427612305","lng":"-6.360154151916504"},"fields":{"slug":"/section-directory-content/asian-restaurants/victoria-chinese-restaurant/"}}},{"node":{"frontmatter":{"title":"Wah Fu","category":"Asian Restaurants","county":"Antrim","type":"Content","excerpt":null,"address":"157 Upper Lisburn Road, Finaghy, Belfast, Co. Antrim, BT10 0LJ","tel":"028 9062 2142","images":null,"lat":"054.5608940000","lng":"-005.9857120000"},"fields":{"slug":"/section-directory-content/asian-restaurants/wah-fu/"}}},{"node":{"frontmatter":{"title":"The Willow Restaurant","category":"Asian Restaurants","county":"Meath","type":"Content","excerpt":null,"address":"Dublin Road, Navan (An Uaimh), Co. Meath","tel":"+353 (0)46 90 2682","images":null,"lat":"53.64596176147461","lng":"-6.699128150939941"},"fields":{"slug":"/section-directory-content/asian-restaurants/the-willow-restaurant/"}}},{"node":{"frontmatter":{"title":"Wylam Chinese Restaurant","category":"Asian Restaurants","county":"Cork","type":"Content","excerpt":null,"address":"Victoria Cross, Cork City","tel":"+353 (0)21 434 1063","images":null,"lat":"51.89289093017578","lng":"-8.503889083862305"},"fields":{"slug":"/section-directory-content/asian-restaurants/wylam-chinese-restaurant/"}}}]}},"pageContext":{"isCreatedByStatefulCreatePages":false,"slug":"/section-directory/asian-restaurants/","category":"Asian Restaurants"}}}