{"componentChunkName":"component---src-templates-section-directory-js","path":"/section-directory/indian-restaurants/","webpackCompilationHash":"","result":{"data":{"markdownRemark":{"html":"","frontmatter":{"category":"Indian Restaurants"}},"allMarkdownRemark":{"distinct":["Antrim","Carlow","Cavan","Clare","Cork","Derry","Donegal","Down","Dublin","Galway","Kildare","Laois","Limerick","Mayo","Meath","Offaly","Tipperary","Waterford","Westmeath","Wicklow"],"edges":[{"node":{"frontmatter":{"title":"Azad Kashmir","category":"Indian Restaurants","county":"Dublin","type":"Content","excerpt":null,"address":"21 South Richmond Street, Dublin city centre, Co. Dublin, Dublin 2","tel":"+353 (0)14 78 2627","images":null,"lat":"53.331172943115234","lng":"-6.264374256134033"},"fields":{"slug":"/section-directory-content/indian-restaurants/azad-kashmir/"}}},{"node":{"frontmatter":{"title":"Cafe Goa","category":"Indian Restaurants","county":"Waterford","type":"Content","excerpt":null,"address":"36 The Quay, Waterford City, Co. Waterford","tel":"+353 (0)51 30 4970","images":null,"lat":"52.262901306152344","lng":"-7.114945411682129"},"fields":{"slug":"/section-directory-content/indian-restaurants/cafe-goa/"}}},{"node":{"frontmatter":{"title":"Cafe India","category":"Indian Restaurants","county":"Offaly","type":"Content","excerpt":null,"address":"Patricks Court, Patrick Street, Tullamore, Co. Offaly","tel":"+353 (0)57 935 2496","images":null,"lat":"53.26664733886719","lng":"-7.5053019523620605"},"fields":{"slug":"/section-directory-content/indian-restaurants/cafe-india/"}}},{"node":{"frontmatter":{"title":"Cinnamon Indian Restaurant","category":"Indian Restaurants","county":"Antrim","type":"Content","excerpt":null,"address":"47, Comber Rd, Dundonald, Belfast, Co. Antrim BT16 2AA","tel":"028 9048 0680","images":null,"lat":"54.593556","lng":"-5.812709"},"fields":{"slug":"/section-directory-content/indian-restaurants/cinnamon-indian-restaurant/"}}},{"node":{"frontmatter":{"title":"Dhaka Indian Tandouri Restaurant and Take Away","category":"Indian Restaurants","county":"Clare","type":"Content","excerpt":null,"address":"Main Street, Scarriff, Co. Clare","tel":"+353 (0)61 64 0688","images":null,"lat":"52.90976333618164","lng":"-8.532444953918457"},"fields":{"slug":"/section-directory-content/indian-restaurants/dhaka-indian-tandouri-restaurant-and-take-away/"}}},{"node":{"frontmatter":{"title":"Cinnamon Garden Restaurant","category":"Indian Restaurants","county":"Meath","type":"Content","excerpt":null,"address":"Main Street, Ashbourne, Co. Meath","tel":"+353 (0)18 35 2777","images":null,"lat":"53.51332473754883","lng":"-6.3957133293151855"},"fields":{"slug":"/section-directory-content/indian-restaurants/cinnamon-garden-restaurant/"}}},{"node":{"frontmatter":{"title":"Copper and Spice Restaurant","category":"Indian Restaurants","county":"Limerick","type":"Content","excerpt":null,"address":"2 Cornmarket Row, Limerick City Centre, Co. Limerick","tel":"+353 (0)61 33 8791","images":null,"lat":"52.66472244262695","lng":"-8.623055458068848"},"fields":{"slug":"/section-directory-content/indian-restaurants/copper-and-spice-restaurant/"}}},{"node":{"frontmatter":{"title":"Green Chilli Indian Restaurant","category":"Indian Restaurants","county":"Down","type":"Content","excerpt":null,"address":"32, Dufferin Avenue, Bangor, Co. Down BT20 3AA","tel":"028 9146 0030","images":null,"lat":"054.6594610000","lng":"-005.6709210000"},"fields":{"slug":"/section-directory-content/indian-restaurants/green-chilli-indian-restaurant/"}}},{"node":{"frontmatter":{"title":"Bokhara Holywood","category":"Indian Restaurants","county":"Down","type":"Content","excerpt":null,"address":"149-153, High Street, Holywood, Co. Down, BT18 9LG","tel":"028 9042 6767","images":null,"lat":"054.6395210000","lng":"-005.8377650000"},"fields":{"slug":"/section-directory-content/indian-restaurants/bokhara-holywood/"}}},{"node":{"frontmatter":{"title":"Gingeroot Restaurant","category":"Indian Restaurants","county":"Antrim","type":"Content","excerpt":null,"address":"Albany House, 73-75, Great Victoria St, Belfast, Co. Antrim BT2 7AF","tel":"028 9031 3124","images":null,"lat":"54.592354","lng":"-5.934136"},"fields":{"slug":"/section-directory-content/indian-restaurants/gingeroot-restaurant/"}}},{"node":{"frontmatter":{"title":"Eastern Tandoori Indian Cuisine","category":"Indian Restaurants","county":"Cork","type":"Content","excerpt":null,"address":"1/2 Emmet Place (1st fl) Opp. the Opera House Co. Cork","tel":"(021)4272020","images":null,"lat":"51.8994","lng":"-8.47314"},"fields":{"slug":"/section-directory-content/indian-restaurants/eastern-tandoori-indian-cuisine/"}}},{"node":{"frontmatter":{"title":"Haveli Indian Restaurant and Takeway","category":"Indian Restaurants","county":"Laois","type":"Content","excerpt":null,"address":"Frenchchurch st Portarlington Co. Laois","tel":"(057)8643178","images":null,"lat":"53.161896","lng":"-7.191237"},"fields":{"slug":"/section-directory-content/indian-restaurants/haveli-indian-restaurant-and-takeway/"}}},{"node":{"frontmatter":{"title":"Indian Gate","category":"Indian Restaurants","county":"Dublin","type":"Content","excerpt":null,"address":"1st Floor, 26B Nutgrove shopping centre, Rathfarnham, Co. Dublin, Dublin 16","tel":"+353 (0)14 95 1334","images":null,"lat":"53.28972244262695","lng":"-6.26751184463501"},"fields":{"slug":"/section-directory-content/indian-restaurants/indian-gate/"}}},{"node":{"frontmatter":{"title":"Indian Ocean","category":"Indian Restaurants","county":"Antrim","type":"Content","excerpt":null,"address":"Unit 5b, Odyssey Arena, Queens Quay, Belfast, Co. Antrim BT3 9QQ","tel":"028 9046 6888","images":null,"lat":"54.603923","lng":"-5.91538"},"fields":{"slug":"/section-directory-content/indian-restaurants/indian-ocean/"}}},{"node":{"frontmatter":{"title":"Khans Tandoori","category":"Indian Restaurants","county":"Dublin","type":"Content","excerpt":null,"address":"51 South King Street, Dublin City Centre, Co. Dublin, Dublin 2","tel":"+353 (0)16 77 8408","images":null,"lat":"53.340824127197266","lng":"-6.261204242706299"},"fields":{"slug":"/section-directory-content/indian-restaurants/khans-tandoori/"}}},{"node":{"frontmatter":{"title":"Indus Valley","category":"Indian Restaurants","county":"Derry","type":"Content","excerpt":null,"address":"4, Riverside Park East, Dunhill Rd, Coleraine, Co. Derry BT51 3NA","tel":"028 7035 4242","images":null,"lat":"55.108086","lng":"-6.693635"},"fields":{"slug":"/section-directory-content/indian-restaurants/indus-valley/"}}},{"node":{"frontmatter":{"title":"Bombay Brasserie","category":"Indian Restaurants","county":"Antrim","type":"Content","excerpt":null,"address":"241 Lisburn Road, Belfast, Co. Antrim, BT9 7EN","tel":"028 9543 8940","images":null,"lat":"054.5814340000","lng":"-005.9478400000"},"fields":{"slug":"/section-directory-content/indian-restaurants/bombay-brasserie/"}}},{"node":{"frontmatter":{"title":"Khyber Indian Restaurant","category":"Indian Restaurants","county":"Antrim","type":"Content","excerpt":null,"address":"373-375, Antrim Rd, Glengormley, Newtownabbey, Co. Antrim BT36 5EB","tel":"028 9084 9414","images":null,"lat":"54.673128","lng":"-5.961697"},"fields":{"slug":"/section-directory-content/indian-restaurants/khyber-indian-restaurant/"}}},{"node":{"frontmatter":{"title":"Kashmir Indian Restaurant","category":"Indian Restaurants","county":"Galway","type":"Content","excerpt":null,"address":"Kilderry House Lr Fairhill Rd Galway Co. Galway","tel":"(091)589900","images":null,"lat":"53.26766116","lng":"-9.05643187"},"fields":{"slug":"/section-directory-content/indian-restaurants/kashmir-indian-restaurant/"}}},{"node":{"frontmatter":{"title":"Mirchi Cafe and Restaurant","category":"Indian Restaurants","county":"Offaly","type":"Content","excerpt":null,"address":"Dublin Road, Opposit Lidi Supermarket, Edenderry, Co. Offaly","tel":"+353 (0)46 977 3800","images":null,"lat":"53.345279693603516","lng":"-7.049722194671631"},"fields":{"slug":"/section-directory-content/indian-restaurants/mirchi-cafe-and-restaurant/"}}},{"node":{"frontmatter":{"title":"Meghna Premier Indian Restaurant","category":"Indian Restaurants","county":"Kildare","type":"Content","excerpt":null,"address":"Main Street Maynooth, Co. Kildare Co. Kildare","tel":"(01)5054868","images":null,"lat":"53.38139663","lng":"-6.591967555"},"fields":{"slug":"/section-directory-content/indian-restaurants/meghna-premier-indian-restaurant/"}}},{"node":{"frontmatter":{"title":"Kingfisher Restaurant","category":"Indian Restaurants","county":"Laois","type":"Content","excerpt":null,"address":"Old A.I.B Bank, Main Street, Portlaoise, Co. Laois","tel":"+353 (0)57 866 2500","images":null,"lat":"53.03417205810547","lng":"-7.296389579772949"},"fields":{"slug":"/section-directory-content/indian-restaurants/kingfisher-restaurant/"}}},{"node":{"frontmatter":{"title":"Jaipur","category":"Indian Restaurants","county":"Dublin","type":"Content","excerpt":null,"address":"41-42 South Great George's Street,, Dublin city centre, Co. Dublin, Dublin 2","tel":"+353 (0)16 77 0999","images":null,"lat":"53.34148406982422","lng":"-6.265201091766357"},"fields":{"slug":"/section-directory-content/indian-restaurants/jaipur/"}}},{"node":{"frontmatter":{"title":"Nawab","category":"Indian Restaurants","county":"Dublin","type":"Content","excerpt":null,"address":"286 Harolds Cross Road, Dublin City Area South, Co. Dublin, Dublin 6","tel":"+353 (0)14 09 6888","images":null,"lat":"53.32004928588867","lng":"-6.279158115386963"},"fields":{"slug":"/section-directory-content/indian-restaurants/nawab/"}}},{"node":{"frontmatter":{"title":"Moghul Indian Restaurant","category":"Indian Restaurants","county":"Cork","type":"Content","excerpt":null,"address":"Barrack Street, Bantry, Co. Cork","tel":"+353 (0)27 55 799","images":null,"lat":"51.67991638183594","lng":"-9.44977855682373"},"fields":{"slug":"/section-directory-content/indian-restaurants/moghul-indian-restaurant/"}}},{"node":{"frontmatter":{"title":"Rahulton Indian Restaurant","category":"Indian Restaurants","county":"Cavan","type":"Content","excerpt":null,"address":"Rahulton Castle Saunderson Belturbet Co. Cavan","tel":"(049)9524006","images":null,"lat":"54.10114514","lng":"-7.443430202"},"fields":{"slug":"/section-directory-content/indian-restaurants/rahulton-indian-restaurant/"}}},{"node":{"frontmatter":{"title":"Punjabi King Indian Restaurant and Takeaway","category":"Indian Restaurants","county":"Carlow","type":"Content","excerpt":null,"address":"Market sq Bagenalstown Co. Carlow","tel":"(059)9723560","images":null,"lat":"52.70214285","lng":"-6.956152518"},"fields":{"slug":"/section-directory-content/indian-restaurants/punjabi-king-indian-restaurant-and-takeaway/"}}},{"node":{"frontmatter":{"title":"Poppadom Restaurant","category":"Indian Restaurants","county":"Limerick","type":"Content","excerpt":null,"address":"U2C Robert Street, Cornmarket Square, Limerick City, Co. Limerick","tel":"+353 (0)61 44 6444","images":null,"lat":"52.66472244262695","lng":"-8.623055458068848"},"fields":{"slug":"/section-directory-content/indian-restaurants/poppadom-restaurant/"}}},{"node":{"frontmatter":{"title":"Rajdoot Restaurant","category":"Indian Restaurants","county":"Dublin","type":"Content","excerpt":null,"address":"26 to 28 Clarendon Street, Westbury Centre, Dublin city centre, Co. Dublin, Dublin 2","tel":"+353 (0)16 79 4274","images":null,"lat":"53.341087341308594","lng":"-6.262079238891602"},"fields":{"slug":"/section-directory-content/indian-restaurants/rajdoot-restaurant/"}}},{"node":{"frontmatter":{"title":"Naz Balti House","category":"Indian Restaurants","county":"Dublin","type":"Content","excerpt":null,"address":"146 Lower Rathmines Road, Dublin City Area South, Co. Dublin, Dublin 6","tel":"+353 (0)14 96 6566","images":null,"lat":"53.32540512084961","lng":"-6.264954090118408"},"fields":{"slug":"/section-directory-content/indian-restaurants/naz-balti-house/"}}},{"node":{"frontmatter":{"title":"RAJ Gaylord Indian Restaurant","category":"Indian Restaurants","county":"Cork","type":"Content","excerpt":null,"address":"Ballycannon Carrigrohane Kerry Pike Co. Cork","tel":"(021)4877112","images":null,"lat":"51.91041138","lng":"-8.563950793"},"fields":{"slug":"/section-directory-content/indian-restaurants/raj-gaylord-indian-restaurant/"}}},{"node":{"frontmatter":{"title":"Quasi Lanka Eastern Restaurant","category":"Indian Restaurants","county":"Waterford","type":"Content","excerpt":null,"address":"Beside Dungarvan Shopping Centre, Dungarvan, Co. Waterford","tel":"+353 (0)58 24 202","images":null,"lat":"52.09040832519531","lng":"-7.623739719390869"},"fields":{"slug":"/section-directory-content/indian-restaurants/quasi-lanka-eastern-restaurant/"}}},{"node":{"frontmatter":{"title":"Red Onion Indian Restaurant","category":"Indian Restaurants","county":"Kildare","type":"Content","excerpt":null,"address":"Five Jockeys Pub Claregate St Kildare Town Co. Kildare","tel":"(045)535455","images":null,"lat":"53.1573","lng":"-6.91243"},"fields":{"slug":"/section-directory-content/indian-restaurants/red-onion-indian-restaurant/"}}},{"node":{"frontmatter":{"title":"Punjab Balti","category":"Indian Restaurants","county":"Dublin","type":"Content","excerpt":null,"address":"15 Ranelagh Village, Dublin City Area South, Co. Dublin, Dublin 6","tel":"+353 (0)14 96 0808","images":null,"lat":"53.32568359375","lng":"-6.255621910095215"},"fields":{"slug":"/section-directory-content/indian-restaurants/punjab-balti/"}}},{"node":{"frontmatter":{"title":"Shapla Indian Cuisine Restaurant and Takeaway","category":"Indian Restaurants","county":"Donegal","type":"Content","excerpt":null,"address":"Unit 3 Starlight Business Centre Port Rd Letterkenny Co. Donegal","tel":"(074)9103627","images":null,"lat":"54.94988061","lng":"-7.71777688"},"fields":{"slug":"/section-directory-content/indian-restaurants/shapla-indian-cuisine-restaurant-and-takeaway/"}}},{"node":{"frontmatter":{"title":"Ruba Spice","category":"Indian Restaurants","county":"Antrim","type":"Content","excerpt":null,"address":"Unit 6, Orpen Shopping Centre, Upper Lisburn Rd, Finaghy, Belfast, Co. Antrim BT10 0BG","tel":"028 9061 3255","images":null,"lat":"54.560495","lng":"-5.986408"},"fields":{"slug":"/section-directory-content/indian-restaurants/ruba-spice/"}}},{"node":{"frontmatter":{"title":"Saagar Indian Restaurant","category":"Indian Restaurants","county":"Dublin","type":"Content","excerpt":null,"address":"16 Harcourt Street, Dublin City Centre, Co. Dublin, Dublin 2","tel":"+353 (0)14 75 5012","images":null,"lat":"53.33633804321289","lng":"-6.2636237144470215"},"fields":{"slug":"/section-directory-content/indian-restaurants/saagar-indian-restaurant/"}}},{"node":{"frontmatter":{"title":"SONALI TANDOORI and BALTI RESTAURANT","category":"Indian Restaurants","county":"Antrim","type":"Content","excerpt":null,"address":"703, Lisburn Rd, Belfast, Co. Antrim BT9 7GU","tel":"028 9066 6833","images":null,"lat":"054.5723360000","lng":"-005.9602000000"},"fields":{"slug":"/section-directory-content/indian-restaurants/sonali-tandoori-and-balti-restaurant/"}}},{"node":{"frontmatter":{"title":"Shakira Indian Cuisine","category":"Indian Restaurants","county":"Dublin","type":"Content","excerpt":null,"address":"1st Flr, 47 Lr Georges st Dun Laoghaire Co. Dublin","tel":"(01)2800923","images":null,"lat":"53.29391235","lng":"-6.139352322"},"fields":{"slug":"/section-directory-content/indian-restaurants/shakira-indian-cuisine/"}}},{"node":{"frontmatter":{"title":"SPICE INDIAN RESTAURANT","category":"Indian Restaurants","county":"Antrim","type":"Content","excerpt":null,"address":"2-4, Bridge St, Lisburn, Co. Antrim BT28 1XY","tel":"02892 443379","images":null,"lat":"054.5107810000","lng":"-006.0417340000"},"fields":{"slug":"/section-directory-content/indian-restaurants/spice-indian-restaurant/"}}},{"node":{"frontmatter":{"title":"Shalimar Restaurant","category":"Indian Restaurants","county":"Dublin","type":"Content","excerpt":null,"address":"17 South Great Georges Street, Co. Dublin, Dublin 2","tel":"+353 (0)1 671 0738","images":null,"lat":"53.295196533203125","lng":"-6.307560920715332"},"fields":{"slug":"/section-directory-content/indian-restaurants/shalimar-restaurant/"}}},{"node":{"frontmatter":{"title":"Tulsi Dublin","category":"Indian Restaurants","county":"Dublin","type":"Content","excerpt":null,"address":"17A Lower Baggot Street, Co. Dublin, Dublin 2","tel":"+353 (0)1 676 4578","images":null,"lat":"53.33786392211914","lng":"-6.251611232757568"},"fields":{"slug":"/section-directory-content/indian-restaurants/tulsi-dublin/"}}},{"node":{"frontmatter":{"title":"Saagar Indian Restaurant Athlone","category":"Indian Restaurants","county":"Westmeath","type":"Content","excerpt":null,"address":"Lloyds Lane, Athlone, Co. Westmeath","tel":"+353 (0)87 259 9730","images":null,"lat":"53.41960144042969","lng":"-7.955342769622803"},"fields":{"slug":"/section-directory-content/indian-restaurants/saagar-indian-restaurant-athlone/"}}},{"node":{"frontmatter":{"title":"Spice Indian Restaurant and Takeaway","category":"Indian Restaurants","county":"Antrim","type":"Content","excerpt":null,"address":"78-82, Broughshane St, Ballymena, Co. Antrim BT43 6ED","tel":"028 2565 4352","images":null,"lat":"54.868086","lng":"-6.272847"},"fields":{"slug":"/section-directory-content/indian-restaurants/spice-indian-restaurant-and-takeaway/"}}},{"node":{"frontmatter":{"title":"Spice Temple Patrick","category":"Indian Restaurants","county":"Antrim","type":"Content","excerpt":null,"address":"106, Old Ballyrobin Rd, Muckamore, Antrim, Co. Antrim BT41 4TJ","tel":"028 9448 8666","images":null,"lat":"54.681047","lng":"-6.145573"},"fields":{"slug":"/section-directory-content/indian-restaurants/spice-temple-patrick/"}}},{"node":{"frontmatter":{"title":"The Wicklow Heather Restaurant","category":"Indian Restaurants","county":"Wicklow","type":"Content","excerpt":null,"address":"Laragh, Glendalough, Co. Wicklow","tel":"+353 (0)40 44 5157","images":null,"lat":"53.00461959838867","lng":"-6.361879825592041"},"fields":{"slug":"/section-directory-content/indian-restaurants/the-wicklow-heather-restaurant/"}}},{"node":{"frontmatter":{"title":"Tulsi Restaurant Castlebar","category":"Indian Restaurants","county":"Mayo","type":"Content","excerpt":null,"address":"Lower Charles Street, Castlebar, Co. Mayo","tel":"+353 (0)94 902 5066","images":null,"lat":"53.858272552490234","lng":"-9.294904708862305"},"fields":{"slug":"/section-directory-content/indian-restaurants/tulsi-restaurant-castlebar/"}}},{"node":{"frontmatter":{"title":"Yellow Lemon Tandoori Indian Restaurant The","category":"Indian Restaurants","county":"Limerick","type":"Content","excerpt":null,"address":"Upr Denmark st Limerick Co. Limerick","tel":"(061)312333","images":null,"lat":"52.66391","lng":"-8.624733"},"fields":{"slug":"/section-directory-content/indian-restaurants/yellow-lemon-tandoori-indian-restaurant-the/"}}},{"node":{"frontmatter":{"title":"Turban Indian Restaurant","category":"Indian Restaurants","county":"Tipperary","type":"Content","excerpt":null,"address":"Kickham Street Nenagh Co. Tipperary Co. Tipperary","tel":"(067)42794","images":null,"lat":"52.86395141","lng":"-8.198182422"},"fields":{"slug":"/section-directory-content/indian-restaurants/turban-indian-restaurant/"}}},{"node":{"frontmatter":{"title":"Yaadgar Indian Restaurant","category":"Indian Restaurants","county":"Offaly","type":"Content","excerpt":null,"address":"Esker Court William Street Tullamore Co. Offaly","tel":"(057)9329536","images":null,"lat":"53.27564459","lng":"-7.493336838"},"fields":{"slug":"/section-directory-content/indian-restaurants/yaadgar-indian-restaurant/"}}}]}},"pageContext":{"isCreatedByStatefulCreatePages":false,"slug":"/section-directory/indian-restaurants/","category":"Indian Restaurants"}}}