{"componentChunkName":"component---src-templates-section-directory-js","path":"/section-directory/chauffeur-services/","webpackCompilationHash":"","result":{"data":{"markdownRemark":{"html":"","frontmatter":{"category":"Chauffeur Services"}},"allMarkdownRemark":{"distinct":["Antrim","Clare","Cork","Derry","Down","Dublin","Galway","Kerry","Kildare","Kilkenny","Limerick","Mayo","Meath","Tipperary","Waterford","Wicklow"],"edges":[{"node":{"frontmatter":{"title":"A Rural Experience -Executive Specialist Tours","category":"Chauffeur Services","county":"Kilkenny","type":"Content","excerpt":null,"address":"Castlefield,, Gowran, Co. Kilkenny","tel":"+353 (0)56 772 7590","images":null,"lat":"52.62979507446289","lng":"-7.074239730834961"},"fields":{"slug":"/section-directory-content/chauffeur-services/a-rural-experience--executive-specialist-tours/"}}},{"node":{"frontmatter":{"title":"365 Chauffeur Drive Tours","category":"Chauffeur Services","county":"Dublin","type":"Content","excerpt":null,"address":"13 Wainsfort Manor Green, Terenure, Dublin 6W, Co. Dublin","tel":"+353 (0)1 492 6917","images":null,"lat":"53.347381591796875","lng":"-6.259270191192627"},"fields":{"slug":"/section-directory-content/chauffeur-services/365-chauffeur-drive-tours/"}}},{"node":{"frontmatter":{"title":"Atlantic Chauffeur Services","category":"Chauffeur Services","county":"Clare","type":"Content","excerpt":null,"address":"Mr Steven Monaghan, Claremount House, Salthill, Co. Galway","tel":"+353 (0)86 260 7237","images":null,"lat":"53.26264953613281","lng":"-9.072722434997559"},"fields":{"slug":"/section-directory-content/chauffeur-services/atlantic-chauffeur-services/"}}},{"node":{"frontmatter":{"title":"Bigg Life Artists and Crew Travel","category":"Chauffeur Services","county":"Antrim","type":"Content","excerpt":null,"address":"58, Wellington Place, Belfast, Co. Antrim BT1 6GF","tel":"07546 878353","images":null,"lat":"054.5971380000","lng":"-005.9343400000"},"fields":{"slug":"/section-directory-content/chauffeur-services/bigg-life-artists-and-crew-travel/"}}},{"node":{"frontmatter":{"title":"Bon Voyage Chauffeur Services","category":"Chauffeur Services","county":"Meath","type":"Content","excerpt":null,"address":"144 Meadow Bank Hill, Ratoath, Co. Meath","tel":"+353 (0)18 25 7752","images":null,"lat":"53.50276565551758","lng":"-6.463346481323242"},"fields":{"slug":"/section-directory-content/chauffeur-services/bon-voyage-chauffeur-services/"}}},{"node":{"frontmatter":{"title":"Bradstaffe Taxis and Executive Travel","category":"Chauffeur Services","county":"Down","type":"Content","excerpt":null,"address":"Castle Hill, Dundrum, Newcastle, Co. Down, BT33 0NF","tel":"07899 788 460","images":null,"lat":"054.2603690000","lng":"-005.8446640000"},"fields":{"slug":"/section-directory-content/chauffeur-services/bradstaffe-taxis-and-executive-travel/"}}},{"node":{"frontmatter":{"title":"Chauffeur Service Ireland","category":"Chauffeur Services","county":"Dublin","type":"Content","excerpt":null,"address":"32 Laurleen, Stillorgan, Co. Dublin","tel":"+353 (0)12 88 4243","images":null,"lat":"53.279945373535156","lng":"-6.191877365112305"},"fields":{"slug":"/section-directory-content/chauffeur-services/chauffeur-service-ireland/"}}},{"node":{"frontmatter":{"title":"CHAUFFEUR IRELAND","category":"Chauffeur Services","county":"Dublin","type":"Content","excerpt":null,"address":"29 Walkinstown Crescent, Walkinstown, Co. Dublin","tel":"+353 (0)87 252 5201","images":null,"lat":"53.31716537475586","lng":"-6.333229064941406"},"fields":{"slug":"/section-directory-content/chauffeur-services/chauffeur-ireland/"}}},{"node":{"frontmatter":{"title":"Bennet Chauffeur Hire","category":"Chauffeur Services","county":"Antrim","type":"Content","excerpt":null,"address":"Bennet Chauffeur Hire, 38 Woodburn Road West Division, Carrickfergus, Co. Antrim, BT38 8PX","tel":"+44 (0)28 9336 1684","images":null,"lat":"54.715145111083984","lng":"-5.805984973907471"},"fields":{"slug":"/section-directory-content/chauffeur-services/bennet-chauffeur-hire/"}}},{"node":{"frontmatter":{"title":"Authentic Ireland Travel","category":"Chauffeur Services","county":"Clare","type":"Content","excerpt":null,"address":"Elevation Business Park, Clon Road, Ennis, Co. Clare","tel":"+353 (0)65 684 4941","images":null,"lat":"52.84609603881836","lng":"-8.974069595336914"},"fields":{"slug":"/section-directory-content/chauffeur-services/authentic-ireland-travel/"}}},{"node":{"frontmatter":{"title":"Daimler Limousine Hire","category":"Chauffeur Services","county":"Antrim","type":"Content","excerpt":null,"address":"17, Taylorstown Hill, Toomebridge, Antrim, Co. Antrim BT41 3RL","tel":"028 7965 0426","images":null,"lat":"54.790212","lng":"-6.394074"},"fields":{"slug":"/section-directory-content/chauffeur-services/daimler-limousine-hire/"}}},{"node":{"frontmatter":{"title":"Corporate Chauffeur Services Ltd","category":"Chauffeur Services","county":"Dublin","type":"Content","excerpt":null,"address":"2 Woodstown Cres Woodstown Village Knocklyon 16 Co. Dublin","tel":"(01)4952276","images":null,"lat":"53.275588","lng":"-6.329501"},"fields":{"slug":"/section-directory-content/chauffeur-services/corporate-chauffeur-services-ltd/"}}},{"node":{"frontmatter":{"title":"DB Chauffeur Service Ireland","category":"Chauffeur Services","county":"Clare","type":"Content","excerpt":null,"address":"18 The Beaches, Shannon View, Killaloe, Co. Clare","tel":"+353 (0)87 299 9104","images":null,"lat":"52.80665588378906","lng":"-8.44497299194336"},"fields":{"slug":"/section-directory-content/chauffeur-services/db-chauffeur-service-ireland/"}}},{"node":{"frontmatter":{"title":"Cork Limousine and Chauffeur Service","category":"Chauffeur Services","county":"Cork","type":"Content","excerpt":null,"address":"Farran Brien, Minane Bridge, Co. Cork","tel":"+353 (0)21 485 2000","images":null,"lat":"51.75224304199219","lng":"-8.374175071716309"},"fields":{"slug":"/section-directory-content/chauffeur-services/cork-limousine-and-chauffeur-service/"}}},{"node":{"frontmatter":{"title":"Brady Chauffeur Drive","category":"Chauffeur Services","county":"Dublin","type":"Content","excerpt":null,"address":"14 Greenlea Place, Terenure, Dublin, Co. Dublin, D 6w","tel":"+353 (0)14 92 0897","images":null,"lat":"53.311031341552734","lng":"-6.2894392013549805"},"fields":{"slug":"/section-directory-content/chauffeur-services/brady-chauffeur-drive/"}}},{"node":{"frontmatter":{"title":"Destination Chauffeuring Services","category":"Chauffeur Services","county":"Derry","type":"Content","excerpt":null,"address":"27, Tullyboy Rd, Moneymore, Magherafelt, Co. Derry BT45 7YE","tel":"028 8676 4846","images":null,"lat":"54.659947","lng":"-6.698115"},"fields":{"slug":"/section-directory-content/chauffeur-services/destination-chauffeuring-services/"}}},{"node":{"frontmatter":{"title":"Diamond Limousine And Chauffeur Drive","category":"Chauffeur Services","county":"Antrim","type":"Content","excerpt":null,"address":"Diamond Limousine And Chauffeur Drive, 90/92 Grosvenor Road, Belfast, Antrim, BT12 5AX","tel":"+44 (0)28 9033 2200","images":null,"lat":"54.59572982788086","lng":"-5.936308860778809"},"fields":{"slug":"/section-directory-content/chauffeur-services/diamond-limousine-and-chauffeur-drive/"}}},{"node":{"frontmatter":{"title":"Derry Limos","category":"Chauffeur Services","county":"Derry","type":"Content","excerpt":null,"address":"Derry Limos, 26 Rossville Street, Derry, BT48 6LP","tel":"+44 (0)28 7136 0888 (/ M 07974360888)","images":null,"lat":"54.9918098449707","lng":"-7.320168972015381"},"fields":{"slug":"/section-directory-content/chauffeur-services/derry-limos/"}}},{"node":{"frontmatter":{"title":"Europcar Car Hire","category":"Chauffeur Services","county":"Limerick","type":"Content","excerpt":null,"address":"Ennis Road Motors, Limerick City, Co. Limerick","tel":"+353 (0)61 20 6025","images":null,"lat":"53.334327697753906","lng":"-6.244639873504639"},"fields":{"slug":"/section-directory-content/chauffeur-services/europcar-car-hire/"}}},{"node":{"frontmatter":{"title":"Dublin Mini Coaches and Chauffeur Drive","category":"Chauffeur Services","county":"Dublin","type":"Content","excerpt":null,"address":"Wasdale House Old Naas Road,, 14 Camac Park Old Naas Road, Dublin, Co. Dublin, Dublin 12","tel":"+353 (0)18 6178 0049","images":null,"lat":"53.33038330078125","lng":"-6.348361968994141"},"fields":{"slug":"/section-directory-content/chauffeur-services/dublin-mini-coaches-and-chauffeur-drive/"}}},{"node":{"frontmatter":{"title":"Collins Chauffeur Drive","category":"Chauffeur Services","county":"Dublin","type":"Content","excerpt":null,"address":"14 Beechfield Rise, Castaheany, Dublin, Co. Dublin, 15","tel":"+353 (0)86 408 3097","images":null,"lat":"53.34787368774414","lng":"-6.2517266273498535"},"fields":{"slug":"/section-directory-content/chauffeur-services/collins-chauffeur-drive/"}}},{"node":{"frontmatter":{"title":"Executive Hire Chauffeur Services","category":"Chauffeur Services","county":"Limerick","type":"Content","excerpt":null,"address":"Executive Hire Chauffeur Services, Ormond House, Caher Rd, Camheen,, Mungret, Co. Limerick","tel":"+353 (0)87 793 0447","images":null,"lat":"52.665889739990234","lng":"-8.626105308532715"},"fields":{"slug":"/section-directory-content/chauffeur-services/executive-hire-chauffeur-services/"}}},{"node":{"frontmatter":{"title":"Executive Car Hire","category":"Chauffeur Services","county":"Antrim","type":"Content","excerpt":null,"address":"Executive Car Hire NI, 17 Church Park, Newtownabbey, Co. Antrim, BT36 6ER","tel":"+44 (0)28 9059 1384","images":null,"lat":"54.67041015625","lng":"-5.951439380645752"},"fields":{"slug":"/section-directory-content/chauffeur-services/executive-car-hire/"}}},{"node":{"frontmatter":{"title":"Classic Limousines Ireland","category":"Chauffeur Services","county":"Clare","type":"Content","excerpt":null,"address":"Renagisa, Kilmaley, Ennis, Co. Clare","tel":"+353 (0)87 937 3725","images":null,"lat":"52.844661712646484","lng":"-8.988285064697266"},"fields":{"slug":"/section-directory-content/chauffeur-services/classic-limousines-ireland/"}}},{"node":{"frontmatter":{"title":"Ganter Chauffeur Drive","category":"Chauffeur Services","county":"Dublin","type":"Content","excerpt":null,"address":"205 A3, Beacon South Quarter, Blackthorn Rd,, Sandyford, Co. Dublin, Dublin 18","tel":"+353 (0)86 230 2173","images":null,"lat":"53.29443359375","lng":"-6.23222541809082"},"fields":{"slug":"/section-directory-content/chauffeur-services/ganter-chauffeur-drive/"}}},{"node":{"frontmatter":{"title":"Golfchauffeur","category":"Chauffeur Services","county":"Antrim","type":"Content","excerpt":null,"address":"Golfchauffeur, 38 Mount Collier Ave, Newtownabbey, Co. Antrim, BT15 3DQ","tel":"+44 (0)78 0281 1000","images":null,"lat":"54.66537094116211","lng":"-5.946498870849609"},"fields":{"slug":"/section-directory-content/chauffeur-services/golfchauffeur/"}}},{"node":{"frontmatter":{"title":"Flannerys Irish Drive","category":"Chauffeur Services","county":"Mayo","type":"Content","excerpt":null,"address":"Mr Gerry Flannery, 11, Drum Crescent, Knock, Co. Mayo","tel":"+353 (0)87 642 2313","images":null,"lat":"53.796241760253906","lng":"-8.916584968566895"},"fields":{"slug":"/section-directory-content/chauffeur-services/flannerys-irish-drive/"}}},{"node":{"frontmatter":{"title":"Gregan Chauffeur Ireland","category":"Chauffeur Services","county":"Kildare","type":"Content","excerpt":null,"address":"27 Dun Na Riogh Avenue, Naas, Co. Kildare","tel":"+353 (0)45 89 8309","images":null,"lat":"53.21625518798828","lng":"-6.663994312286377"},"fields":{"slug":"/section-directory-content/chauffeur-services/gregan-chauffeur-ireland/"}}},{"node":{"frontmatter":{"title":"Metaphor Chauffeur Drive","category":"Chauffeur Services","county":"Kilkenny","type":"Content","excerpt":null,"address":"37 Glenvale, Ballyragget, Co. Kilkenny","tel":"+353 (0)56 883 0792","images":null,"lat":"52.787261962890625","lng":"-7.330863952636719"},"fields":{"slug":"/section-directory-content/chauffeur-services/metaphor-chauffeur-drive/"}}},{"node":{"frontmatter":{"title":"J O'Callaghan and Sons","category":"Chauffeur Services","county":"Kerry","type":"Content","excerpt":null,"address":"Rockfield, Tralee Road, Killarney, Co. Kerry","tel":"+353 (0)64 663 1095","images":null,"lat":"52.08974075317383","lng":"-9.513821601867676"},"fields":{"slug":"/section-directory-content/chauffeur-services/j-ocallaghan-and-sons/"}}},{"node":{"frontmatter":{"title":"Ireland Chauffeur Travel","category":"Chauffeur Services","county":"Tipperary","type":"Content","excerpt":null,"address":"Ladyswell House, Cashel, Co. Tipperary","tel":"+353 (0)86 828 2829","images":null,"lat":"52.517581939697266","lng":"-7.885134696960449"},"fields":{"slug":"/section-directory-content/chauffeur-services/ireland-chauffeur-travel/"}}},{"node":{"frontmatter":{"title":"H And D Limos","category":"Chauffeur Services","county":"Derry","type":"Content","excerpt":null,"address":"H And D Limos, Iveagh Park, Derry, Derry, BT47 3DD","tel":"+44 (0)28 7134 1470","images":null,"lat":"54.9918098449707","lng":"-7.320168972015381"},"fields":{"slug":"/section-directory-content/chauffeur-services/h-and-d-limos/"}}},{"node":{"frontmatter":{"title":"James Mullally Coach Hire","category":"Chauffeur Services","county":"Kildare","type":"Content","excerpt":null,"address":"Unit 4 Crinnstown Business Centre, Crinnstown Cross, Maynooth, Co. Kildare","tel":"+353 (0)16 29 0290","images":null,"lat":"53.376487731933594","lng":"-6.5927581787109375"},"fields":{"slug":"/section-directory-content/chauffeur-services/james-mullally-coach-hire/"}}},{"node":{"frontmatter":{"title":"National Chauffeur Drivers Association","category":"Chauffeur Services","county":"Dublin","type":"Content","excerpt":null,"address":"Warren Lodge, Kinsealy, Malahide, Co. Dublin","tel":"+353 (0)1 845 1236","images":null,"lat":"53.429046630859375","lng":"-6.176081657409668"},"fields":{"slug":"/section-directory-content/chauffeur-services/national-chauffeur-drivers-association/"}}},{"node":{"frontmatter":{"title":"Optimum Chauffeur Drive","category":"Chauffeur Services","county":"Dublin","type":"Content","excerpt":null,"address":"241 The Capel Building, Marys Abbey, Dublin 7, Co. Dublin","tel":"+353 (0)18 14 8873","images":null,"lat":"53.33280563354492","lng":"-6.264037609100342"},"fields":{"slug":"/section-directory-content/chauffeur-services/optimum-chauffeur-drive/"}}},{"node":{"frontmatter":{"title":"Superior Executive Car Services Ltd","category":"Chauffeur Services","county":"Dublin","type":"Content","excerpt":null,"address":"Rear 26, Derravaragh Road, Terenure, Co. Dublin, Dublin 6w","tel":"+353 (0)14 92 7929","images":null,"lat":"53.3141975402832","lng":"-6.292283535003662"},"fields":{"slug":"/section-directory-content/chauffeur-services/superior-executive-car-services-ltd/"}}},{"node":{"frontmatter":{"title":"Premier Chauffeur Service","category":"Chauffeur Services","county":"Waterford","type":"Content","excerpt":null,"address":"Lemon, Passage East, Waterford Estuary, Co. Waterford","tel":"+353 (0)51 38 2513","images":null,"lat":"52.238121032714844","lng":"-6.972727298736572"},"fields":{"slug":"/section-directory-content/chauffeur-services/premier-chauffeur-service/"}}},{"node":{"frontmatter":{"title":"S O'C Guiding Service","category":"Chauffeur Services","county":"Kerry","type":"Content","excerpt":null,"address":"Knockpogue, Aghadoe, Killarney, Co. Kerry","tel":"+353 (0)64 663 1654","images":null,"lat":"52.07530212402344","lng":"-9.575891494750977"},"fields":{"slug":"/section-directory-content/chauffeur-services/s-oc-guiding-service/"}}},{"node":{"frontmatter":{"title":"TGL Transport Services","category":"Chauffeur Services","county":"Dublin","type":"Content","excerpt":null,"address":"Phibsboro, Dublin City Area South, Co. Dublin, D7","tel":"+353 (0)18 38 9198","images":null,"lat":"53.400901794433594","lng":"-6.271412372589111"},"fields":{"slug":"/section-directory-content/chauffeur-services/tgl-transport-services/"}}},{"node":{"frontmatter":{"title":"VIP Chauffeur Services","category":"Chauffeur Services","county":"Clare","type":"Content","excerpt":null,"address":"2 Sycamore House, Drumgeely, Shannon, Co. Clare","tel":"+353 (0)86 817 5500","images":null,"lat":"52.698150634765625","lng":"-8.898337364196777"},"fields":{"slug":"/section-directory-content/chauffeur-services/vip-chauffeur-services/"}}},{"node":{"frontmatter":{"title":"Chauffeur Drive Ireland","category":"Chauffeur Services","county":"Dublin","type":"Content","excerpt":null,"address":"104 Lambourn Park, Clonsilla Village, Dublin, Co. Dublin, D 15","tel":"+353 (0)18 21 1788","images":null,"lat":"53.382144927978516","lng":"-6.417593002319336"},"fields":{"slug":"/section-directory-content/chauffeur-services/chauffeur-drive-ireland/"}}},{"node":{"frontmatter":{"title":"VIP Chauffeur Hire","category":"Chauffeur Services","county":"Antrim","type":"Content","excerpt":null,"address":"39-41, Castle Road, Ballynure, Ballyclare, Co. Antrim, BT39 9QF","tel":"07814 672330","images":null,"lat":"054.7765760000","lng":"-005.9266050000"},"fields":{"slug":"/section-directory-content/chauffeur-services/vip-chauffeur-hire/"}}},{"node":{"frontmatter":{"title":"Wicklow Tours MT Cabs","category":"Chauffeur Services","county":"Wicklow","type":"Content","excerpt":null,"address":"1 Quinnsborough Road, Bray, Co. Wicklow","tel":"+353 (0)12 04 0444","images":null,"lat":"53.19984436035156","lng":"-6.1049699783325195"},"fields":{"slug":"/section-directory-content/chauffeur-services/wicklow-tours-mt-cabs/"}}},{"node":{"frontmatter":{"title":"Xpert Chauffeurs","category":"Chauffeur Services","county":"Dublin","type":"Content","excerpt":null,"address":"49 Western Parkway Business Park, Lower Ballymount Road, Walkinstown, Co. Dublin, Dublin 12","tel":"+353 (0)14 29 4060","images":null,"lat":"53.31716537475586","lng":"-6.333229064941406"},"fields":{"slug":"/section-directory-content/chauffeur-services/xpert-chauffeurs/"}}},{"node":{"frontmatter":{"title":"Top Class Limousine and Corporate Car Hire","category":"Chauffeur Services","county":"Cork","type":"Content","excerpt":null,"address":"Castleville Cahermone Midleton Co. Cork","tel":"(021)4623398","images":null,"lat":"51.91399699","lng":"-8.146626424"},"fields":{"slug":"/section-directory-content/chauffeur-services/top-class-limousine-and-corporate-car-hire/"}}},{"node":{"frontmatter":{"title":"Tom Conneely Chauffeur Drive","category":"Chauffeur Services","county":"Galway","type":"Content","excerpt":null,"address":"72, Dalysfort Road, Salthill, Co. Galway","tel":"+353 (0)86 816 4226","images":null,"lat":"53.26264953613281","lng":"-9.072722434997559"},"fields":{"slug":"/section-directory-content/chauffeur-services/tom-conneely-chauffeur-drive/"}}},{"node":{"frontmatter":{"title":"Welcome-Ireland","category":"Chauffeur Services","county":"Derry","type":"Content","excerpt":null,"address":"10 Glenoch Park, Coleraine, Co. Derry, BT52 1TY","tel":"+44 (0)28 7035 2864","images":null,"lat":"55.11832046508789","lng":"-6.654576301574707"},"fields":{"slug":"/section-directory-content/chauffeur-services/welcome-ireland/"}}},{"node":{"frontmatter":{"title":"Your Personalized Tours","category":"Chauffeur Services","county":"Antrim","type":"Content","excerpt":null,"address":"7A Norglen Road, Belfast, Co. Antrim, BT11 8EA","tel":"+44 (0)28 9022 3732","images":null,"lat":"54.58753967285156","lng":"-5.989780902862549"},"fields":{"slug":"/section-directory-content/chauffeur-services/your-personalized-tours/"}}},{"node":{"frontmatter":{"title":"McCormack Chaffeur Drive","category":"Chauffeur Services","county":"Dublin","type":"Content","excerpt":null,"address":"54 Glenville Road, Clonsilla, Co. Dublin","tel":"+353 (0)18 22 7050","images":null,"lat":"53.38380432128906","lng":"-6.423964500427246"},"fields":{"slug":"/section-directory-content/chauffeur-services/mccormack-chaffeur-drive/"}}},{"node":{"frontmatter":{"title":"Xpress Taxi and Limousine Hire","category":"Chauffeur Services","county":"Galway","type":"Content","excerpt":null,"address":"9 Whiteoaks, Clybaun Road, Co. Galway","tel":"+353 (0)91 39 2555","images":null,"lat":"53.272178649902344","lng":"-9.04947280883789"},"fields":{"slug":"/section-directory-content/chauffeur-services/xpress-taxi-and-limousine-hire/"}}}]}},"pageContext":{"isCreatedByStatefulCreatePages":false,"slug":"/section-directory/chauffeur-services/","category":"Chauffeur Services"}}}