{"componentChunkName":"component---src-templates-section-directory-js","path":"/section-directory/yacht-charters/","webpackCompilationHash":"","result":{"data":{"markdownRemark":{"html":"","frontmatter":{"category":"Yacht Charters"}},"allMarkdownRemark":{"distinct":["Cork","Donegal","Down","Dublin","Kerry","Westmeath","Wicklow"],"edges":[{"node":{"frontmatter":{"title":"Baltimore Yacht Charters","category":"Yacht Charters","county":"Cork","type":"Content","excerpt":null,"address":"Ballylynch, Baltimore, Co. Cork","tel":"+353 (0)87 273 8368","images":null,"lat":"51.48128890991211","lng":"-9.368711471557617"},"fields":{"slug":"/section-directory-content/yacht-charters/baltimore-yacht-charters/"}}},{"node":{"frontmatter":{"title":"Dalkey Marine Charter Tours Of Dublin Bay","category":"Yacht Charters","county":"Dublin","type":"Content","excerpt":null,"address":"Coti, Conygham Road, Dalkey, Co. Dublin","tel":"+353 (0)12 85 8055","images":null,"lat":"53.27581024169922","lng":"-6.107857704162598"},"fields":{"slug":"/section-directory-content/yacht-charters/dalkey-marine-charter-tours-of-dublin-bay/"}}},{"node":{"frontmatter":{"title":"Bluefin Chartering","category":"Yacht Charters","county":"Donegal","type":"Content","excerpt":null,"address":"Churchtown, Kilcar, Co. Donegal","tel":"+353 (0)74 973 8495","images":null,"lat":"54.631507873535156","lng":"-8.601153373718262"},"fields":{"slug":"/section-directory-content/yacht-charters/bluefin-chartering/"}}},{"node":{"frontmatter":{"title":"Archibald H. Reid and Co. Ltd.","category":"Yacht Charters","county":"Cork","type":"Content","excerpt":null,"address":"PO Box 32, Co. Cork","tel":"+353 (0)23 883 9499","images":null,"lat":"51.67055892944336","lng":"-8.820015907287598"},"fields":{"slug":"/section-directory-content/yacht-charters/archibald-h-reid-and-co-ltd/"}}},{"node":{"frontmatter":{"title":"Fingal Traditional Sailing","category":"Yacht Charters","county":"Dublin","type":"Content","excerpt":null,"address":"Apt 1 Bayside - Arbours, Sandy Road, Rush, Co. Dublin","tel":"+353 (0)18 43 0340","images":null,"lat":"53.52215576171875","lng":"-6.099215507507324"},"fields":{"slug":"/section-directory-content/yacht-charters/fingal-traditional-sailing/"}}},{"node":{"frontmatter":{"title":"Royal Cork Yacht Club","category":"Yacht Charters","county":"Cork","type":"Content","excerpt":null,"address":"Crosshaven, Co. Cork","tel":"+353 (0)21 483 1023","images":null,"lat":"51.804359436035156","lng":"-8.30378532409668"},"fields":{"slug":"/section-directory-content/yacht-charters/royal-cork-yacht-club/"}}},{"node":{"frontmatter":{"title":"Foyle Luxury Cruisers","category":"Yacht Charters","county":"Down","type":"Content","excerpt":null,"address":"30, Clea Lough Rd, Killyleagh, Downpatrick, Co. Down BT30 9SY","tel":"028 4482 1451","images":null,"lat":"54.410094","lng":"-5.66219"},"fields":{"slug":"/section-directory-content/yacht-charters/foyle-luxury-cruisers/"}}},{"node":{"frontmatter":{"title":"Kinsale Yacht Charter","category":"Yacht Charters","county":"Cork","type":"Content","excerpt":null,"address":"Trident Hotel Marina, Kinsale, Co. Cork","tel":"+353 (0)87 271 0371","images":null,"lat":"51.70359802246094","lng":"-8.520384788513184"},"fields":{"slug":"/section-directory-content/yacht-charters/kinsale-yacht-charter/"}}},{"node":{"frontmatter":{"title":"Executive Yacht Charter","category":"Yacht Charters","county":"Down","type":"Content","excerpt":null,"address":"Quay Hill, Rathcunningham Rd, Strangford Lough, Downpatrick, Co. Down BT30 9PE","tel":"028 4482 8330","images":null,"lat":"54.422454","lng":"-5.64704"},"fields":{"slug":"/section-directory-content/yacht-charters/executive-yacht-charter/"}}},{"node":{"frontmatter":{"title":"Harbour Yacht Management Ltd.","category":"Yacht Charters","county":"Cork","type":"Content","excerpt":null,"address":"2 Harbour Hill, Cobh, Co. Cork","tel":"+353 (0)21 481 3911","images":null,"lat":"51.85091781616211","lng":"-8.291793823242188"},"fields":{"slug":"/section-directory-content/yacht-charters/harbour-yacht-management-ltd/"}}},{"node":{"frontmatter":{"title":"Dingle Bay Charters","category":"Yacht Charters","county":"Kerry","type":"Content","excerpt":null,"address":"Yacht Marina, Dingle, Co. Kerry","tel":"+353 (0)66 915 1344","images":null,"lat":"52.13813781738281","lng":"-10.275800704956055"},"fields":{"slug":"/section-directory-content/yacht-charters/dingle-bay-charters/"}}},{"node":{"frontmatter":{"title":"South East Cruising School","category":"Yacht Charters","county":"Wicklow","type":"Content","excerpt":null,"address":"7 Glenvale Park, Wicklow, Co. Wicklow","tel":"+353 (0)40 46 9970","images":null,"lat":"52.972225189208984","lng":"-6.049603462219238"},"fields":{"slug":"/section-directory-content/yacht-charters/south-east-cruising-school/"}}},{"node":{"frontmatter":{"title":"Sovereign Sailing","category":"Yacht Charters","county":"Cork","type":"Content","excerpt":null,"address":"Trident Hotel Marina, Kinsale, Co. Cork","tel":"+353 (0)21 477 4145","images":null,"lat":"51.709842681884766","lng":"-8.516029357910156"},"fields":{"slug":"/section-directory-content/yacht-charters/sovereign-sailing/"}}},{"node":{"frontmatter":{"title":"Strangford Yacht Charter","category":"Yacht Charters","county":"Down","type":"Content","excerpt":null,"address":"Strangford Lough Yacht Club, 30 Clea Lough Road, Killyleagh, Co. Down, BT30 9SY","tel":"+44 (0)78 3632 7272","images":null,"lat":"54.594329833984375","lng":"-5.70030403137207"},"fields":{"slug":"/section-directory-content/yacht-charters/strangford-yacht-charter/"}}},{"node":{"frontmatter":{"title":"Lough Ree Yacht Club","category":"Yacht Charters","county":"Westmeath","type":"Content","excerpt":null,"address":"Ballyglass, Coosan, Athlone, Co. Westmeath","tel":"+353 (0)90 647 5976","images":null,"lat":"53.46482849121094","lng":"-7.928720474243164"},"fields":{"slug":"/section-directory-content/yacht-charters/lough-ree-yacht-club/"}}}]}},"pageContext":{"isCreatedByStatefulCreatePages":false,"slug":"/section-directory/yacht-charters/","category":"Yacht Charters"}}}