{"componentChunkName":"component---src-templates-section-directory-js","path":"/section-directory/internal-air-services/","webpackCompilationHash":"","result":{"data":{"markdownRemark":{"html":"","frontmatter":{"category":"Internal Air Services"}},"allMarkdownRemark":{"distinct":["Antrim","Clare","Cork","Dublin","Fermanagh","Galway","Kerry","Kildare","Kilkenny","Sligo"],"edges":[{"node":{"frontmatter":{"title":"Aer Lingus","category":"Internal Air Services","county":"Dublin","type":"Content","excerpt":null,"address":"1st Floor North Terminal Building, PA3, Dublin Airport, Co. Dublin","tel":"+353 18 86 2222","images":null,"lat":"53.42715835571289","lng":"-6.244362831115723"},"fields":{"slug":"/section-directory-content/internal-air-services/aer-lingus/"}}},{"node":{"frontmatter":{"title":"Eirecopter Helicopters","category":"Internal Air Services","county":"Kildare","type":"Content","excerpt":null,"address":"Weston Airport, Leixlip, Co. Kildare","tel":"01-6280088","images":null,"lat":"53.3658332824707","lng":"-6.495555400848389"},"fields":{"slug":"/section-directory-content/internal-air-services/eirecopter-helicopters/"}}},{"node":{"frontmatter":{"title":"CityJet Ltd","category":"Internal Air Services","county":"Dublin","type":"Content","excerpt":null,"address":"Swords Business Campus, Balheary Road, Swords, Co. Dublin","tel":"01 605 0383","images":null,"lat":"53.46852493286133","lng":"-6.217337608337402"},"fields":{"slug":"/section-directory-content/internal-air-services/cityjet-ltd/"}}},{"node":{"frontmatter":{"title":"Exchequer Leasing","category":"Internal Air Services","county":"Dublin","type":"Content","excerpt":null,"address":"23 South William Street, Dublin City Area South, Co. Dublin, 2","tel":"+353 61 475166","images":null,"lat":"53.33000183105469","lng":"-6.25"},"fields":{"slug":"/section-directory-content/internal-air-services/exchequer-leasing/"}}},{"node":{"frontmatter":{"title":"Eurojet Aviation Limited","category":"Internal Air Services","county":"Antrim","type":"Content","excerpt":null,"address":"Eurojet Aviation Limited, 197 Ballyrobin Road, Antrim, Antrim, BT41 4TF","tel":"+44 (0)28 9442 2646","images":null,"lat":"54.675262451171875","lng":"-6.165924072265625"},"fields":{"slug":"/section-directory-content/internal-air-services/eurojet-aviation-limited/"}}},{"node":{"frontmatter":{"title":"Ryanair","category":"Internal Air Services","county":"Dublin","type":"Content","excerpt":null,"address":"Corporate Head Office, Dublin Airport, Dublin, Co. Dublin","tel":"+44 28 6632 9000","images":null,"lat":"53.34803009033203","lng":"-6.301681995391846"},"fields":{"slug":"/section-directory-content/internal-air-services/ryanair/"}}},{"node":{"frontmatter":{"title":"Kilkenny Airport","category":"Internal Air Services","county":"Kilkenny","type":"Content","excerpt":null,"address":"Tullaroan Road, Kilkenny City","tel":"+44 (0) 28 94-422478","images":null,"lat":"52.65045166015625","lng":"-7.2983903884887695"},"fields":{"slug":"/section-directory-content/internal-air-services/kilkenny-airport/"}}},{"node":{"frontmatter":{"title":"Star Air (Ireland) Ltd","category":"Internal Air Services","county":"Dublin","type":"Content","excerpt":null,"address":"Unit C4C, Airport Business Park, Dublin Airport, Co. Dublin","tel":"+353 1 8447973","images":null,"lat":"53.4252815246582","lng":"-6.223137378692627"},"fields":{"slug":"/section-directory-content/internal-air-services/star-air-ireland-ltd/"}}},{"node":{"frontmatter":{"title":"Kerry Airport PLC","category":"Internal Air Services","county":"Kerry","type":"Content","excerpt":null,"address":"Farranfore, Killarney, Co. Kerry","tel":"+353 (0) 66 9764644","images":null,"lat":"52.18342971801758","lng":"-9.518224716186523"},"fields":{"slug":"/section-directory-content/internal-air-services/kerry-airport-plc/"}}},{"node":{"frontmatter":{"title":"Westair Aviation Ltd","category":"Internal Air Services","county":"Clare","type":"Content","excerpt":null,"address":"Corporate Jet Centre, Shannon Airport, Co. Clare","tel":"+353 61 475166","images":null,"lat":"52.70674133300781","lng":"-8.875715255737305"},"fields":{"slug":"/section-directory-content/internal-air-services/westair-aviation-ltd/"}}},{"node":{"frontmatter":{"title":"Enniskillen Airport","category":"Internal Air Services","county":"Fermanagh","type":"Content","excerpt":null,"address":"Enniskillen Airport, Trory, Enniskillen, Co. Fermanagh, BT94 2FP","tel":"+44 28 6632 9000","images":null,"lat":"54.394344329833984","lng":"-7.657723903656006"},"fields":{"slug":"/section-directory-content/internal-air-services/enniskillen-airport/"}}},{"node":{"frontmatter":{"title":"Galway Airport","category":"Internal Air Services","county":"Galway","type":"Content","excerpt":null,"address":"Galway Airport, Carnmore, Co. Galway","tel":"+353 91 755569","images":null,"lat":"53.3018913269043","lng":"-8.940526008605957"},"fields":{"slug":"/section-directory-content/internal-air-services/galway-airport/"}}},{"node":{"frontmatter":{"title":"Sligo Airport","category":"Internal Air Services","county":"Sligo","type":"Content","excerpt":null,"address":"Strandhill, Co. Sligo","tel":"+353 (0)71 9168280","images":null,"lat":"54.26969909667969","lng":"-8.596647262573242"},"fields":{"slug":"/section-directory-content/internal-air-services/sligo-airport/"}}},{"node":{"frontmatter":{"title":"Woodgate Executive Air Charter","category":"Internal Air Services","county":"Antrim","type":"Content","excerpt":null,"address":"Woodgate Executive Air Charter, Belfast International Airport, Belfast, Co. Antrim, BT29 4AB","tel":"+44 28 9442 2478","images":null,"lat":"54.59572982788086","lng":"-5.936308860778809"},"fields":{"slug":"/section-directory-content/internal-air-services/woodgate-executive-air-charter/"}}},{"node":{"frontmatter":{"title":"Gaelic Helicopters","category":"Internal Air Services","county":"Cork","type":"Content","excerpt":null,"address":"Dromahane, Mallow, Co. Cork","tel":"+353 22 22040","images":null,"lat":"52.107269287109375","lng":"-8.691624641418457"},"fields":{"slug":"/section-directory-content/internal-air-services/gaelic-helicopters/"}}}]}},"pageContext":{"isCreatedByStatefulCreatePages":false,"slug":"/section-directory/internal-air-services/","category":"Internal Air Services"}}}