{"componentChunkName":"component---src-templates-section-directory-js","path":"/section-directory/tackle-shops/","webpackCompilationHash":"","result":{"data":{"markdownRemark":{"html":"","frontmatter":{"category":"Tackle Shops"}},"allMarkdownRemark":{"distinct":["Antrim","Armagh","Derry","Down","Fermanagh","Tipperary","Tyrone","Wexford"],"edges":[{"node":{"frontmatter":{"title":"Alan Kirkpatrick","category":"Tackle Shops","county":"Tyrone","type":"Content","excerpt":null,"address":"Lough Neagh Fishing Tours, Mr Tom Woods 190 Aghafad Road, Clogher, Co. Tyrone, BT76 0XE","tel":"+44 (0)28 8554 8659","images":null,"lat":"54.72855758666992","lng":"-6.275859832763672"},"fields":{"slug":"/section-directory-content/tackle-shops/alan-kirkpatrick/"}}},{"node":{"frontmatter":{"title":"Bell R Sports Goods","category":"Tackle Shops","county":"Antrim","type":"Content","excerpt":null,"address":"Bell R, Sports Goods, 38-40 Ann Street, Ballycastle, Antrim, BT54 6AD","tel":"+44 (0)28 2076 2520","images":null,"lat":"55.20366287231445","lng":"-6.243484020233154"},"fields":{"slug":"/section-directory-content/tackle-shops/bell-r-sports-goods/"}}},{"node":{"frontmatter":{"title":"Antrim Estates Co","category":"Tackle Shops","county":"Antrim","type":"Content","excerpt":null,"address":"Antrim Estates Co, 2 Castle Lane Glenarm, Ballymena, Co. Antrim, BT44 0BQ","tel":"+44 (0)28 2884 1203","images":null,"lat":"54.95607376098633","lng":"-5.967554092407227"},"fields":{"slug":"/section-directory-content/tackle-shops/antrim-estates-co/"}}},{"node":{"frontmatter":{"title":"Belleek Angling Centre","category":"Tackle Shops","county":"Fermanagh","type":"Content","excerpt":null,"address":"Belleek Angling Centre, Belleek Angling Centre The Thatch Main Street, Belleek, Co. Fermanagh, BT93 3FY","tel":"+44 (0)28 6865 8181","images":null,"lat":"54.48004913330078","lng":"-8.093818664550781"},"fields":{"slug":"/section-directory-content/tackle-shops/belleek-angling-centre/"}}},{"node":{"frontmatter":{"title":"Cahoon Brothers Tackle And Bait","category":"Tackle Shops","county":"Tyrone","type":"Content","excerpt":null,"address":"Cahoon Brothers Tackle And Bait, 2 Irish Street, Dungannon, Tyrone, BT70 1DB","tel":"+44 (0)28 8772 2754","images":null,"lat":"54.505088806152344","lng":"-6.764308929443359"},"fields":{"slug":"/section-directory-content/tackle-shops/cahoon-brothers-tackle-and-bait/"}}},{"node":{"frontmatter":{"title":"C A Anderson And Company Tackle And Bait","category":"Tackle Shops","county":"Tyrone","type":"Content","excerpt":null,"address":"C A Anderson And Company Tackle And Bait, 64 Market Street, Omagh, Tyrone, BT78 1EN","tel":"+44 (0)28 8224 2311","images":null,"lat":"54.60062789916992","lng":"-7.298051834106445"},"fields":{"slug":"/section-directory-content/tackle-shops/c-a-anderson-and-company-tackle-and-bait/"}}},{"node":{"frontmatter":{"title":"C F Beattie Tackle And Bait","category":"Tackle Shops","county":"Antrim","type":"Content","excerpt":null,"address":"C F Beattie Tackle And Bait, 39 Main Street, Carrickfergus, Antrim, BT38 9HH","tel":"+44 (0)28 9335 3462","images":null,"lat":"54.715145111083984","lng":"-5.805984973907471"},"fields":{"slug":"/section-directory-content/tackle-shops/c-f-beattie-tackle-and-bait/"}}},{"node":{"frontmatter":{"title":"Bannvalley Guns and Tackle","category":"Tackle Shops","county":"Antrim","type":"Content","excerpt":null,"address":"Bannvalley Guns and Tackle, 18 Main Street, Portglenone, Antrim, BT44 8AB","tel":"+44 (0)28 2582 1383","images":null,"lat":"54.87291717529297","lng":"-6.4759650230407715"},"fields":{"slug":"/section-directory-content/tackle-shops/bannvalley-guns-and-tackle/"}}},{"node":{"frontmatter":{"title":"Coolyermer Lough Fishery","category":"Tackle Shops","county":"Fermanagh","type":"Content","excerpt":null,"address":"Coolyermer Lough Fishery, Coolyermer Lough Fishery Leambeg Letterbreen, Enniskillen, Co. Fermanagh, BT74 9ED","tel":"+44 (0)28 6634 1676","images":null,"lat":"54.33457565307617","lng":"-7.739447116851807"},"fields":{"slug":"/section-directory-content/tackle-shops/coolyermer-lough-fishery/"}}},{"node":{"frontmatter":{"title":"Des Rodgers Sea Fishing Pleasure Cruises And Bird Watching","category":"Tackle Shops","county":"Down","type":"Content","excerpt":null,"address":"Des Rodgers Sea Fishing Pleasure Cruises And Bird Watching, 200a Shore Street, Portaferry, Down","tel":"+44 (0)28 4272 8297","images":null,"lat":"54.38182830810547","lng":"-5.546350002288818"},"fields":{"slug":"/section-directory-content/tackle-shops/des-rodgers-sea-fishing-pleasure-cruises-and-bird-watching/"}}},{"node":{"frontmatter":{"title":"Comber Angling And Country Pursuits","category":"Tackle Shops","county":"Down","type":"Content","excerpt":null,"address":"Comber Angling And Country Pursuits, 23 Bridge Street, Comber, Down, BT23 5AT","tel":"+44 (0)28 9187 0777","images":null,"lat":"54.594329833984375","lng":"-5.70030403137207"},"fields":{"slug":"/section-directory-content/tackle-shops/comber-angling-and-country-pursuits/"}}},{"node":{"frontmatter":{"title":"Del and Eamon Rodgers","category":"Tackle Shops","county":"Down","type":"Content","excerpt":null,"address":"Del and Eamon Rodgers, Del and Eamon Rodgers 109 Castlewellan road,, Rathfriland, Co. Down, BT34 5EP","tel":"+44 (0)28 4063 0093","images":null,"lat":"54.17662811279297","lng":"-6.339670181274414"},"fields":{"slug":"/section-directory-content/tackle-shops/del-and-eamon-rodgers/"}}},{"node":{"frontmatter":{"title":"Fishing Permits Trap And Tackle","category":"Tackle Shops","county":"Down","type":"Content","excerpt":null,"address":"Fishing Permits Trap And Tackle, 6 Seacliff Road, Bangor, Down, BT20 5EY","tel":"+44 (0)28 914 5815","images":null,"lat":"54.66571807861328","lng":"-5.6664018630981445"},"fields":{"slug":"/section-directory-content/tackle-shops/fishing-permits-trap-and-tackle/"}}},{"node":{"frontmatter":{"title":"Frankie McPhillips Flytying and Fishing Tackle","category":"Tackle Shops","county":"Down","type":"Content","excerpt":null,"address":"Frankie McPhillips/ Flytying and Fishing Tackle, Frankie McPhillips No 5 The Buttermarket Down Street, Enniskillen, Co. Fermanagh, BT74 7DU","tel":"+44 (0)28 6632 3047","images":null,"lat":"54.346046447753906","lng":"-7.637693881988525"},"fields":{"slug":"/section-directory-content/tackle-shops/frankie-mcphillips-flytying-and-fishing-tackle/"}}},{"node":{"frontmatter":{"title":"Fishing Permits Angling And Country Pursuits","category":"Tackle Shops","county":"Down","type":"Content","excerpt":null,"address":"Fishing Permits Angling And Country Pursuits, 23 Bridge Street, Comber, Down, BT23 5AT","tel":"+44 (0)28 9187 0777","images":null,"lat":"54.594329833984375","lng":"-5.70030403137207"},"fields":{"slug":"/section-directory-content/tackle-shops/fishing-permits-angling-and-country-pursuits/"}}},{"node":{"frontmatter":{"title":"Hayes Fishing Tackle Shop","category":"Tackle Shops","county":"Wexford","type":"Content","excerpt":null,"address":"Hayes Fishing Tackle, 108 South Main Street, Wexford, Co. Wexford","tel":"+353 (0)53 912 2462","images":null,"lat":"52.335750579833984","lng":"-6.459425926208496"},"fields":{"slug":"/section-directory-content/tackle-shops/hayes-fishing-tackle-shop/"}}},{"node":{"frontmatter":{"title":"CASALE 200 LTD Supplier of Tackle and Permits","category":"Tackle Shops","county":"Tipperary","type":"Content","excerpt":null,"address":"Casale 2000 Ltd., 4, Bank Place, Cashel, Co. Tipperary","tel":"+353 (0)62 63 106","images":null,"lat":"52.51768112182617","lng":"-7.886902332305908"},"fields":{"slug":"/section-directory-content/tackle-shops/casale-200-ltd-supplier-of-tackle-and-permits/"}}},{"node":{"frontmatter":{"title":"Home Field and Stream","category":"Tackle Shops","county":"Fermanagh","type":"Content","excerpt":null,"address":"Home Field and Stream, 18 Church Street, Enniskillen, Co. Fermanagh","tel":"+44 (0)28 6632 2114","images":null,"lat":"54.346771240234375","lng":"-7.645120143890381"},"fields":{"slug":"/section-directory-content/tackle-shops/home-field-and-stream/"}}},{"node":{"frontmatter":{"title":"Fitzpatrick Sports Tackle And Bait","category":"Tackle Shops","county":"Derry","type":"Content","excerpt":null,"address":"Fitzpatrick Sports Tackle And Bait, 145 Spencer Road, Derry, Derry, BT47 6AQ","tel":"+44 (0)28 7131 1251","images":null,"lat":"54.9918098449707","lng":"-7.320168972015381"},"fields":{"slug":"/section-directory-content/tackle-shops/fitzpatrick-sports-tackle-and-bait/"}}},{"node":{"frontmatter":{"title":"Erne Tackle and Cycles","category":"Tackle Shops","county":"Fermanagh","type":"Content","excerpt":null,"address":"Erne Tackle, 118 Main Street, Lisnaskea, Co. Fermanagh, BT92 0JD","tel":"+44 (0)28 6772 1969","images":null,"lat":"54.25429916381836","lng":"-7.44478702545166"},"fields":{"slug":"/section-directory-content/tackle-shops/erne-tackle-and-cycles/"}}},{"node":{"frontmatter":{"title":"Huestons Tackle And Bait","category":"Tackle Shops","county":"Derry","type":"Content","excerpt":null,"address":"Huestons Tackle And Bait, 55 Main Street, Castledawson, Derry, BT45 8AA","tel":"+44 (0)28 7966 8282","images":null,"lat":"54.755401611328125","lng":"-6.608119010925293"},"fields":{"slug":"/section-directory-content/tackle-shops/huestons-tackle-and-bait/"}}},{"node":{"frontmatter":{"title":"D Floyd Tackle And Bait","category":"Tackle Shops","county":"Tyrone","type":"Content","excerpt":null,"address":"D Floyd Tackle And Bait, 28 Melmount Villas, Strabane, Tyrone, BT82 9BW","tel":"+44 (0)28 7188 3981","images":null,"lat":"54.822418212890625","lng":"-7.46940803527832"},"fields":{"slug":"/section-directory-content/tackle-shops/d-floyd-tackle-and-bait/"}}},{"node":{"frontmatter":{"title":"J S Mullan Tackle And Bait","category":"Tackle Shops","county":"Antrim","type":"Content","excerpt":null,"address":"J S Mullan Tackle And Bait, 74 Main Street, Portrush, Antrim, BT56 8BN","tel":"+44 (0)28 7082 2209","images":null,"lat":"55.20753479003906","lng":"-6.654110908508301"},"fields":{"slug":"/section-directory-content/tackle-shops/j-s-mullan-tackle-and-bait/"}}},{"node":{"frontmatter":{"title":"Home Stores Tackle And Bait","category":"Tackle Shops","county":"Antrim","type":"Content","excerpt":null,"address":"Home Stores Tackle And Bait, 433 Lisburn Road, Belfast, Antrim, BT9 7EN","tel":"+44 (0)28 9038 1284","images":null,"lat":"54.59572982788086","lng":"-5.936308860778809"},"fields":{"slug":"/section-directory-content/tackle-shops/home-stores-tackle-and-bait/"}}},{"node":{"frontmatter":{"title":"Malley Brown And Company","category":"Tackle Shops","county":"Antrim","type":"Content","excerpt":null,"address":"Malley Brown And Company, 21 Castletown Road, Ballyclare, Antrim, BT39 9PU","tel":"+44 (0)28 9332 2434","images":null,"lat":"54.75114822387695","lng":"-5.998569011688232"},"fields":{"slug":"/section-directory-content/tackle-shops/malley-brown-and-company/"}}},{"node":{"frontmatter":{"title":"Fred Lockhart","category":"Tackle Shops","county":"Antrim","type":"Content","excerpt":null,"address":"40 Hammond Farm Hammond Road Ballinderry Upper, Lisburn, Co. Antrim, BT41 4HP","tel":"+44 (0)28 9261 3530","images":null,"lat":"54.71966552734375","lng":"-6.218016147613525"},"fields":{"slug":"/section-directory-content/tackle-shops/fred-lockhart/"}}},{"node":{"frontmatter":{"title":"J Graham And Sons Tackle And Bait","category":"Tackle Shops","county":"Down","type":"Content","excerpt":null,"address":"J Graham And Sons Tackle And Bait, 47 Greencastle Street, Kilkeel, Down, BT34 4QD","tel":"+44 (0)28 4176 2777","images":null,"lat":"54.09868621826172","lng":"-5.977492809295654"},"fields":{"slug":"/section-directory-content/tackle-shops/j-graham-and-sons-tackle-and-bait/"}}},{"node":{"frontmatter":{"title":"Palm Bush Filling Station Tackle And Bait","category":"Tackle Shops","county":"Fermanagh","type":"Content","excerpt":null,"address":"Palm Bush Filling Station Tackle And Bait, Kesh, Fermanagh","tel":"+44 (0)28 6863 1696","images":null,"lat":"54.346771240234375","lng":"-7.645120143890381"},"fields":{"slug":"/section-directory-content/tackle-shops/palm-bush-filling-station-tackle-and-bait/"}}},{"node":{"frontmatter":{"title":"Lough Stock and Barrel","category":"Tackle Shops","county":"Armagh","type":"Content","excerpt":null,"address":"Lough, Stock and Barrel, 80 William Street, Lurgan, Armagh, BT66 6JB","tel":"+44 (0)28 3831 6855","images":null,"lat":"54.462921142578125","lng":"-6.33630895614624"},"fields":{"slug":"/section-directory-content/tackle-shops/lough-stock-and-barrel/"}}},{"node":{"frontmatter":{"title":"Magherafelt Post Office","category":"Tackle Shops","county":"Derry","type":"Content","excerpt":null,"address":"Magherafelt Post Office, Vivo Supermarket 12 Union Street, Magherafelt, Derry, BT45 5DF","tel":"+44 (0)28 7963 4132","images":null,"lat":"54.755401611328125","lng":"-6.608119010925293"},"fields":{"slug":"/section-directory-content/tackle-shops/magherafelt-post-office/"}}},{"node":{"frontmatter":{"title":"Jack Smyth Angling and Outdoors Superstore Ltd","category":"Tackle Shops","county":"Antrim","type":"Content","excerpt":null,"address":"Unit 1f, Altona Business Park, Altona Rd, Co. Down, Lisburn, Co. Antrim BT27 5QB","tel":"028 9267 6600","images":null,"lat":"054.8260800000","lng":"-007.4622890000"},"fields":{"slug":"/section-directory-content/tackle-shops/jack-smyth-angling-and-outdoors-superstore-ltd/"}}},{"node":{"frontmatter":{"title":"McConnell And Hanna Tackle And Bait","category":"Tackle Shops","county":"Down","type":"Content","excerpt":null,"address":"McConnell And Hanna Tackle And Bait, 19 Newcastle Street, Kilkeel, Down, BT34 4AF","tel":"+44 (0)28 4176 2226","images":null,"lat":"54.17662811279297","lng":"-6.339670181274414"},"fields":{"slug":"/section-directory-content/tackle-shops/mcconnell-and-hanna-tackle-and-bait/"}}},{"node":{"frontmatter":{"title":"Richard Turner","category":"Tackle Shops","county":"Fermanagh","type":"Content","excerpt":null,"address":"126 Marble Arch road Florencecourt Road,, Enniskillen, Co. Fermanagh, BT92 1DY","tel":"+44 (0)28 6634 9974","images":null,"lat":"54.273921966552734","lng":"-7.814507961273193"},"fields":{"slug":"/section-directory-content/tackle-shops/richard-turner/"}}},{"node":{"frontmatter":{"title":"S And R Sporting Agencies","category":"Tackle Shops","county":"Antrim","type":"Content","excerpt":null,"address":"S And R Sporting Agencies, 95 Bravallen Road, Ballymoney, Antrim, BT53 7DU","tel":"+44 (0)28 2766 5554","images":null,"lat":"55.07075119018555","lng":"-6.511940002441406"},"fields":{"slug":"/section-directory-content/tackle-shops/s-and-r-sporting-agencies/"}}},{"node":{"frontmatter":{"title":"S Quinn And Sons Tackle And Bait","category":"Tackle Shops","county":"Tyrone","type":"Content","excerpt":null,"address":"S Quinn And Sons Tackle And Bait, Main Street, Coalisland, Tyrone, BT71 4NB","tel":"+44 (0)28 8774 0308","images":null,"lat":"54.505088806152344","lng":"-6.764308929443359"},"fields":{"slug":"/section-directory-content/tackle-shops/s-quinn-and-sons-tackle-and-bait/"}}},{"node":{"frontmatter":{"title":"Strabane Lifford Angling Development Association","category":"Tackle Shops","county":"Tyrone","type":"Content","excerpt":null,"address":"Strabane Lifford Angling Development Association, Bridge Street, Strabane, Tyrone, BT82 9AE","tel":"+44 (0)28 7188 0469","images":null,"lat":"54.8236198425293","lng":"-7.4658918380737305"},"fields":{"slug":"/section-directory-content/tackle-shops/strabane-lifford-angling-development-association/"}}},{"node":{"frontmatter":{"title":"Springwater Fly Fishery","category":"Tackle Shops","county":"Antrim","type":"Content","excerpt":null,"address":"Springwater Fly Fishery, 17a Cockhill Road, Lisburn, Antrim, BT27 5RS","tel":"+44 (0)28 9262 2220","images":null,"lat":"54.510009765625","lng":"-6.043118953704834"},"fields":{"slug":"/section-directory-content/tackle-shops/springwater-fly-fishery/"}}},{"node":{"frontmatter":{"title":"Smyths Sports Tackle And Bait","category":"Tackle Shops","county":"Down","type":"Content","excerpt":null,"address":"Smyths Sports Tackle And Bait, 7 Kildare Street, Newry, Down, BT34 1DQ","tel":"+44 (0)28 3026 5303","images":null,"lat":"54.177345275878906","lng":"-6.3365678787231445"},"fields":{"slug":"/section-directory-content/tackle-shops/smyths-sports-tackle-and-bait/"}}},{"node":{"frontmatter":{"title":"Lisburn Sports Centre Guns And Tackle","category":"Tackle Shops","county":"Antrim","type":"Content","excerpt":null,"address":"Lisburn Sports Centre Guns And Tackle, 9 Smithfield Square, Lisburn, Antrim","tel":"+44 (0)28 9267 7975","images":null,"lat":"54.510009765625","lng":"-6.043118953704834"},"fields":{"slug":"/section-directory-content/tackle-shops/lisburn-sports-centre-guns-and-tackle/"}}},{"node":{"frontmatter":{"title":"Stewart And Gibson Ltd","category":"Tackle Shops","county":"Down","type":"Content","excerpt":null,"address":"Stewart And Gibson Ltd, 25-27 Main Street, Ballynahinch, Down, BT24 8DR","tel":"+44 (0)28 9756 2220","images":null,"lat":"54.40296173095703","lng":"-5.894154071807861"},"fields":{"slug":"/section-directory-content/tackle-shops/stewart-and-gibson-ltd/"}}},{"node":{"frontmatter":{"title":"T McCutcheon Tackle And Bait","category":"Tackle Shops","county":"Antrim","type":"Content","excerpt":null,"address":"T McCutcheon Tackle And Bait, 114 Sandy Row, Belfast, Antrim, BT12 5EX","tel":"+44 (0)28 9044 9509","images":null,"lat":"54.59572982788086","lng":"-5.936308860778809"},"fields":{"slug":"/section-directory-content/tackle-shops/t-mccutcheon-tackle-and-bait/"}}},{"node":{"frontmatter":{"title":"The Heritage - Supplier of Tackle and Permits","category":"Tackle Shops","county":"Tipperary","type":"Content","excerpt":null,"address":"The Heritage, 1, The Square, Cahir, Co. Tipperary","tel":"+353 (0)52 42 730","images":null,"lat":"52.374874114990234","lng":"-7.923881530761719"},"fields":{"slug":"/section-directory-content/tackle-shops/the-heritage---supplier-of-tackle-and-permits/"}}},{"node":{"frontmatter":{"title":"Strangford Guiding Company","category":"Tackle Shops","county":"Down","type":"Content","excerpt":null,"address":"Riverstone Cottage 40 Scaddy road, Downpatrick, Co. Down, BT30 9BP","tel":"+44 (0)28 4482 8346","images":null,"lat":"54.37680435180664","lng":"-5.703893184661865"},"fields":{"slug":"/section-directory-content/tackle-shops/strangford-guiding-company/"}}},{"node":{"frontmatter":{"title":"Valley Hotel Fivemiletown Fishing Licences","category":"Tackle Shops","county":"Tyrone","type":"Content","excerpt":null,"address":"Valley Hotel Fivemiletown Fishing Licences, Main Street, Fivemiletown, Tyrone, BT75 0PW","tel":"+44 (0)28 8952 1505","images":null,"lat":"54.378021240234375","lng":"-7.314824104309082"},"fields":{"slug":"/section-directory-content/tackle-shops/valley-hotel-fivemiletown-fishing-licences/"}}},{"node":{"frontmatter":{"title":"Toms Fishing Tackle Shop","category":"Tackle Shops","county":"Derry","type":"Content","excerpt":null,"address":"Tom's Fishing Tackle Shop, 31a Ardlough Road, Drumahoe, Derry, BT47 5SP","tel":"+44 (0)28 7134 6265","images":null,"lat":"54.9918098449707","lng":"-7.320168972015381"},"fields":{"slug":"/section-directory-content/tackle-shops/toms-fishing-tackle-shop/"}}},{"node":{"frontmatter":{"title":"Shorts Sports and Cycles","category":"Tackle Shops","county":"Armagh","type":"Content","excerpt":null,"address":"Shorts, Sports and Cycles, 2 North Street, Crossmaglen, Armagh, BT35 9AB","tel":"+44 (0)28 3086 1272","images":null,"lat":"54.077701568603516","lng":"-6.609807014465332"},"fields":{"slug":"/section-directory-content/tackle-shops/shorts-sports-and-cycles/"}}},{"node":{"frontmatter":{"title":"Maryland Country Sports Tackle And Bait","category":"Tackle Shops","county":"Antrim","type":"Content","excerpt":null,"address":"Maryland Country Sports Tackle And Bait, 286 Ballygowan Road, Belfast, Antrim, BT5 7UB","tel":"+44 (0)28 9044 8598","images":null,"lat":"54.59572982788086","lng":"-5.936308860778809"},"fields":{"slug":"/section-directory-content/tackle-shops/maryland-country-sports-tackle-and-bait/"}}},{"node":{"frontmatter":{"title":"Tight Lines Tackle And Bait","category":"Tackle Shops","county":"Antrim","type":"Content","excerpt":null,"address":"Tight Lines Tackle And Bait, 198-200 Albert Bridge Road, Belfast, Antrim, BT5 4GU","tel":"+44 (0)28 9045 7357","images":null,"lat":"54.59572982788086","lng":"-5.936308860778809"},"fields":{"slug":"/section-directory-content/tackle-shops/tight-lines-tackle-and-bait/"}}},{"node":{"frontmatter":{"title":"Charles Mulhall Tackle And Bait","category":"Tackle Shops","county":"Down","type":"Content","excerpt":null,"address":"Charles Mulhall Tackle And Bait, 1 Quay Street, Ardglass, Down, BT30 7SA","tel":"+44 (0)28 4484 1301","images":null,"lat":"54.26125717163086","lng":"-5.607643127441406"},"fields":{"slug":"/section-directory-content/tackle-shops/charles-mulhall-tackle-and-bait/"}}},{"node":{"frontmatter":{"title":"Willis Hardware Tackle And Bait","category":"Tackle Shops","county":"Armagh","type":"Content","excerpt":null,"address":"Willis Hardware Tackle And Bait, 88 Main Street, Markethill, Armagh, BT60 1PL","tel":"+44 (0)28 3755 1245","images":null,"lat":"54.296939849853516","lng":"-6.5217390060424805"},"fields":{"slug":"/section-directory-content/tackle-shops/willis-hardware-tackle-and-bait/"}}}]}},"pageContext":{"isCreatedByStatefulCreatePages":false,"slug":"/section-directory/tackle-shops/","category":"Tackle Shops"}}}