{"componentChunkName":"component---src-templates-section-directory-js","path":"/section-directory/archery/","webpackCompilationHash":"","result":{"data":{"markdownRemark":{"html":"","frontmatter":{"category":"Archery"}},"allMarkdownRemark":{"distinct":["Antrim","Armagh","Cork","Derry","Down","Fermanagh","Galway","Kerry","Kildare","Kilkenny","Leitrim","Monaghan","Tyrone","Waterford","Wicklow"],"edges":[{"node":{"frontmatter":{"title":"Anarky Paintball","category":"Archery","county":"Down","type":"Content","excerpt":null,"address":"Anarky Paintball, Venue location: Rathfriland Road, Newry, Co. Down, BT34 1PH","tel":"+44 (0)28 4063 1767","images":null,"lat":"54.2072868347168","lng":"-6.2927680015563965"},"fields":{"slug":"/section-directory-content/archery/anarky-paintball/"}}},{"node":{"frontmatter":{"title":"Archery Instruction Mobile","category":"Archery","county":"Down","type":"Content","excerpt":null,"address":"10, Belmont Crescent, Bangor, Co. Down BT19 1NQ","tel":"028 9147 7860","images":null,"lat":"54.654325","lng":"-5.700996"},"fields":{"slug":"/section-directory-content/archery/archery-instruction-mobile/"}}},{"node":{"frontmatter":{"title":"Belfast Indoor Tennis Arena And Ozone Complex","category":"Archery","county":"Antrim","type":"Content","excerpt":null,"address":"Belfast Indoor Tennis Arena And Ozone Complex, Ormeau Embankment, Belfast, Antrim, BT6 8LT","tel":"+44 (0)28 9045 8024","images":null,"lat":"54.59572982788086","lng":"-5.936308860778809"},"fields":{"slug":"/section-directory-content/archery/belfast-indoor-tennis-arena-and-ozone-complex/"}}},{"node":{"frontmatter":{"title":"Ballyhass Lakes","category":"Archery","county":"Cork","type":"Content","excerpt":null,"address":"Cecilstown, Mallow, Co. Cork","tel":"+353 (0)22 27 773","images":null,"lat":"52.1693229675293","lng":"-8.799880981445312"},"fields":{"slug":"/section-directory-content/archery/ballyhass-lakes/"}}},{"node":{"frontmatter":{"title":"Camouflage Indoor Paintballing","category":"Archery","county":"Antrim","type":"Content","excerpt":null,"address":"Camouflage Indoor Paintballing, Doagh Business Park 11 Kilbride Road Doagh, Ballyclare, Co. Antrim, BT39 0QA","tel":"+44 (0)28 9334 2777","images":null,"lat":"54.74597930908203","lng":"-6.0509352684021"},"fields":{"slug":"/section-directory-content/archery/camouflage-indoor-paintballing/"}}},{"node":{"frontmatter":{"title":"Breckenhill Ltd","category":"Archery","county":"Antrim","type":"Content","excerpt":null,"address":"45, Breckenhill Road, Doagh, Ballyclare, Co. Antrim, BT39 0TB","tel":"028 9334 0311","images":null,"lat":"054.7884620000","lng":"-006.0715240000"},"fields":{"slug":"/section-directory-content/archery/breckenhill-ltd/"}}},{"node":{"frontmatter":{"title":"Carrowmena Activity Centre","category":"Archery","county":"Derry","type":"Content","excerpt":null,"address":"100 Carrowclare Road, Limavady, Co. Derry, BT49 9EB","tel":"+44 (0)28 7776 3431","images":null,"lat":"55.09095764160156","lng":"-7.001007556915283"},"fields":{"slug":"/section-directory-content/archery/carrowmena-activity-centre/"}}},{"node":{"frontmatter":{"title":"Activities Ireland","category":"Archery","county":"Antrim","type":"Content","excerpt":null,"address":"187, Lower Braniel Rd, Belfast, Co. Antrim BT5 7NP","tel":"07971 087480","images":null,"lat":"054.5785630000","lng":"-005.8493020000"},"fields":{"slug":"/section-directory-content/archery/activities-ireland/"}}},{"node":{"frontmatter":{"title":"Corrib","category":"Archery","county":"Galway","type":"Content","excerpt":null,"address":"2, Kilkerrin Park, Liosbaun Estate, Tuam Road, Galway City","tel":"+353 (0)91 76 9974","images":null,"lat":"53.286136627197266","lng":"-9.03963565826416"},"fields":{"slug":"/section-directory-content/archery/corrib/"}}},{"node":{"frontmatter":{"title":"Clay Pigeon Shooting Co. Down","category":"Archery","county":"Armagh","type":"Content","excerpt":null,"address":"Clay Pigeon Shooting Co. Down, Mountain Road, Forkhill, Armagh","tel":"+44 (0)28 3083 8810","images":null,"lat":"54.17662811279297","lng":"-6.339670181274414"},"fields":{"slug":"/section-directory-content/archery/clay-pigeon-shooting-co-down/"}}},{"node":{"frontmatter":{"title":"Collow Quarry Shoot","category":"Archery","county":"Tyrone","type":"Content","excerpt":null,"address":"Collow Quarry Shoot, 44 Bradan Road, Omagh, Tyrone, BT78 4QQ","tel":"+44 (0)28 8283 1521","images":null,"lat":"54.606407165527344","lng":"-7.5272908210754395"},"fields":{"slug":"/section-directory-content/archery/collow-quarry-shoot/"}}},{"node":{"frontmatter":{"title":"Corralea Activity Centre Ltd","category":"Archery","county":"Fermanagh","type":"Content","excerpt":null,"address":"Corralea, Belcoo, Enniskillen, Co. Fermanagh BT93 5DZ","tel":"028 6638 6123","images":null,"lat":"54.310934","lng":"-7.93649"},"fields":{"slug":"/section-directory-content/archery/corralea-activity-centre-ltd/"}}},{"node":{"frontmatter":{"title":"Eclipse Ireland - Kerrys Equestrian and Adventure Centre","category":"Archery","county":"Kerry","type":"Content","excerpt":null,"address":"Dromore Old, Blackwater Bridge, Killarney, Co. Kerry","tel":"+353 (0)64 668 2965","images":null,"lat":"51.857234954833984","lng":"-9.750615119934082"},"fields":{"slug":"/section-directory-content/archery/eclipse-ireland---kerrys-equestrian-and-adventure-centre/"}}},{"node":{"frontmatter":{"title":"Dunmore East Adventure Centre","category":"Archery","county":"Waterford","type":"Content","excerpt":null,"address":"Stoney Cove, Dunmore East, Co. Waterford","tel":"+353 (0)51 38 3783","images":null,"lat":"52.1484260559082","lng":"-7.005855083465576"},"fields":{"slug":"/section-directory-content/archery/dunmore-east-adventure-centre/"}}},{"node":{"frontmatter":{"title":"EcoAdventure Ireland","category":"Archery","county":"Wicklow","type":"Content","excerpt":null,"address":"Knockree Youth Hostel, Lacken House, Enniskerry, Co. Wicklow","tel":"+353 (0)12 76 7988","images":null,"lat":"53.18527603149414","lng":"-6.230874538421631"},"fields":{"slug":"/section-directory-content/archery/ecoadventure-ireland/"}}},{"node":{"frontmatter":{"title":"Countryside Leisure Activity Centre","category":"Archery","county":"Kilkenny","type":"Content","excerpt":null,"address":"Countryside Leisure Activity Centre, Bonnettsrath, Kilkenny","tel":"+353 (0)56 776 1791","images":null,"lat":"52.678382873535156","lng":"-7.239559173583984"},"fields":{"slug":"/section-directory-content/archery/countryside-leisure-activity-centre/"}}},{"node":{"frontmatter":{"title":"Escarmouche Paintball","category":"Archery","county":"Antrim","type":"Content","excerpt":null,"address":"Escarmouche Paintball, Shanes Castle Castle Road, Antrim, Co. Antrim, BT41 4ND","tel":"+44 (0)28 9032 7500","images":null,"lat":"54.73143005371094","lng":"-6.272648334503174"},"fields":{"slug":"/section-directory-content/archery/escarmouche-paintball/"}}},{"node":{"frontmatter":{"title":"Field of Dreams","category":"Archery","county":"Down","type":"Content","excerpt":null,"address":"Field of Dreams, 55 Gransha Road, Bangor, Co. Down","tel":"NOVAL","images":null,"lat":"54.65997314453125","lng":"-5.667551040649414"},"fields":{"slug":"/section-directory-content/archery/field-of-dreams/"}}},{"node":{"frontmatter":{"title":"Full Swing Entertainment","category":"Archery","county":"Derry","type":"Content","excerpt":null,"address":"15, Curryfree Rd, Waterside, Derry, Co. Derry BT47 3UH","tel":"028 7134 9664","images":null,"lat":"54.940672","lng":"-7.32217"},"fields":{"slug":"/section-directory-content/archery/full-swing-entertainment/"}}},{"node":{"frontmatter":{"title":"Escarmouche Paintball Games","category":"Archery","county":"Antrim","type":"Content","excerpt":null,"address":"19, Donegall Pass, Belfast, Co. Antrim BT7 1DQ","tel":"028 9032 7500","images":null,"lat":"54.589671","lng":"-5.932504"},"fields":{"slug":"/section-directory-content/archery/escarmouche-paintball-games/"}}},{"node":{"frontmatter":{"title":"Hostelling International Northern Ireland - Archery Enniskillen and Newcastle","category":"Archery","county":"Antrim","type":"Content","excerpt":null,"address":"Hostelling International Northern Ireland, 22 Donegall Road, Belfast, Co. Antrim, BT12 5JN","tel":"+44 (0)28 9032 4733","images":null,"lat":"54.59572982788086","lng":"-5.936308860778809"},"fields":{"slug":"/section-directory-content/archery/hostelling-international-northern-ireland---archery-enniskillen-and-newcastle/"}}},{"node":{"frontmatter":{"title":"Glenribbeen Lodge","category":"Archery","county":"Waterford","type":"Content","excerpt":null,"address":"Glenribbeen, Lismore, Waterford","tel":"+353 (0)58 54 499","images":null,"lat":"52.14593505859375","lng":"-7.883194446563721"},"fields":{"slug":"/section-directory-content/archery/glenribbeen-lodge/"}}},{"node":{"frontmatter":{"title":"Irish Country Quads","category":"Archery","county":"Monaghan","type":"Content","excerpt":null,"address":"Carrickakelly, Inniskeen, Co. Monaghan","tel":"+353 (0)42 937 8997","images":null,"lat":"54.0292854309082","lng":"-6.581894874572754"},"fields":{"slug":"/section-directory-content/archery/irish-country-quads/"}}},{"node":{"frontmatter":{"title":"Hollow Farm Shooting Grounds","category":"Archery","county":"Down","type":"Content","excerpt":null,"address":"Hollow Farm Shooting Grounds, 35 Drumhirk Road, Comber, Down, BT23 5SA","tel":"+44 (0)28 9752 8381","images":null,"lat":"54.594329833984375","lng":"-5.70030403137207"},"fields":{"slug":"/section-directory-content/archery/hollow-farm-shooting-grounds/"}}},{"node":{"frontmatter":{"title":"KartWorld Adventure Centre","category":"Archery","county":"Cork","type":"Content","excerpt":null,"address":"Watergrasshill, Co. Cork","tel":"+353 (0)21 488 9477","images":null,"lat":"52.008304595947266","lng":"-8.349356651306152"},"fields":{"slug":"/section-directory-content/archery/kartworld-adventure-centre/"}}},{"node":{"frontmatter":{"title":"Kilmore Archery Centre","category":"Archery","county":"Armagh","type":"Content","excerpt":null,"address":"17, Bridge Rd, Lurgan, Craigavon, Co. Armagh BT67 9LA","tel":"028 3832 6987","images":null,"lat":"054.4966790000","lng":"-006.2728780000"},"fields":{"slug":"/section-directory-content/archery/kilmore-archery-centre/"}}},{"node":{"frontmatter":{"title":"Kilranelagh Lodge","category":"Archery","county":"Wicklow","type":"Content","excerpt":null,"address":"Kiltegan, Baltinglass, Wicklow","tel":"+353 (0)59 648 1662","images":null,"lat":"52.95049285888672","lng":"-6.641539096832275"},"fields":{"slug":"/section-directory-content/archery/kilranelagh-lodge/"}}},{"node":{"frontmatter":{"title":"Life","category":"Archery","county":"Down","type":"Content","excerpt":null,"address":"The Grange Yard, Forest Park, Castlewellen, Co. Down, BT31 9BU","tel":"0 2843443175","images":null,"lat":"054.2644120000","lng":"-005.9554100000"},"fields":{"slug":"/section-directory-content/archery/life/"}}},{"node":{"frontmatter":{"title":"Indoor Tennis Centre and Ozone Complex","category":"Archery","county":"Antrim","type":"Content","excerpt":null,"address":"Ormeau Embankment, Belfast, Co. Antrim, BT6 8LT","tel":"028 9045 8024","images":null,"lat":"054.5908420000","lng":"-005.9134700000"},"fields":{"slug":"/section-directory-content/archery/indoor-tennis-centre-and-ozone-complex/"}}},{"node":{"frontmatter":{"title":"Mr Active","category":"Archery","county":"Kerry","type":"Content","excerpt":null,"address":"Waterville, Co. Kerry","tel":"+353 (0)86 389 0171","images":null,"lat":"52.18333435058594","lng":"-9.597639083862305"},"fields":{"slug":"/section-directory-content/archery/mr-active/"}}},{"node":{"frontmatter":{"title":"Northern Ireland Archery Society","category":"Archery","county":"Armagh","type":"Content","excerpt":null,"address":"Northern Ireland Archery Society, P.O. Box 282 Moira, Craigavon, Co. Armagh, BT67 0YA","tel":"NOVAL","images":null,"lat":"54.45169448852539","lng":"-6.397026062011719"},"fields":{"slug":"/section-directory-content/archery/northern-ireland-archery-society/"}}},{"node":{"frontmatter":{"title":"LASERFORCE NI","category":"Archery","county":"Fermanagh","type":"Content","excerpt":null,"address":"LASERFORCE NI, 64a Ely Place Forthill Street, Enniskillen, Co. Fermanagh, BT74 6PQ","tel":"+44 (0)28 6634 7771","images":null,"lat":"54.346771240234375","lng":"-7.645120143890381"},"fields":{"slug":"/section-directory-content/archery/laserforce-ni/"}}},{"node":{"frontmatter":{"title":"Predator Combat Games","category":"Archery","county":"Down","type":"Content","excerpt":null,"address":"7A Dundrinne Rise, Castlewellan, Co. Down, BT31 9LY","tel":"+44 (0)28 4377 0566","images":null,"lat":"54.257747650146484","lng":"-5.9323554039001465"},"fields":{"slug":"/section-directory-content/archery/predator-combat-games/"}}},{"node":{"frontmatter":{"title":"Lough Cuan Bowmen Archery Club","category":"Archery","county":"Down","type":"Content","excerpt":null,"address":"21, Mill St, Comber, Newtownards, Co. Down BT23 5EG","tel":"07739 171141","images":null,"lat":"54.551449","lng":"-5.750158"},"fields":{"slug":"/section-directory-content/archery/lough-cuan-bowmen-archery-club/"}}},{"node":{"frontmatter":{"title":"Swan Island Lakeside Centre","category":"Archery","county":"Leitrim","type":"Content","excerpt":null,"address":"Keeldrin, Corrawallen, Co. Leitrim","tel":"+353 (0)49 433 3065","images":null,"lat":"54.03933334350586","lng":"-7.715497016906738"},"fields":{"slug":"/section-directory-content/archery/swan-island-lakeside-centre/"}}},{"node":{"frontmatter":{"title":"Rebel Adventures","category":"Archery","county":"Cork","type":"Content","excerpt":null,"address":"Clonakilty, Co. Cork","tel":"+353 (0)23 884 3998","images":null,"lat":"51.62516784667969","lng":"-8.882451057434082"},"fields":{"slug":"/section-directory-content/archery/rebel-adventures/"}}},{"node":{"frontmatter":{"title":"Quest Events","category":"Archery","county":"Kildare","type":"Content","excerpt":null,"address":"Mondello Park, Donore, Naas, Co. Kildare","tel":"+353 (0)45 85 1020","images":null,"lat":"53.4296760559082","lng":"-6.916091442108154"},"fields":{"slug":"/section-directory-content/archery/quest-events/"}}},{"node":{"frontmatter":{"title":"The Jungle NI","category":"Archery","county":"Derry","type":"Content","excerpt":null,"address":"The Jungle NI 60 Desertmartin Road Moneymore, Magherafelt, Co. Derry, BT45 7RB","tel":"+44 (0)28 8674 8881","images":null,"lat":"54.71438980102539","lng":"-6.669701099395752"},"fields":{"slug":"/section-directory-content/archery/the-jungle-ni/"}}},{"node":{"frontmatter":{"title":"The JunglenI.com","category":"Archery","county":"Derry","type":"Content","excerpt":null,"address":"60, Desertmartin Rd, Moneymore, Magherafelt, Co. Derry BT45 7RB","tel":"028 862 38016","images":null,"lat":"054.7152420000","lng":"-006.6708200000"},"fields":{"slug":"/section-directory-content/archery/the-junglenicom/"}}},{"node":{"frontmatter":{"title":"Trabolgan Holiday and Visitor Attraction Centre","category":"Archery","county":"Cork","type":"Content","excerpt":null,"address":"Whitegate, Midleton, Co. Cork","tel":"+353 (0)21 466 1551","images":null,"lat":"51.80155944824219","lng":"-8.235557556152344"},"fields":{"slug":"/section-directory-content/archery/trabolgan-holiday-and-visitor-attraction-centre/"}}},{"node":{"frontmatter":{"title":"Share Holiday Village: Activities","category":"Archery","county":"Fermanagh","type":"Content","excerpt":null,"address":"Share Holiday Village- Activities, Smith's Strand, Lisnaskea, Co. Fermanagh, BT92 0EQ","tel":"+44 (0)28 6772 2122","images":null,"lat":"54.346771240234375","lng":"-7.645120143890381"},"fields":{"slug":"/section-directory-content/archery/share-holiday-village-activities/"}}},{"node":{"frontmatter":{"title":"Abbeyfield Country Pursuits","category":"Archery","county":"Kildare","type":"Content","excerpt":null,"address":"Abbeyfield, Richardstown, Clane, Co. Kildare","tel":"+353 (0)86 816 4130","images":null,"lat":"53.297271728515625","lng":"-6.687696933746338"},"fields":{"slug":"/section-directory-content/archery/abbeyfield-country-pursuits/"}}},{"node":{"frontmatter":{"title":"Star Outdoors Adventure Centre","category":"Archery","county":"Kerry","type":"Content","excerpt":null,"address":"Dauros, Kenmare, Co. Kerry","tel":"+353 (0)64 664 1222","images":null,"lat":"51.84984588623047","lng":"-9.631325721740723"},"fields":{"slug":"/section-directory-content/archery/star-outdoors-adventure-centre/"}}},{"node":{"frontmatter":{"title":"The Mourne Archery Centre","category":"Archery","county":"Down","type":"Content","excerpt":null,"address":"35, Carnacavill Rd, Maghera, Castlewellan, Co. Down BT31 9HD","tel":"07519 882372","images":null,"lat":"54.241112","lng":"-5.899727"},"fields":{"slug":"/section-directory-content/archery/the-mourne-archery-centre/"}}},{"node":{"frontmatter":{"title":"West Point Paintballing","category":"Archery","county":"Derry","type":"Content","excerpt":null,"address":"West Point Paintballing, 3 Temple Park, Derry, Derry, BT48 8PN","tel":"+44 (0)28 7135 3109","images":null,"lat":"54.9918098449707","lng":"-7.320168972015381"},"fields":{"slug":"/section-directory-content/archery/west-point-paintballing/"}}}]}},"pageContext":{"isCreatedByStatefulCreatePages":false,"slug":"/section-directory/archery/","category":"Archery"}}}