{"componentChunkName":"component---src-templates-section-directory-js","path":"/section-directory/bus-services/","webpackCompilationHash":"","result":{"data":{"markdownRemark":{"html":"","frontmatter":{"category":"Bus Services"}},"allMarkdownRemark":{"distinct":["Antrim","Armagh","Clare","Cork","Derry","Donegal","Down","Dublin","Fermanagh","Galway","Kerry","Kildare","Kilkenny","Limerick","Mayo","Offaly","Tyrone","Waterford","Westmeath","Wicklow"],"edges":[{"node":{"frontmatter":{"title":"Aran Tours t/a Wild Wicklow Tours","category":"Bus Services","county":"Dublin","type":"Content","excerpt":null,"address":"Wild Wicklow Tours, 14 Lower Albert Road, Sandycove, Co. Dublin","tel":"+353 (0)1 280 1899","images":null,"lat":"53.284236907958984","lng":"-6.119645595550537"},"fields":{"slug":"/section-directory-content/bus-services/aran-tours-t a-wild-wicklow-tours/"}}},{"node":{"frontmatter":{"title":"AYTON COACHES LIBERTY TOURS (NI)","category":"Bus Services","county":"Derry","type":"Content","excerpt":null,"address":"4, Woodside Heights, Derry, Co. Derry BT47 2LQ","tel":"028 7130 8769","images":null,"lat":"054.9862610000","lng":"-007.3014500000"},"fields":{"slug":"/section-directory-content/bus-services/ayton-coaches-liberty-tours-ni/"}}},{"node":{"frontmatter":{"title":"Bernard Kavanagh Bus Coaches","category":"Bus Services","county":"Kilkenny","type":"Content","excerpt":null,"address":"Bridge Garage, Urlingford, Co. Kilkenny","tel":"+353 (0)56 883 1189","images":null,"lat":"52.717899322509766","lng":"-7.600019931793213"},"fields":{"slug":"/section-directory-content/bus-services/bernard-kavanagh-bus-coaches/"}}},{"node":{"frontmatter":{"title":"Buckley's Tours","category":"Bus Services","county":"Kerry","type":"Content","excerpt":null,"address":"Woodlands Industrial Estate, Killarney, Co. Kerry","tel":"+353 (0)64 663 1945","images":null,"lat":"52.06478500366211","lng":"-9.483261108398438"},"fields":{"slug":"/section-directory-content/bus-services/buckleys-tours/"}}},{"node":{"frontmatter":{"title":"Buggys Coaches Irish and European Travel","category":"Bus Services","county":"Kilkenny","type":"Content","excerpt":null,"address":"Castlecomer, Co. Kilkenny","tel":"+353 (0)56 444 1264","images":null,"lat":"52.823646545410156","lng":"-7.231822967529297"},"fields":{"slug":"/section-directory-content/bus-services/buggys-coaches-irish-and-european-travel/"}}},{"node":{"frontmatter":{"title":"Blackslee Tours","category":"Bus Services","county":"Fermanagh","type":"Content","excerpt":null,"address":"Blackslee House, Meadow Lane, Enniskillen, Co. Fermanagh, BT74 5NU","tel":"+44 (0)28 6632 2323","images":null,"lat":"54.346771240234375","lng":"-7.645120143890381"},"fields":{"slug":"/section-directory-content/bus-services/blackslee-tours/"}}},{"node":{"frontmatter":{"title":"Agnew Travel","category":"Bus Services","county":"Armagh","type":"Content","excerpt":null,"address":"15, Tannaghmore North Rd, Lurgan, Craigavon, Co. Armagh BT67 9JA","tel":"028 3832 6755","images":null,"lat":"054.4819130000","lng":"-006.3417110000"},"fields":{"slug":"/section-directory-content/bus-services/agnew-travel/"}}},{"node":{"frontmatter":{"title":"Belfast Europa Bus Centre","category":"Bus Services","county":"Antrim","type":"Content","excerpt":null,"address":"Belfast Europa Bus Centre, Belfast, Co. Antrim","tel":"+44 (0)28 9066 6630","images":null,"lat":"54.59418487548828","lng":"-5.933897018432617"},"fields":{"slug":"/section-directory-content/bus-services/belfast-europa-bus-centre/"}}},{"node":{"frontmatter":{"title":"City Direct Bus Service Galway","category":"Bus Services","county":"Galway","type":"Content","excerpt":null,"address":"Mincloon, Rahoon, Galway City, Co. Galway","tel":"+353 (0)91 86 0814","images":null,"lat":"53.277984619140625","lng":"-9.101877212524414"},"fields":{"slug":"/section-directory-content/bus-services/city-direct-bus-service-galway/"}}},{"node":{"frontmatter":{"title":"Citylink Travel Services","category":"Bus Services","county":"Galway","type":"Content","excerpt":null,"address":"C/o Tourist Information Office, Forster Street, Galway City","tel":"+353 (0)91 56 4163","images":null,"lat":"53.27499008178711","lng":"-9.04608154296875"},"fields":{"slug":"/section-directory-content/bus-services/citylink-travel-services/"}}},{"node":{"frontmatter":{"title":"Dublin Mini Coaches and Chauffeur Drive","category":"Bus Services","county":"Dublin","type":"Content","excerpt":null,"address":"Wasdale House Old Naas Road,, 14 Camac Park Old Naas Road, Dublin, Co. Dublin, Dublin 12","tel":"+353 (0)18 6178 0049","images":null,"lat":"53.33038330078125","lng":"-6.348361968994141"},"fields":{"slug":"/section-directory-content/bus-services/dublin-mini-coaches-and-chauffeur-drive/"}}},{"node":{"frontmatter":{"title":"Charabanc Coaches","category":"Bus Services","county":"Antrim","type":"Content","excerpt":null,"address":"8 Glenhurst Gardens, Newtownabbey, Co. Antrim, BT36 7JW","tel":"028 9028 7952","images":null,"lat":"054.6482310000","lng":"-005.9309210000"},"fields":{"slug":"/section-directory-content/bus-services/charabanc-coaches/"}}},{"node":{"frontmatter":{"title":"Dualway Coaches","category":"Bus Services","county":"Dublin","type":"Content","excerpt":null,"address":"Keatings Park, Rathcoole, Co. Dublin, South County","tel":"+353 (0)1 458 0054","images":null,"lat":"53.27522277832031","lng":"-6.486161708831787"},"fields":{"slug":"/section-directory-content/bus-services/dualway-coaches/"}}},{"node":{"frontmatter":{"title":"Dublin Bus","category":"Bus Services","county":"Dublin","type":"Content","excerpt":null,"address":"59 Upper O'Connell St, Dublin City Centre, Co. Dublin, Dublin 1","tel":"+353 (0)1 872 0000","images":null,"lat":"53.34945297241211","lng":"-6.262474536895752"},"fields":{"slug":"/section-directory-content/bus-services/dublin-bus/"}}},{"node":{"frontmatter":{"title":"Donnelly Buses","category":"Bus Services","county":"Tyrone","type":"Content","excerpt":null,"address":"33, Springwell Drive, Beragh, Sixmilecross, Omagh, Co. Tyrone BT79 0BS","tel":"028 8075 8716","images":null,"lat":"54.548587","lng":"-7.16514"},"fields":{"slug":"/section-directory-content/bus-services/donnelly-buses/"}}},{"node":{"frontmatter":{"title":"Galvin's Coaches Dunmanway Ltd.","category":"Bus Services","county":"Cork","type":"Content","excerpt":null,"address":"Main Street, Dunmanway, Co. Cork","tel":"+353 (0)23 884 5125","images":null,"lat":"51.72349166870117","lng":"-9.108954429626465"},"fields":{"slug":"/section-directory-content/bus-services/galvins-coaches-dunmanway-ltd/"}}},{"node":{"frontmatter":{"title":"Dundrum Coach Hire","category":"Bus Services","county":"Dublin","type":"Content","excerpt":null,"address":"12 The Meadow, Woodpark, Ballinteer, Co. Dublin","tel":"+353 (0)12 98 1533","images":null,"lat":"53.27689743041992","lng":"-6.251312255859375"},"fields":{"slug":"/section-directory-content/bus-services/dundrum-coach-hire/"}}},{"node":{"frontmatter":{"title":"Flannerys Irish Drive","category":"Bus Services","county":"Mayo","type":"Content","excerpt":null,"address":"Mr Gerry Flannery, 11, Drum Crescent, Knock, Co. Mayo","tel":"+353 (0)87 642 2313","images":null,"lat":"53.796241760253906","lng":"-8.916584968566895"},"fields":{"slug":"/section-directory-content/bus-services/flannerys-irish-drive/"}}},{"node":{"frontmatter":{"title":"HH Bus Commercial","category":"Bus Services","county":"Derry","type":"Content","excerpt":null,"address":"Unit 4, Sperrin View Commercial Units, Glen Rd, Maghera, Co. Derry BT46 5LT","tel":"028 7964 2008","images":null,"lat":"54.825203","lng":"-6.71952"},"fields":{"slug":"/section-directory-content/bus-services/hh-bus-commercial/"}}},{"node":{"frontmatter":{"title":"Glen Mini Bus Services Ltd","category":"Bus Services","county":"Down","type":"Content","excerpt":null,"address":"2, St. Josephs Bungalows, Ballymartin, Newry, Co. Down BT34 4PF","tel":"028 4176 5163","images":null,"lat":"54.081322","lng":"-5.948316"},"fields":{"slug":"/section-directory-content/bus-services/glen-mini-bus-services-ltd/"}}},{"node":{"frontmatter":{"title":"J O'Callaghan and Sons","category":"Bus Services","county":"Kerry","type":"Content","excerpt":null,"address":"Rockfield, Tralee Road, Killarney, Co. Kerry","tel":"+353 (0)64 663 1095","images":null,"lat":"52.08974075317383","lng":"-9.513821601867676"},"fields":{"slug":"/section-directory-content/bus-services/j-ocallaghan-and-sons/"}}},{"node":{"frontmatter":{"title":"Glynn's Coach Hire Ltd","category":"Bus Services","county":"Clare","type":"Content","excerpt":null,"address":"Knockaderry, Tulla Road, Ennis, Co. Clare","tel":"+353 (0)65 682 8234","images":null,"lat":"52.84111404418945","lng":"-8.993844032287598"},"fields":{"slug":"/section-directory-content/bus-services/glynns-coach-hire-ltd/"}}},{"node":{"frontmatter":{"title":"Irish Coaches","category":"Bus Services","county":"Dublin","type":"Content","excerpt":null,"address":"Ulster Bank Chambers, 2 / 5 Lower O'Connell Street, Dublin City Centre, Co. Dublin, 1","tel":"+353 (0)18 78 8898","images":null,"lat":"53.3478889465332","lng":"-6.258948802947998"},"fields":{"slug":"/section-directory-content/bus-services/irish-coaches/"}}},{"node":{"frontmatter":{"title":"GoBus","category":"Bus Services","county":"Galway","type":"Content","excerpt":null,"address":"Galway Coach Centre, Fairgreen Road, Galway City, Co. Galway","tel":"+353 (0)91 56 4600","images":null,"lat":"53.27735900878906","lng":"-9.044610023498535"},"fields":{"slug":"/section-directory-content/bus-services/gobus/"}}},{"node":{"frontmatter":{"title":"James Mullally Coach Hire","category":"Bus Services","county":"Kildare","type":"Content","excerpt":null,"address":"Unit 4 Crinnstown Business Centre, Crinnstown Cross, Maynooth, Co. Kildare","tel":"+353 (0)16 29 0290","images":null,"lat":"53.376487731933594","lng":"-6.5927581787109375"},"fields":{"slug":"/section-directory-content/bus-services/james-mullally-coach-hire/"}}},{"node":{"frontmatter":{"title":"Griffin's Taxi and Mini Bus Service","category":"Bus Services","county":"Kerry","type":"Content","excerpt":null,"address":"Cloonlara, Firies, Killarney, Co. Kerry","tel":"+353 (0)66 976 4846","images":null,"lat":"52.1837043762207","lng":"-9.58234691619873"},"fields":{"slug":"/section-directory-content/bus-services/griffins-taxi-and-mini-bus-service/"}}},{"node":{"frontmatter":{"title":"JJ Kavanagh Coach Hire Service","category":"Bus Services","county":"Kilkenny","type":"Content","excerpt":null,"address":"Main Street, Urlingford, Co. Kilkenny","tel":"+353 (0)56 883 1106","images":null,"lat":"52.717899322509766","lng":"-7.59987211227417"},"fields":{"slug":"/section-directory-content/bus-services/jj-kavanagh-coach-hire-service/"}}},{"node":{"frontmatter":{"title":"JFK Mini Bus Hire","category":"Bus Services","county":"Westmeath","type":"Content","excerpt":null,"address":"13 St. Josephs Villas, Athlone, Co. Westmeath","tel":"+353 (0)86 223 0920","images":null,"lat":"53.42618942260742","lng":"-7.937720775604248"},"fields":{"slug":"/section-directory-content/bus-services/jfk-mini-bus-hire/"}}},{"node":{"frontmatter":{"title":"John McGinley Coaches","category":"Bus Services","county":"Donegal","type":"Content","excerpt":null,"address":"Luxury Coach Trave;, Magheroarty, Gortahork, Co. Donegal","tel":"+353 (0)74 913 5201","images":null,"lat":"55.11775207519531","lng":"-8.137836456298828"},"fields":{"slug":"/section-directory-content/bus-services/john-mcginley-coaches/"}}},{"node":{"frontmatter":{"title":"Joe Moroney Coaches","category":"Bus Services","county":"Wicklow","type":"Content","excerpt":null,"address":"Oldcourt Industrial Estate, Boghall Road, Bray, Co. Wicklow","tel":"+353 (0)27 61 466","images":null,"lat":"53.19985580444336","lng":"-6.104969501495361"},"fields":{"slug":"/section-directory-content/bus-services/joe-moroney-coaches/"}}},{"node":{"frontmatter":{"title":"Luxury Tours of Inis M??r","category":"Bus Services","county":"Galway","type":"Content","excerpt":null,"address":"Mr Noel Mahon, Inis M??r (Inishmore), Aran Islands (Inishmore), Co. Galway","tel":"+353 (0)87 778 2775","images":null,"lat":"53.12818145751953","lng":"-9.686467170715332"},"fields":{"slug":"/section-directory-content/bus-services/luxury-tours-of-inis-mr/"}}},{"node":{"frontmatter":{"title":"Inism??r Tours","category":"Bus Services","county":"Galway","type":"Content","excerpt":null,"address":"Mainistir, Inism??r (Inishmore), Aran Islands, Co. Galway","tel":"+353 (0)87 693 5101","images":null,"lat":"53.1291389465332","lng":"-9.711573600769043"},"fields":{"slug":"/section-directory-content/bus-services/inismr-tours/"}}},{"node":{"frontmatter":{"title":"M and A Coaches","category":"Bus Services","county":"Kilkenny","type":"Content","excerpt":null,"address":"MandA Coaches, 44 High Street, Ballyragget, Co. Kilkenny","tel":"+353 (0)56 883 3454","images":null,"lat":"52.79104232788086","lng":"-7.330776214599609"},"fields":{"slug":"/section-directory-content/bus-services/m-and-a-coaches/"}}},{"node":{"frontmatter":{"title":"Malahide Coaches","category":"Bus Services","county":"Dublin","type":"Content","excerpt":null,"address":"Saint Joseph's, Coast Road, Malahide, Co. Dublin","tel":"+353 (0)18 45 3809","images":null,"lat":"53.450225830078125","lng":"-6.151220798492432"},"fields":{"slug":"/section-directory-content/bus-services/malahide-coaches/"}}},{"node":{"frontmatter":{"title":"Patrick McElligott and Sons","category":"Bus Services","county":"Limerick","type":"Content","excerpt":null,"address":"Clarina Cross, Clarina, Co. Limerick","tel":"+353 (0)61 35 3477","images":null,"lat":"52.632564544677734","lng":"-8.729514122009277"},"fields":{"slug":"/section-directory-content/bus-services/patrick-mcelligott-and-sons/"}}},{"node":{"frontmatter":{"title":"Mick Dunbar Bus and Cab Hire","category":"Bus Services","county":"Wicklow","type":"Content","excerpt":null,"address":"Rockstown, Rathdrum, Co. Wicklow","tel":"+353 (0)40 22 9000","images":null,"lat":"52.932899475097656","lng":"-6.235706329345703"},"fields":{"slug":"/section-directory-content/bus-services/mick-dunbar-bus-and-cab-hire/"}}},{"node":{"frontmatter":{"title":"Ulster Bus","category":"Bus Services","county":"Derry","type":"Content","excerpt":null,"address":"Ulstrer Bus, Foyle Street Depot, Derry, Co. Derry, BT48 6AL","tel":"+44 (0)28 7126 2261","images":null,"lat":"54.9918098449707","lng":"-7.320168972015381"},"fields":{"slug":"/section-directory-content/bus-services/ulster-bus/"}}},{"node":{"frontmatter":{"title":"TM Coach Hire","category":"Bus Services","county":"Antrim","type":"Content","excerpt":null,"address":"Unit 10, Dunmurry Industrial Estate, Dunmurry, Belfast, Co. Antrim, BT17 9HU","tel":"028 9061 6666","images":null,"lat":"054.5461100000","lng":"-006.0208300000"},"fields":{"slug":"/section-directory-content/bus-services/tm-coach-hire/"}}},{"node":{"frontmatter":{"title":"John McCarthy Bus Service","category":"Bus Services","county":"Offaly","type":"Content","excerpt":null,"address":"Clonminch Road, Tullamore, Co. Offaly","tel":"+353 (0)57 935 2416","images":null,"lat":"53.25384521484375","lng":"-7.477986812591553"},"fields":{"slug":"/section-directory-content/bus-services/john-mccarthy-bus-service/"}}},{"node":{"frontmatter":{"title":"Suirway Bus and Coach Service","category":"Bus Services","county":"Waterford","type":"Content","excerpt":null,"address":"Suirway Bus and Coach Service Ltd, Offices at Passage East, Passage East, Co. Waterford","tel":"+353 (0)51 38 2209","images":null,"lat":"52.26154327392578","lng":"-7.121082782745361"},"fields":{"slug":"/section-directory-content/bus-services/suirway-bus-and-coach-service/"}}},{"node":{"frontmatter":{"title":"Ulsterbus Larne","category":"Bus Services","county":"Antrim","type":"Content","excerpt":null,"address":"Ulsterbus Larne, Circular Road, Larne, Antrim, BT40 3AE","tel":"+44 (0)28 2827 2345","images":null,"lat":"54.85028076171875","lng":"-5.822878837585449"},"fields":{"slug":"/section-directory-content/bus-services/ulsterbus-larne/"}}},{"node":{"frontmatter":{"title":"Rural Lift For SW Fermanagh","category":"Bus Services","county":"Fermanagh","type":"Content","excerpt":null,"address":"41-44 Enniskillen Business Centre, Lackagboy Industrial Estate, Tempo Rd, Enniskillen, Co. Fermanagh BT74 4RL","tel":"028 6632 4260","images":null,"lat":"54.356522","lng":"-7.599713"},"fields":{"slug":"/section-directory-content/bus-services/rural-lift-for-sw-fermanagh/"}}},{"node":{"frontmatter":{"title":"Wicklow Tours MT Cabs","category":"Bus Services","county":"Wicklow","type":"Content","excerpt":null,"address":"1 Quinnsborough Road, Bray, Co. Wicklow","tel":"+353 (0)12 04 0444","images":null,"lat":"53.19984436035156","lng":"-6.1049699783325195"},"fields":{"slug":"/section-directory-content/bus-services/wicklow-tours-mt-cabs/"}}},{"node":{"frontmatter":{"title":"Mangan Tours","category":"Bus Services","county":"Donegal","type":"Content","excerpt":null,"address":"Crossview House, Port Road, Letterkenny, Co. Donegal","tel":"+353 (0)74 912 8410","images":null,"lat":"54.95115661621094","lng":"-7.736715793609619"},"fields":{"slug":"/section-directory-content/bus-services/mangan-tours/"}}},{"node":{"frontmatter":{"title":"Ulsterbus","category":"Bus Services","county":"Antrim","type":"Content","excerpt":null,"address":"Ulsterbus, Great Victoria Street, Belfast, Antrim, BT2 7HR","tel":"+44 (0)28 9033 3000","images":null,"lat":"54.59572982788086","lng":"-5.936308860778809"},"fields":{"slug":"/section-directory-content/bus-services/ulsterbus/"}}},{"node":{"frontmatter":{"title":"PK Travel","category":"Bus Services","county":"Clare","type":"Content","excerpt":null,"address":"PK Services Complex, Shannon Airport, Shannon, Co. Clare","tel":"+353 (0)61 47 1111","images":null,"lat":"52.815269470214844","lng":"-8.968708038330078"},"fields":{"slug":"/section-directory-content/bus-services/pk-travel/"}}},{"node":{"frontmatter":{"title":"Dick Martin Coaches","category":"Bus Services","county":"Limerick","type":"Content","excerpt":null,"address":"Unit 7, Annacotty Business Park, Biddyford, Annacotty, Co. Limerick","tel":"+061 (0)353 333100","images":null,"lat":"52.664527893066406","lng":"-8.533197402954102"},"fields":{"slug":"/section-directory-content/bus-services/dick-martin-coaches/"}}},{"node":{"frontmatter":{"title":"Wild Coach Tours","category":"Bus Services","county":"Dublin","type":"Content","excerpt":null,"address":"20 Lower Stephen Street, Dublin, Dublin, Co. Dublin, Dublin 2","tel":"+353 (0)14 75 3313","images":null,"lat":"53.34135055541992","lng":"-6.2653117179870605"},"fields":{"slug":"/section-directory-content/bus-services/wild-coach-tours/"}}},{"node":{"frontmatter":{"title":"Ulsterbus Cookstown","category":"Bus Services","county":"Tyrone","type":"Content","excerpt":null,"address":"Ulsterbus Cookstown, Molesworth Street, Cookstown, Tyrone, BT80 8NX","tel":"+44 (0)28 676 6440","images":null,"lat":"54.64609146118164","lng":"-6.74337911605835"},"fields":{"slug":"/section-directory-content/bus-services/ulsterbus-cookstown/"}}},{"node":{"frontmatter":{"title":"Phelan's Mini Bus Service","category":"Bus Services","county":"Galway","type":"Content","excerpt":null,"address":"314, Tirellan Heights, Headford Road, Galway City","tel":"+353 (0)91 77 1686","images":null,"lat":"53.28364181518555","lng":"-9.046157836914062"},"fields":{"slug":"/section-directory-content/bus-services/phelans-mini-bus-service/"}}}]}},"pageContext":{"isCreatedByStatefulCreatePages":false,"slug":"/section-directory/bus-services/","category":"Bus Services"}}}