{"componentChunkName":"component---src-templates-section-directory-js","path":"/section-directory/cafes/","webpackCompilationHash":"","result":{"data":{"markdownRemark":{"html":"","frontmatter":{"category":"Cafes"}},"allMarkdownRemark":{"distinct":["Antrim","Armagh","Clare","Derry","Donegal","Down","Dublin","Fermanagh","Galway","Kilkenny","Roscommon","Westmeath"],"edges":[{"node":{"frontmatter":{"title":"Ard Bia at Nimmos Caf and Restaurant","category":"Cafes","county":"Galway","type":"Content","excerpt":null,"address":"Ard Bia at Nimmos Caf??, Restaurant, Nimmo's Building, Spanish Arch, Long Walk, Galway City","tel":"+353 (0)91 56 1114","images":null,"lat":"53.27135467529297","lng":"-9.054041862487793"},"fields":{"slug":"/section-directory-content/cafes/ard-bia-at-nimmos-caf-and-restaurant/"}}},{"node":{"frontmatter":{"title":"Bar Bacca Belfast","category":"Cafes","county":"Antrim","type":"Content","excerpt":null,"address":"Bar Bacca Belfast, 43 Franklin Street, Belfast, Antrim, BT2 7GG","tel":"+44 (0)28 9023 0200","images":null,"lat":"54.59572982788086","lng":"-5.936308860778809"},"fields":{"slug":"/section-directory-content/cafes/bar-bacca-belfast/"}}},{"node":{"frontmatter":{"title":"Black Box","category":"Cafes","county":"Antrim","type":"Content","excerpt":null,"address":"Black Box, Near Commercial Court 18 - 22 Hill Street, BELFAST, Co. Antrim, BT1 2LA","tel":"+44 (0)28 9024 4400","images":null,"lat":"54.59572982788086","lng":"-5.936308860778809"},"fields":{"slug":"/section-directory-content/cafes/black-box/"}}},{"node":{"frontmatter":{"title":"Bennys Restaurant Delicatessen and Bakery","category":"Cafes","county":"Roscommon","type":"Content","excerpt":null,"address":"Benny's Restaurant, Delicatessen and Bakery, Main Street, Castlerea, Co. Roscommon","tel":"+353 (0)94 962 0575","images":null,"lat":"53.766666412353516","lng":"-8.5"},"fields":{"slug":"/section-directory-content/cafes/bennys-restaurant-delicatessen-and-bakery/"}}},{"node":{"frontmatter":{"title":"Austins Rooftop and Cafe Mezzo Restaurants","category":"Cafes","county":"Derry","type":"Content","excerpt":null,"address":"Austins Quality Training Services, 2-6 The Diamond, Derry, Co. Derry, BT48 6HR","tel":"+44 (0)28 7126 1817","images":null,"lat":"54.995323181152344","lng":"-7.322333812713623"},"fields":{"slug":"/section-directory-content/cafes/austins-rooftop-and-cafe-mezzo-restaurants/"}}},{"node":{"frontmatter":{"title":"Ben and Jerrys Partnershop","category":"Cafes","county":"Derry","type":"Content","excerpt":null,"address":"Ben and Jerry's Partnershop, Unit 3D Richmond Centre, Derry, Derry, BT48 6PE","tel":"+44 (0)28 7137 3858","images":null,"lat":"54.9918098449707","lng":"-7.320168972015381"},"fields":{"slug":"/section-directory-content/cafes/ben-and-jerrys-partnershop/"}}},{"node":{"frontmatter":{"title":"Craigville Garden Centre and Coffee Shop","category":"Cafes","county":"Fermanagh","type":"Content","excerpt":null,"address":"Sligo Road, Enniskillen, Co. Fermanagh, BT74 7JY","tel":"+44 (0)28 6632 6004","images":null,"lat":"54.346771240234375","lng":"-7.645120143890381"},"fields":{"slug":"/section-directory-content/cafes/craigville-garden-centre-and-coffee-shop/"}}},{"node":{"frontmatter":{"title":"Cobalt Gallery Cafe","category":"Cafes","county":"Dublin","type":"Content","excerpt":null,"address":"16 North Great Georges Street, Dublin City Centre, Co. Dublin, Dublin 1","tel":"+353 (0)18 73 0313","images":null,"lat":"53.35432815551758","lng":"-6.260533809661865"},"fields":{"slug":"/section-directory-content/cafes/cobalt-gallery-cafe/"}}},{"node":{"frontmatter":{"title":"Blooms Caf on the Walls","category":"Cafes","county":"Derry","type":"Content","excerpt":null,"address":"Blooms Caf?? on the Walls, Verbal Arts Centre Bishop Street, Derry, Co. Derry, BT48 6PU","tel":"+44 (0)28 7127 2517","images":null,"lat":"54.9918098449707","lng":"-7.320168972015381"},"fields":{"slug":"/section-directory-content/cafes/blooms-caf-on-the-walls/"}}},{"node":{"frontmatter":{"title":"Cafe Fresh","category":"Cafes","county":"Dublin","type":"Content","excerpt":null,"address":"Top Floor, Powerscourt Townhouse Centre, South William Street, Co. Dublin, 2","tel":"+353 (0)1 671 9669","images":null,"lat":"53.34228515625","lng":"-6.262270927429199"},"fields":{"slug":"/section-directory-content/cafes/cafe-fresh/"}}},{"node":{"frontmatter":{"title":"Embers Coffee House and Grill Bar","category":"Cafes","county":"Armagh","type":"Content","excerpt":null,"address":"Embers Coffee House and Grill Bar, 7 Market Street, Armagh, Armagh, BT61 7BN","tel":"+44 (0)28 3751 8544","images":null,"lat":"54.34708023071289","lng":"-6.648488998413086"},"fields":{"slug":"/section-directory-content/cafes/embers-coffee-house-and-grill-bar/"}}},{"node":{"frontmatter":{"title":"Days Bazaar Bookstore","category":"Cafes","county":"Westmeath","type":"Content","excerpt":null,"address":"30 - 32 Oliver Plunkett Street, Mullingar, Co. Westmeath","tel":"+353 (0)44 934 8251","images":null,"lat":"53.525028228759766","lng":"-7.343677520751953"},"fields":{"slug":"/section-directory-content/cafes/days-bazaar-bookstore/"}}},{"node":{"frontmatter":{"title":"Cafe Louis","category":"Cafes","county":"Derry","type":"Content","excerpt":null,"address":"Unit 4 Level One Richmond Centre Shipquay Street, Derry City, Derry, BT48 6PE","tel":"+44 (0)28 7126 4661","images":null,"lat":"54.9918098449707","lng":"-7.320168972015381"},"fields":{"slug":"/section-directory-content/cafes/cafe-louis/"}}},{"node":{"frontmatter":{"title":"Foodlife by Kylemore - Stephens Green Centre","category":"Cafes","county":"Dublin","type":"Content","excerpt":null,"address":"Stephen's Green Centre,, Grafton Street, Co. Dublin, Dublin 2","tel":"+353 (0)18 14 0600","images":null,"lat":"53.34181213378906","lng":"-6.259962558746338"},"fields":{"slug":"/section-directory-content/cafes/foodlife-by-kylemore---stephens-green-centre/"}}},{"node":{"frontmatter":{"title":"Glenariff Tea House and Craft Shop","category":"Cafes","county":"Antrim","type":"Content","excerpt":null,"address":"Glenariff Tea House, Glenariff Forest Park, Glenariffe, Antrim, BT44 0QX","tel":"+44 (0)28 2175 8769","images":null,"lat":"54.86907958984375","lng":"-6.2760701179504395"},"fields":{"slug":"/section-directory-content/cafes/glenariff-tea-house-and-craft-shop/"}}},{"node":{"frontmatter":{"title":"Glenarm Castle Estate and Walled Gardens","category":"Cafes","county":"Antrim","type":"Content","excerpt":null,"address":"2 Castle Demesne, Glenarm, Co. Antrim, BT44 0BQ","tel":"+44 (0)28 2884 1203","images":null,"lat":"54.85419845581055","lng":"-5.811985969543457"},"fields":{"slug":"/section-directory-content/cafes/glenarm-castle-estate-and-walled-gardens/"}}},{"node":{"frontmatter":{"title":"Fitzers Caf Temple Bar","category":"Cafes","county":"Dublin","type":"Content","excerpt":null,"address":"42 Temple Bar Square,, Temple Bar, Dublin city centre, Co. Dublin, Dublin 2","tel":"+353 (0)16 79 0440","images":null,"lat":"53.34540557861328","lng":"-6.263675212860107"},"fields":{"slug":"/section-directory-content/cafes/fitzers-caf-temple-bar/"}}},{"node":{"frontmatter":{"title":"Glor - Irish Music Entertainments Centre Cafe","category":"Cafes","county":"Clare","type":"Content","excerpt":null,"address":"Gl??r Irish Music Centre, Friars Walk, Ennis, Co. Clare","tel":"+353 (0)65 684 5370","images":null,"lat":"52.844566345214844","lng":"-8.977108001708984"},"fields":{"slug":"/section-directory-content/cafes/glor---irish-music-entertainments-centre-cafe/"}}},{"node":{"frontmatter":{"title":"Juice Caf","category":"Cafes","county":"Dublin","type":"Content","excerpt":null,"address":"78-83 South Great Georges Street,, Dublin city centre, Co. Dublin, Dublin 2","tel":"+353 (0)14 75 7856","images":null,"lat":"53.3433723449707","lng":"-6.26470422744751"},"fields":{"slug":"/section-directory-content/cafes/juice-caf/"}}},{"node":{"frontmatter":{"title":"Dundonald Old Mill","category":"Cafes","county":"Down","type":"Content","excerpt":null,"address":"Dundonald Old Mill, 231 Old Belfast Road, Belfast, Down, BT16 1XL","tel":"+44 (0)28 9048 5030","images":null,"lat":"54.59572982788086","lng":"-5.93630886077880"},"fields":{"slug":"/section-directory-content/cafes/dundonald-old-mill/"}}},{"node":{"frontmatter":{"title":"Hampers Coffee Shop","category":"Cafes","county":"Dublin","type":"Content","excerpt":null,"address":"Bank Of Ireland Arts Centre, Foster Place Temple Bar, Dublin City Centre, Co. Dublin, Dublin 2","tel":"+353 (0)16 71 2261","images":null,"lat":"53.345176696777344","lng":"-6.261281967163086"},"fields":{"slug":"/section-directory-content/cafes/hampers-coffee-shop/"}}},{"node":{"frontmatter":{"title":"Dittys Home Bakery And Coffee Shop","category":"Cafes","county":"Derry","type":"Content","excerpt":null,"address":"Dittys Home Bakery And Coffee Shop, 33 Rainey Street, Magherafelt, Derry, BT45 5AB","tel":"+44 (0)28 7963 3944","images":null,"lat":"54.777889251708984","lng":"-6.557708263397217"},"fields":{"slug":"/section-directory-content/cafes/dittys-home-bakery-and-coffee-shop/"}}},{"node":{"frontmatter":{"title":"Kilkenny Shop Cafe and Restaurant","category":"Cafes","county":"Dublin","type":"Content","excerpt":null,"address":"5-6 Nassau Street,, Dublin city centre, Co. Dublin, Dublin 2","tel":"+353 (0)16 77 7075","images":null,"lat":"53.34213638305664","lng":"-6.255129814147949"},"fields":{"slug":"/section-directory-content/cafes/kilkenny-shop-cafe-and-restaurant/"}}},{"node":{"frontmatter":{"title":"Hunters Bakery","category":"Cafes","county":"Derry","type":"Content","excerpt":null,"address":"Hunters The Oven Door, 5-11 Market Street, Limavady, Derry, BT49 0AB","tel":"+44 (0)28 7772 2411","images":null,"lat":"55.05282974243164","lng":"-6.949748992919922"},"fields":{"slug":"/section-directory-content/cafes/hunters-bakery/"}}},{"node":{"frontmatter":{"title":"Kilkenny Disign Centre Cafe","category":"Cafes","county":"Kilkenny","type":"Content","excerpt":null,"address":"The Parade, Castle Yard, Kilkenny City, Co. Kilkenny","tel":"+353 (0)56 772 2118","images":null,"lat":"52.64984130859375","lng":"-7.24916934967041"},"fields":{"slug":"/section-directory-content/cafes/kilkenny-disign-centre-cafe/"}}},{"node":{"frontmatter":{"title":"Knotts Cake And Coffee Shop","category":"Cafes","county":"Down","type":"Content","excerpt":null,"address":"Knotts Cake And Coffee Shop, 49 High Street, Newtownards, Down, BT23 7HS","tel":"+44 (0)28 9181 9098","images":null,"lat":"54.594329833984375","lng":"-5.70030403137207"},"fields":{"slug":"/section-directory-content/cafes/knotts-cake-and-coffee-shop/"}}},{"node":{"frontmatter":{"title":"Lemon Crepe and Coffee Co.","category":"Cafes","county":"Dublin","type":"Content","excerpt":null,"address":"66 South William Street,, Dublin city centre, Co. Dublin, Dublin 1","tel":"+353 (0)16 72 9044","images":null,"lat":"53.34291076660156","lng":"-6.261990070343018"},"fields":{"slug":"/section-directory-content/cafes/lemon-crepe-and-coffee-co/"}}},{"node":{"frontmatter":{"title":"Muffler Expresso Bar","category":"Cafes","county":"Down","type":"Content","excerpt":null,"address":"Muffler Expresso Bar, McCanns 3 Comber Road, Killinchy, Co. Down, BT23 6PA","tel":"+44 (0)28 9754 1314","images":null,"lat":"54.594329833984375","lng":"-5.70030403137207"},"fields":{"slug":"/section-directory-content/cafes/muffler-expresso-bar/"}}},{"node":{"frontmatter":{"title":"Lucianos Caf Bar","category":"Cafes","county":"Antrim","type":"Content","excerpt":null,"address":"Grand Opera House Great Victoria Street, Belfast, Co. Antrim, BT2 7HR","tel":"+44 (0)28 9024 0411","images":null,"lat":"54.59572982788086","lng":"-5.936308860778809"},"fields":{"slug":"/section-directory-content/cafes/lucianos-caf-bar/"}}},{"node":{"frontmatter":{"title":"Kilkenny Design Craft Centre","category":"Cafes","county":"Kilkenny","type":"Content","excerpt":null,"address":"The Parade, Castle Yard, Kilkenny City, Co. Kilkenny","tel":"+353 (0)56 772 2118","images":null,"lat":"52.65336990356445","lng":"-7.261048316955566"},"fields":{"slug":"/section-directory-content/cafes/kilkenny-design-craft-centre/"}}},{"node":{"frontmatter":{"title":"McKees Coffee and Farm Shop","category":"Cafes","county":"Down","type":"Content","excerpt":null,"address":"McKees Coffee and Farm Shop, 28 Holywood Road, Newtownards, Co. Down, BT23 4TQ","tel":"+44 (0)28 9182 1304","images":null,"lat":"54.60618591308594","lng":"-5.78939962387085"},"fields":{"slug":"/section-directory-content/cafes/mckees-coffee-and-farm-shop/"}}},{"node":{"frontmatter":{"title":"Killybegs Maritime and Heritage Centre","category":"Cafes","county":"Donegal","type":"Content","excerpt":null,"address":"The Carpet Factory, Fintra Road, Killybegs, Co. Donegal","tel":"+353 (0)74 974 1944","images":null,"lat":"54.63166427612305","lng":"-8.449334144592285"},"fields":{"slug":"/section-directory-content/cafes/killybegs-maritime-and-heritage-centre/"}}},{"node":{"frontmatter":{"title":"Pretty Crafty Design Studio","category":"Cafes","county":"Derry","type":"Content","excerpt":null,"address":"Pretty Crafty Design Studio, 5 Springbank Road Castlerock, Coleraine, Co. Derry, BT51 4SA","tel":"+44 (0)28 7084 8146","images":null,"lat":"55.16653823852539","lng":"-6.787068843841553"},"fields":{"slug":"/section-directory-content/cafes/pretty-crafty-design-studio/"}}},{"node":{"frontmatter":{"title":"Rhubarb","category":"Cafes","county":"Antrim","type":"Content","excerpt":null,"address":"Rhubarb - Fresh Food Cafe, 2 Little Victoria Street, Belfast, Antrim, BT2 7JH","tel":"+44 (0)28 9020 0158","images":null,"lat":"54.59310531616211","lng":"-5.932264804840088"},"fields":{"slug":"/section-directory-content/cafes/rhubarb/"}}},{"node":{"frontmatter":{"title":"Northern Culture Cafe","category":"Cafes","county":"Antrim","type":"Content","excerpt":null,"address":"Northern Culture Cafe, 195 Shankill Road, Belfast, Co. Antrim, BT13 2BH","tel":"+44 (0)28 9033 2806","images":null,"lat":"54.60374450683594","lng":"-5.947591781616211"},"fields":{"slug":"/section-directory-content/cafes/northern-culture-cafe/"}}},{"node":{"frontmatter":{"title":"Mauds Ice Cream And Coffee Shop Carrickfergus","category":"Cafes","county":"Antrim","type":"Content","excerpt":null,"address":"Mauds Ice Cream And Coffee Shop Carrickfergus, Carrickfergus, Antrim","tel":"+44 (0)28 9336 7428","images":null,"lat":"54.715145111083984","lng":"-5.805984973907471"},"fields":{"slug":"/section-directory-content/cafes/mauds-ice-cream-and-coffee-shop-carrickfergus/"}}},{"node":{"frontmatter":{"title":"Rambling Rose Restaurant","category":"Cafes","county":"Down","type":"Content","excerpt":null,"address":"Rambling Rose Restaurant, Dicksons Garden Centre 79 Cootehall Road Crawfordsburn, Bangor, Co. Down, BT19 1UP","tel":"+44 (0)28 9185 3001","images":null,"lat":"54.64375305175781","lng":"-5.720742225646973"},"fields":{"slug":"/section-directory-content/cafes/rambling-rose-restaurant/"}}},{"node":{"frontmatter":{"title":"The Jolly Sandwich Bar","category":"Cafes","county":"Fermanagh","type":"Content","excerpt":null,"address":"The Jolly Sandwich Bar, 3 Darling Street, Enniskillen, Fermanagh, BT74 7DP","tel":"+44 (0)28 6632 2277","images":null,"lat":"54.346771240234375","lng":"-7.645120143890381"},"fields":{"slug":"/section-directory-content/cafes/the-jolly-sandwich-bar/"}}},{"node":{"frontmatter":{"title":"Russell and Donnelly Deli and Off Licence","category":"Cafes","county":"Fermanagh","type":"Content","excerpt":null,"address":"28 Darling Street, Enniskillen, Co. Fermanagh, BT74 7EW","tel":"+44 (0)28 6632 0111","images":null,"lat":"54.346641540527344","lng":"-7.6421895027160645"},"fields":{"slug":"/section-directory-content/cafes/russell-and-donnelly-deli-and-off-licence/"}}},{"node":{"frontmatter":{"title":"Nectar Juice Bar","category":"Cafes","county":"Dublin","type":"Content","excerpt":null,"address":"53 Ranelagh Village, Dublin City Area South, Co. Dublin, Dublin 6","tel":"+353 (0)14 91 0934","images":null,"lat":"53.324615478515625","lng":"-6.2538347244262695"},"fields":{"slug":"/section-directory-content/cafes/nectar-juice-bar/"}}},{"node":{"frontmatter":{"title":"S.D. Bell and Co. Ltd","category":"Cafes","county":"Antrim","type":"Content","excerpt":null,"address":"Tea and Coffee Specialists 516 Upper Newtownards Road Knock, Belfast, Co. Antrim, BT4 3HL","tel":"+44 (0)28 9047 1774","images":null,"lat":"54.594818115234375","lng":"-5.854179859161377"},"fields":{"slug":"/section-directory-content/cafes/sd-bell-and-co-ltd/"}}},{"node":{"frontmatter":{"title":"The Linen Barn Coffee Shop","category":"Cafes","county":"Armagh","type":"Content","excerpt":null,"address":"The Linen Barn Coffee Shop, 171 Plantation Road Portadown, Craigavon, Co. Armagh, BT63 5NN","tel":"+44 (0)28 3832 6397","images":null,"lat":"54.45169448852539","lng":"-6.397026062011719"},"fields":{"slug":"/section-directory-content/cafes/the-linen-barn-coffee-shop/"}}},{"node":{"frontmatter":{"title":"The Freedom Cafe","category":"Cafes","county":"Dublin","type":"Content","excerpt":null,"address":"48 Fleet Street, Temple Bar, Dublin City Centre, Co. Dublin, Dublin 2","tel":"+353 (0)16 77 6361","images":null,"lat":"53.34563446044922","lng":"-6.260753154754639"},"fields":{"slug":"/section-directory-content/cafes/the-freedom-cafe/"}}},{"node":{"frontmatter":{"title":"Soda Joes American Diner","category":"Cafes","county":"Antrim","type":"Content","excerpt":null,"address":"Soda Joe's American Diner, Odyssey Arena 2 Queens Quay, Belfast, Co. Antrim, BT3 9QQ","tel":"+44 (0)28 9045 8555","images":null,"lat":"54.59572982788086","lng":"-5.936308860778809"},"fields":{"slug":"/section-directory-content/cafes/soda-joes-american-diner/"}}},{"node":{"frontmatter":{"title":"The Olive Grove Cafe","category":"Cafes","county":"Derry","type":"Content","excerpt":null,"address":"within Homebase, Unit 1, Crescent Link Retail Park, Crescent Link Rd, Altnagelvin, Derry, Co. Derry BT47 6SA","tel":"028 7131 1116","images":null,"lat":"54.999444","lng":"-7.27254"},"fields":{"slug":"/section-directory-content/cafes/the-olive-grove-cafe/"}}},{"node":{"frontmatter":{"title":"The Marble City Bar and Tea Rooms","category":"Cafes","county":"Kilkenny","type":"Content","excerpt":null,"address":"High Street, Kieran Street, Kilkenny City, Co. Kilkenny","tel":"+353 (0)56 776 1143","images":null,"lat":"52.652713775634766","lng":"-7.248618125915527"},"fields":{"slug":"/section-directory-content/cafes/the-marble-city-bar-and-tea-rooms/"}}},{"node":{"frontmatter":{"title":"The Village Coffee House","category":"Cafes","county":"Fermanagh","type":"Content","excerpt":null,"address":"The Village Coffee House, Main Street, Belleek, Fermanagh, BT92 0JE","tel":"+44 (0)28 6865 8469","images":null,"lat":"54.25233459472656","lng":"-7.442254066467285"},"fields":{"slug":"/section-directory-content/cafes/the-village-coffee-house/"}}},{"node":{"frontmatter":{"title":"The Old Post Office Lisbane","category":"Cafes","county":"Down","type":"Content","excerpt":null,"address":"The Old Post Office Gallery, 191 Killinchy Road Comber, Newtownards, Co. Down, BT23 6AA","tel":"+44 (0)28 9754 3335","images":null,"lat":"54.594329833984375","lng":"-5.70030403137207"},"fields":{"slug":"/section-directory-content/cafes/the-old-post-office-lisbane/"}}},{"node":{"frontmatter":{"title":"Zio Newcastle","category":"Cafes","county":"Down","type":"Content","excerpt":null,"address":"31 Main Street, Newcastle, Co. Down BT33 0AD, Newcastle, Co. Down, BT33 0AD","tel":"+44 (0)28 4372 3080","images":null,"lat":"54.21384811401367","lng":"-5.889068126678467"},"fields":{"slug":"/section-directory-content/cafes/zio-newcastle/"}}},{"node":{"frontmatter":{"title":"South Street Cafe","category":"Cafes","county":"Dublin","type":"Content","excerpt":null,"address":"South Great Georges Street,, Dublin city centre, Co. Dublin, Dublin 2","tel":"+353 (0)14 75 2312","images":null,"lat":"53.34291458129883","lng":"-6.264692783355713"},"fields":{"slug":"/section-directory-content/cafes/south-street-cafe/"}}}]}},"pageContext":{"isCreatedByStatefulCreatePages":false,"slug":"/section-directory/cafes/","category":"Cafes"}}}