{"componentChunkName":"component---src-templates-section-directory-js","path":"/section-directory/sailing/","webpackCompilationHash":"","result":{"data":{"markdownRemark":{"html":"","frontmatter":{"category":"Sailing"}},"allMarkdownRemark":{"distinct":["Antrim","Armagh","Clare","Cork","Derry","Donegal","Down","Dublin","Fermanagh","Galway","Kerry","Louth","Mayo","Offaly","Roscommon","Sligo","Waterford","Westmeath","Wexford","Wicklow"],"edges":[{"node":{"frontmatter":{"title":"Ardglass Marina","category":"Sailing","county":"Down","type":"Content","excerpt":null,"address":"Ardglass Marina, 19 Quay Street, Ardglass, Down, BT30 7SA","tel":"+44 (0)28 4484 2332","images":null,"lat":"54.26125717163086","lng":"-5.607643127441406"},"fields":{"slug":"/section-directory-content/sailing/ardglass-marina/"}}},{"node":{"frontmatter":{"title":"Atlantic Boating Services","category":"Sailing","county":"Cork","type":"Content","excerpt":null,"address":"Regal Industrial Estate, Skibbereen, Co. Cork","tel":"+353 (0)28 22 145","images":null,"lat":"51.54901123046875","lng":"-9.267895698547363"},"fields":{"slug":"/section-directory-content/sailing/atlantic-boating-services/"}}},{"node":{"frontmatter":{"title":"Ballycastle Marina","category":"Sailing","county":"Antrim","type":"Content","excerpt":null,"address":"Ballycastle Marina, 14 Bayview Road, Ballycastle, Co. Antrim, BT54 6BT","tel":"+44 (0)28 2076 8525","images":null,"lat":"55.20366287231445","lng":"-6.243484020233154"},"fields":{"slug":"/section-directory-content/sailing/ballycastle-marina/"}}},{"node":{"frontmatter":{"title":"Birr Outdoor Education Centre","category":"Sailing","county":"Offaly","type":"Content","excerpt":null,"address":"Roscrea Road, Birr, Co. Offaly","tel":"+353 (0)57 912 0029","images":null,"lat":"53.09666442871094","lng":"-7.926122188568115"},"fields":{"slug":"/section-directory-content/sailing/birr-outdoor-education-centre/"}}},{"node":{"frontmatter":{"title":"Breckenhill Ltd","category":"Sailing","county":"Antrim","type":"Content","excerpt":null,"address":"45, Breckenhill Road, Doagh, Ballyclare, Co. Antrim, BT39 0TB","tel":"028 9334 0311","images":null,"lat":"054.7884620000","lng":"-006.0715240000"},"fields":{"slug":"/section-directory-content/sailing/breckenhill-ltd/"}}},{"node":{"frontmatter":{"title":"Burren Outdoor Education Centre","category":"Sailing","county":"Clare","type":"Content","excerpt":null,"address":"Turlough, Bellharbour, Co. Clare","tel":"+353 (0)65 707 8066","images":null,"lat":"53.09101867675781","lng":"-9.075420379638672"},"fields":{"slug":"/section-directory-content/sailing/burren-outdoor-education-centre/"}}},{"node":{"frontmatter":{"title":"Asgard II","category":"Sailing","county":"Dublin","type":"Content","excerpt":null,"address":"Coiste an Asgard, Colaiste Caoimhin, St.Mobhi Road, Glasnevin, Co. Dublin","tel":"+353 (0)16 79 2169","images":null,"lat":"53.33000183105469","lng":"-6.25"},"fields":{"slug":"/section-directory-content/sailing/asgard-ii/"}}},{"node":{"frontmatter":{"title":"Craigavon Watersports Centre","category":"Sailing","county":"Armagh","type":"Content","excerpt":null,"address":"Craigavon Waterports Centre, 1 Lake Road, Craigavon, Co. Armagh, BT64 1AS","tel":"+44 (0)28 3834 2669","images":null,"lat":"54.449581146240234","lng":"-6.383068561553955"},"fields":{"slug":"/section-directory-content/sailing/craigavon-watersports-centre/"}}},{"node":{"frontmatter":{"title":"Bow Waves - Galway Sailing and Powerboat School","category":"Sailing","county":"Galway","type":"Content","excerpt":null,"address":"Bow Waves, Galway Sailing and Powerboat School, Harbour Enterprise Park, Co. Galway","tel":"+353 (0)91 56 0560","images":null,"lat":"53.27217483520508","lng":"-9.049474716186523"},"fields":{"slug":"/section-directory-content/sailing/bow-waves---galway-sailing-and-powerboat-school/"}}},{"node":{"frontmatter":{"title":"Coleraine Yacht Club","category":"Sailing","county":"Derry","type":"Content","excerpt":null,"address":"The Marina, 4, Portstewart Rd, Coleraine, Co. Derry BT52 1RN","tel":"028 7034 4503","images":null,"lat":"55.140541","lng":"-6.667256"},"fields":{"slug":"/section-directory-content/sailing/coleraine-yacht-club/"}}},{"node":{"frontmatter":{"title":"Cape Clear Island Adventure Centre","category":"Sailing","county":"Cork","type":"Content","excerpt":null,"address":"Cape Clear Island, Skibbereen, Co. Cork","tel":"+353 (0)28 39 198","images":null,"lat":"51.43318176269531","lng":"-9.495702743530273"},"fields":{"slug":"/section-directory-content/sailing/cape-clear-island-adventure-centre/"}}},{"node":{"frontmatter":{"title":"Cappanalea Outdoor Education Centre","category":"Sailing","county":"Kerry","type":"Content","excerpt":null,"address":"Caragh Lake, Killorglin, Co. Kerry","tel":"+353 (0)66 976 9244","images":null,"lat":"52.04526901245117","lng":"-9.864297866821289"},"fields":{"slug":"/section-directory-content/sailing/cappanalea-outdoor-education-centre/"}}},{"node":{"frontmatter":{"title":"Dunmore East Adventure Centre","category":"Sailing","county":"Waterford","type":"Content","excerpt":null,"address":"Stoney Cove, Dunmore East, Co. Waterford","tel":"+353 (0)51 38 3783","images":null,"lat":"52.1484260559082","lng":"-7.005855083465576"},"fields":{"slug":"/section-directory-content/sailing/dunmore-east-adventure-centre/"}}},{"node":{"frontmatter":{"title":"Carlingford Adventure Centre","category":"Sailing","county":"Louth","type":"Content","excerpt":null,"address":"Thosel Street, Carlingford, Co. Louth","tel":"+353 (0)42 937 3100","images":null,"lat":"54.037899017333984","lng":"-6.186023712158203"},"fields":{"slug":"/section-directory-content/sailing/carlingford-adventure-centre/"}}},{"node":{"frontmatter":{"title":"Carrickfergus Marina","category":"Sailing","county":"Antrim","type":"Content","excerpt":null,"address":"Carrickfergus Borough Council, 3 Quayside, Carrickfergus, Co. Antrim, BT38 8BJ","tel":"+44 (0)28 9336 6666","images":null,"lat":"54.71000671386719","lng":"-5.815503120422363"},"fields":{"slug":"/section-directory-content/sailing/carrickfergus-marina/"}}},{"node":{"frontmatter":{"title":"Fenit Harbour Marina","category":"Sailing","county":"Kerry","type":"Content","excerpt":null,"address":"Tralee And Fenit Harbour Commissioners, Fenit, Co. Kerry","tel":"+353 (0)66 713 6231","images":null,"lat":"52.2730712890625","lng":"-9.87460708618164"},"fields":{"slug":"/section-directory-content/sailing/fenit-harbour-marina/"}}},{"node":{"frontmatter":{"title":"Foyle Pontoon","category":"Sailing","county":"Derry","type":"Content","excerpt":null,"address":"Foyle Pontoon, Derry Port Port Road, Lisahally, Co. Derry, BT47 6FL","tel":"+44 (0)28 7186 0313 (24 hours)","images":null,"lat":"54.9918098449707","lng":"-7.320168972015381"},"fields":{"slug":"/section-directory-content/sailing/foyle-pontoon/"}}},{"node":{"frontmatter":{"title":"ISI Ireland","category":"Sailing","county":"Dublin","type":"Content","excerpt":null,"address":"4 Meetinghouse Lane, Mary's Abbey, Dublin City Area North, Co. Dublin, Dublin 7","tel":"+353 (0)1 872 7888","images":null,"lat":"53.34772872924805","lng":"-6.269557476043701"},"fields":{"slug":"/section-directory-content/sailing/isi-ireland/"}}},{"node":{"frontmatter":{"title":"Kilkee Diving And Watersports Centre","category":"Sailing","county":"Clare","type":"Content","excerpt":null,"address":"East End, Kilkee, Co. Clare","tel":"+353 (0)65 905 6707","images":null,"lat":"52.68075180053711","lng":"-9.656612396240234"},"fields":{"slug":"/section-directory-content/sailing/kilkee-diving-and-watersports-centre/"}}},{"node":{"frontmatter":{"title":"Fastnet Marine And Outdoor Education Centre","category":"Sailing","county":"Cork","type":"Content","excerpt":null,"address":"Schull Community College, Colla Road, Schull, Co. Cork","tel":"+353 (0)28 28 315","images":null,"lat":"51.52286148071289","lng":"-9.54739761352539"},"fields":{"slug":"/section-directory-content/sailing/fastnet-marine-and-outdoor-education-centre/"}}},{"node":{"frontmatter":{"title":"Irish Marine Federation","category":"Sailing","county":"Dublin","type":"Content","excerpt":null,"address":"Confederation House, 84-86 Lower Baggot Street, Dublin City Centre, Co. Dublin","tel":"+353 (0)16 05 1621","images":null,"lat":"53.33521270751953","lng":"-6.247291088104248"},"fields":{"slug":"/section-directory-content/sailing/irish-marine-federation/"}}},{"node":{"frontmatter":{"title":"Killyleagh Yacht Club","category":"Sailing","county":"Down","type":"Content","excerpt":null,"address":"Killyleagh Yacht Club, 22 Cuan Beach, Kilyleagh, Co. Down, BT30 9OU","tel":"+44 (0)28 4482 8250","images":null,"lat":"54.32788848876953","lng":"-5.716700077056885"},"fields":{"slug":"/section-directory-content/sailing/killyleagh-yacht-club/"}}},{"node":{"frontmatter":{"title":"Dingle Sailing Centre","category":"Sailing","county":"Kerry","type":"Content","excerpt":null,"address":"The Marina Centre, Dingle, Co. Kerry","tel":"+353 (0)66 915 2603","images":null,"lat":"52.13877868652344","lng":"-10.272298812866211"},"fields":{"slug":"/section-directory-content/sailing/dingle-sailing-centre/"}}},{"node":{"frontmatter":{"title":"Lakeside Leisure Blessington","category":"Sailing","county":"Wicklow","type":"Content","excerpt":null,"address":"Burgage, Blessington, Co. Wicklow","tel":"+353 (0)45 86 5092","images":null,"lat":"53.16781997680664","lng":"-6.53480863571167"},"fields":{"slug":"/section-directory-content/sailing/lakeside-leisure-blessington/"}}},{"node":{"frontmatter":{"title":"Gannetsway Sailing","category":"Sailing","county":"Cork","type":"Content","excerpt":null,"address":"Horseshoe Cottage, Sherkin Island, Skibbereen, Co. Cork","tel":"+353 (0)28 20 598","images":null,"lat":"51.47804641723633","lng":"-9.427504539489746"},"fields":{"slug":"/section-directory-content/sailing/gannetsway-sailing/"}}},{"node":{"frontmatter":{"title":"Glenarm Marina","category":"Sailing","county":"Antrim","type":"Content","excerpt":null,"address":"Glenarm Harbour, Glenarm, Co. Antrim, BT44 0EA","tel":"+44 (0)28 2884 1285","images":null,"lat":"54.86907958984375","lng":"-6.2760701179504395"},"fields":{"slug":"/section-directory-content/sailing/glenarm-marina/"}}},{"node":{"frontmatter":{"title":"Glenans Irish Sailing Club","category":"Sailing","county":"Mayo","type":"Content","excerpt":null,"address":"Collanmore Island, Rosmoney, Westport, Co. Mayo","tel":"+353 (0)98 26 046","images":null,"lat":"53.8229866027832","lng":"-9.62343692779541"},"fields":{"slug":"/section-directory-content/sailing/glenans-irish-sailing-club/"}}},{"node":{"frontmatter":{"title":"Mullingar Sailing Club","category":"Sailing","county":"Westmeath","type":"Content","excerpt":null,"address":"Lough Owel, Mullingar, Co. Westmeath","tel":"+353 (0)44 934 2058","images":null,"lat":"53.566200256347656","lng":"-7.3605732917785645"},"fields":{"slug":"/section-directory-content/sailing/mullingar-sailing-club/"}}},{"node":{"frontmatter":{"title":"Coney Island","category":"Sailing","county":"Armagh","type":"Content","excerpt":null,"address":"Kinnego Marina Caravan Park, Kinnego Marina Oxford island Annaloiste Road, Lurgan, Co. Armagh, BT66 6NJ","tel":"+44 (0)28 3832 7573","images":null,"lat":"54.462921142578125","lng":"-6.33630895614624"},"fields":{"slug":"/section-directory-content/sailing/coney-island/"}}},{"node":{"frontmatter":{"title":"Lough Ree Yacht Club","category":"Sailing","county":"Westmeath","type":"Content","excerpt":null,"address":"Ballyglass, Coosan, Athlone, Co. Westmeath","tel":"+353 (0)90 647 5976","images":null,"lat":"53.46482849121094","lng":"-7.928720474243164"},"fields":{"slug":"/section-directory-content/sailing/lough-ree-yacht-club/"}}},{"node":{"frontmatter":{"title":"National Water Sports Centre","category":"Sailing","county":"Donegal","type":"Content","excerpt":null,"address":"Lakeside Centre, Belleek Road, Ballyshannon, Co. Donegal","tel":"+353 (0)71 982 2922","images":null,"lat":"54.502723693847656","lng":"-8.18855094909668"},"fields":{"slug":"/section-directory-content/sailing/national-water-sports-centre/"}}},{"node":{"frontmatter":{"title":"Leaders Charter Ltd.","category":"Sailing","county":"Mayo","type":"Content","excerpt":null,"address":"Leader Charters Ltd., Upper Quay, Westport, Co. Mayo","tel":"+353 (0)86 809 0476","images":null,"lat":"53.799705505371094","lng":"-9.522770881652832"},"fields":{"slug":"/section-directory-content/sailing/leaders-charter-ltd/"}}},{"node":{"frontmatter":{"title":"Fingal Sailing School","category":"Sailing","county":"Dublin","type":"Content","excerpt":null,"address":"Upper Strand, Broadmeadow Estuary, Malahide, Co. Dublin, Fingal","tel":"+353 (0)1 845 1979","images":null,"lat":"53.44196319580078","lng":"-6.163577556610107"},"fields":{"slug":"/section-directory-content/sailing/fingal-sailing-school/"}}},{"node":{"frontmatter":{"title":"Newtownards Sailing Club","category":"Sailing","county":"Down","type":"Content","excerpt":null,"address":"Newtownards Sailing Club, Portaferry Road, Newtownards, Down, BT22 2AH","tel":"+44 (0)28 9181 3426","images":null,"lat":"54.594329833984375","lng":"-5.70030403137207"},"fields":{"slug":"/section-directory-content/sailing/newtownards-sailing-club/"}}},{"node":{"frontmatter":{"title":"NORTH SOUTH MARINE and LEISURE","category":"Sailing","county":"Fermanagh","type":"Content","excerpt":null,"address":"Dp1, Farranasculloge, Lisnaskea, Enniskillen, Co. Fermanagh BT92 0AW","tel":"028 6744 9390","images":null,"lat":"054.2408210000","lng":"-007.4412000000"},"fields":{"slug":"/section-directory-content/sailing/north-south-marine-and-leisure/"}}},{"node":{"frontmatter":{"title":"Shannon Princess","category":"Sailing","county":"Westmeath","type":"Content","excerpt":null,"address":"Ballykeeran Lakeside Marina, Athlone, Co. Westmeath","tel":"+353 (0)87 251 4809","images":null,"lat":"53.42523193359375","lng":"-7.9304118156433105"},"fields":{"slug":"/section-directory-content/sailing/shannon-princess/"}}},{"node":{"frontmatter":{"title":"Lakeside Watersports Centre","category":"Sailing","county":"Clare","type":"Content","excerpt":null,"address":"Mountshannon, Mountshannon, Co. Clare","tel":"+353 (0)61 92 7225","images":null,"lat":"52.92449951171875","lng":"-8.445913314819336"},"fields":{"slug":"/section-directory-content/sailing/lakeside-watersports-centre/"}}},{"node":{"frontmatter":{"title":"Shielbaggan Outdoor Education Centre","category":"Sailing","county":"Wexford","type":"Content","excerpt":null,"address":"Ramsgrange, New Ross, Co. Wexford","tel":"+353 (0)51 38 9550","images":null,"lat":"52.39106369018555","lng":"-6.942417144775391"},"fields":{"slug":"/section-directory-content/sailing/shielbaggan-outdoor-education-centre/"}}},{"node":{"frontmatter":{"title":"Mullaghmore Sailing Club and Centre Ltd","category":"Sailing","county":"Sligo","type":"Content","excerpt":null,"address":"Mullaghmore, Cliffoney, Co. Sligo","tel":"+353 (0)71 44 392","images":null,"lat":"54.46394348144531","lng":"-8.45063304901123"},"fields":{"slug":"/section-directory-content/sailing/mullaghmore-sailing-club-and-centre-ltd/"}}},{"node":{"frontmatter":{"title":"Tollymore National Outdoor Centre","category":"Sailing","county":"Down","type":"Content","excerpt":null,"address":"Bryansford Village, Newcastle, Co. Down BT33 0PT","tel":"02843 443246","images":null,"lat":"054.2299970000","lng":"-005.9322200000"},"fields":{"slug":"/section-directory-content/sailing/tollymore-national-outdoor-centre/"}}},{"node":{"frontmatter":{"title":"The Irish Sailing Academy","category":"Sailing","county":"Roscommon","type":"Content","excerpt":null,"address":"Hodson Bay, Athlone, Co. Roscommon","tel":"+353 (0)49 952 9750","images":null,"lat":"53.42805480957031","lng":"-7.943611145019531"},"fields":{"slug":"/section-directory-content/sailing/the-irish-sailing-academy/"}}},{"node":{"frontmatter":{"title":"Valentia Island Sea Sports and Adventure Centre","category":"Sailing","county":"Kerry","type":"Content","excerpt":null,"address":"Knightstown, Valentia Island, Co. Kerry","tel":"+353 (0)66 947 6204","images":null,"lat":"51.92509460449219","lng":"-10.290797233581543"},"fields":{"slug":"/section-directory-content/sailing/valentia-island-sea-sports-and-adventure-centre/"}}},{"node":{"frontmatter":{"title":"Sandy Bay Marina","category":"Sailing","county":"Antrim","type":"Content","excerpt":null,"address":"Eastwood Estate Agents, 17A Lough Road Glenavy, Lisburn, Co. Antrim, BT28 2LQ","tel":"+44 (0)28 9266 5870","images":null,"lat":"54.574954986572266","lng":"-6.276520252227783"},"fields":{"slug":"/section-directory-content/sailing/sandy-bay-marina/"}}},{"node":{"frontmatter":{"title":"South East Cruising School","category":"Sailing","county":"Wicklow","type":"Content","excerpt":null,"address":"7 Glenvale Park, Wicklow, Co. Wicklow","tel":"+353 (0)40 46 9970","images":null,"lat":"52.972225189208984","lng":"-6.049603462219238"},"fields":{"slug":"/section-directory-content/sailing/south-east-cruising-school/"}}},{"node":{"frontmatter":{"title":"Quoile Yacht Club","category":"Sailing","county":"Down","type":"Content","excerpt":null,"address":"Quoile Yacht Club, 31 Castle Island Road, Downpatrick, Down, BT30 7LD","tel":"+44 (0)28 4461 2266","images":null,"lat":"54.366851806640625","lng":"-5.679356098175049"},"fields":{"slug":"/section-directory-content/sailing/quoile-yacht-club/"}}},{"node":{"frontmatter":{"title":"Tri Sailing Club","category":"Sailing","county":"Dublin","type":"Content","excerpt":null,"address":"24 Elmcastle Green, Tallaght, Dublin 24","tel":"+353 (0)14 51 5512","images":null,"lat":"53.301048278808594","lng":"-6.3551506996154785"},"fields":{"slug":"/section-directory-content/sailing/tri-sailing-club/"}}},{"node":{"frontmatter":{"title":"Ulster Sailing School","category":"Sailing","county":"Antrim","type":"Content","excerpt":null,"address":"77a, Irish Quarter West, Carrickfergus, Co. Antrim BT38 8AT","tel":"028 9332 6304","images":null,"lat":"54.714722","lng":"-5.81262"},"fields":{"slug":"/section-directory-content/sailing/ulster-sailing-school/"}}},{"node":{"frontmatter":{"title":"Portaferry Marina","category":"Sailing","county":"Down","type":"Content","excerpt":null,"address":"11 The Strand, Portaferry, Co. Down, BT22 1PF","tel":"+44 (0)28 4272 9598","images":null,"lat":"54.38127517700195","lng":"-5.550124168395996"},"fields":{"slug":"/section-directory-content/sailing/portaferry-marina/"}}},{"node":{"frontmatter":{"title":"Scouting Ireland Sea Training -Dun Laoghaire","category":"Sailing","county":"Dublin","type":"Content","excerpt":null,"address":"Larch Hill, Co. Dublin, Dublin 16","tel":"+353 (0)14 95 6300","images":null,"lat":"53.25456237792969","lng":"-6.283754348754883"},"fields":{"slug":"/section-directory-content/sailing/scouting-ireland-sea-training--dun-laoghaire/"}}},{"node":{"frontmatter":{"title":"Wexford Harbour Boat Club","category":"Sailing","county":"Wexford","type":"Content","excerpt":null,"address":"Redmond Road, Wexford, Co. Wexford","tel":"+353 (0)53 91 47 504","images":null,"lat":"52.333595275878906","lng":"-6.472615718841553"},"fields":{"slug":"/section-directory-content/sailing/wexford-harbour-boat-club/"}}}]}},"pageContext":{"isCreatedByStatefulCreatePages":false,"slug":"/section-directory/sailing/","category":"Sailing"}}}