{"componentChunkName":"component---src-templates-section-directory-js","path":"/section-directory/water-skiing/","webpackCompilationHash":"","result":{"data":{"markdownRemark":{"html":"","frontmatter":{"category":"Water Skiing"}},"allMarkdownRemark":{"distinct":["Armagh","Cork","Dublin","Galway","Kerry","Limerick","Meath","Monaghan","Wexford","Wicklow"],"edges":[{"node":{"frontmatter":{"title":"Derrynane Sea Sports","category":"Water Skiing","county":"Kerry","type":"Content","excerpt":null,"address":"Derrynane, Caherdaniel, Co. Kerry","tel":"+353 (0)66 947 5266","images":null,"lat":"51.76478576660156","lng":"-10.129175186157227"},"fields":{"slug":"/section-directory-content/water-skiing/derrynane-sea-sports/"}}},{"node":{"frontmatter":{"title":"Cork Power Boat and Water Ski Club","category":"Water Skiing","county":"Cork","type":"Content","excerpt":null,"address":"Agherinagh, Lower Dripsey, Co. Cork","tel":"+353 (0)21 733 4605","images":null,"lat":"51.91210174560547","lng":"-8.729474067687988"},"fields":{"slug":"/section-directory-content/water-skiing/cork-power-boat-and-water-ski-club/"}}},{"node":{"frontmatter":{"title":"Limerick Wake and Ski","category":"Water Skiing","county":"Limerick","type":"Content","excerpt":null,"address":"Castleconnell, Co. Limerick","tel":"+353 (0)87 786 8689","images":null,"lat":"52.713890075683594","lng":"-8.499444007873535"},"fields":{"slug":"/section-directory-content/water-skiing/limerick-wake-and-ski/"}}},{"node":{"frontmatter":{"title":"Total Experience - Mobile Activities Events Company","category":"Water Skiing","county":"Wicklow","type":"Content","excerpt":null,"address":"Blessington, Co. Wicklow","tel":"+353 (0)86 872 4894","images":null,"lat":"53.170413970947266","lng":"-6.534420967102051"},"fields":{"slug":"/section-directory-content/water-skiing/total-experience---mobile-activities-events-company/"}}},{"node":{"frontmatter":{"title":"Irish Aquatic Sports Centre","category":"Water Skiing","county":"Meath","type":"Content","excerpt":null,"address":"Arodstown, Summerhill, Co. Meath","tel":"+353 (0)86 601 6340","images":null,"lat":"53.49708557128906","lng":"-6.675666332244873"},"fields":{"slug":"/section-directory-content/water-skiing/irish-aquatic-sports-centre/"}}},{"node":{"frontmatter":{"title":"Golden Falls Water Ski Club","category":"Water Skiing","county":"Dublin","type":"Content","excerpt":null,"address":"Irish Waterski Federation, Knocknacree Road, Dalkey, Co. Dublin","tel":"+353 87 668 6225","images":null,"lat":"53.12388610839844","lng":"-6.610247611999512"},"fields":{"slug":"/section-directory-content/water-skiing/golden-falls-water-ski-club/"}}},{"node":{"frontmatter":{"title":"Lough Muckno Water Ski Club","category":"Water Skiing","county":"Monaghan","type":"Content","excerpt":null,"address":"Muckno Lake, Castleblayney, Co. Monaghan","tel":"+353 (0)87 249 1305","images":null,"lat":"54.114200592041016","lng":"-6.745362281799316"},"fields":{"slug":"/section-directory-content/water-skiing/lough-muckno-water-ski-club/"}}},{"node":{"frontmatter":{"title":"Carrig Waterski and Wakeboard Centre","category":"Water Skiing","county":"Cork","type":"Content","excerpt":null,"address":"Caum Cross, Carrigadrohid, Macroom, Co. Cork","tel":"+353 (0)86 859 4327","images":null,"lat":"51.90161895751953","lng":"-8.877429008483887"},"fields":{"slug":"/section-directory-content/water-skiing/carrig-waterski-and-wakeboard-centre/"}}},{"node":{"frontmatter":{"title":"Wexford Harbour Boat Club","category":"Water Skiing","county":"Wexford","type":"Content","excerpt":null,"address":"Redmond Road, Wexford, Co. Wexford","tel":"+353 (0)53 91 47 504","images":null,"lat":"52.333595275878906","lng":"-6.472615718841553"},"fields":{"slug":"/section-directory-content/water-skiing/wexford-harbour-boat-club/"}}},{"node":{"frontmatter":{"title":"WaterMark Ski Club","category":"Water Skiing","county":"Galway","type":"Content","excerpt":null,"address":"WaterMark Ski Club, Lough Derg, Portumna, Co. Galway","tel":"+353 (0)87 257 3661","images":null,"lat":"53.089168548583984","lng":"-8.218889236450195"},"fields":{"slug":"/section-directory-content/water-skiing/watermark-ski-club/"}}},{"node":{"frontmatter":{"title":"Craigavon Watersports Centre","category":"Water Skiing","county":"Armagh","type":"Content","excerpt":null,"address":"Craigavon Waterports Centre, 1 Lake Road, Craigavon, Co. Armagh, BT64 1AS","tel":"+44 (0)28 3834 2669","images":null,"lat":"54.449581146240234","lng":"-6.383068561553955"},"fields":{"slug":"/section-directory-content/water-skiing/craigavon-watersports-centre/"}}}]}},"pageContext":{"isCreatedByStatefulCreatePages":false,"slug":"/section-directory/water-skiing/","category":"Water Skiing"}}}