{"componentChunkName":"component---src-templates-section-directory-js","path":"/section-directory/seafood-restaurants/","webpackCompilationHash":"","result":{"data":{"markdownRemark":{"html":"","frontmatter":{"category":"Seafood Restaurants"}},"allMarkdownRemark":{"distinct":["Cavan","Clare","Cork","Donegal","Down","Dublin","Galway","Kerry","Limerick","Mayo","Roscommon","Waterford","Wicklow"],"edges":[{"node":{"frontmatter":{"title":"Alex Restaurant","category":"Seafood Restaurants","county":"Dublin","type":"Content","excerpt":null,"address":"The Conrad Hotel,, Earlsfort Terrace, Dublin city centre, Co. Dublin, Dublin 2","tel":"+353 (0)16 02 8900","images":null,"lat":"53.33555603027344","lng":"-6.256809711456299"},"fields":{"slug":"/section-directory-content/seafood-restaurants/alex-restaurant/"}}},{"node":{"frontmatter":{"title":"Acorn Restaurant","category":"Seafood Restaurants","county":"Limerick","type":"Content","excerpt":null,"address":"Castle Oaks House Hotel, Castleconnell, Co. Limerick","tel":"+353 (0)61 37 7666","images":null,"lat":"52.735572814941406","lng":"-8.56226634979248"},"fields":{"slug":"/section-directory-content/seafood-restaurants/acorn-restaurant/"}}},{"node":{"frontmatter":{"title":"Arnies Bar And Restaurant","category":"Seafood Restaurants","county":"Kerry","type":"Content","excerpt":null,"address":"Tralee Golf Club, West Barrow, Ardfert, Co. Kerry","tel":"+353 (0)66 713 6074","images":null,"lat":"52.31023025512695","lng":"-9.838888168334961"},"fields":{"slug":"/section-directory-content/seafood-restaurants/arnies-bar-and-restaurant/"}}},{"node":{"frontmatter":{"title":"Ballinalacken Castle Country House and Restaurant","category":"Seafood Restaurants","county":"Clare","type":"Content","excerpt":null,"address":"Coast Road, Doolin, Lisdoonvarna, Co. Clare","tel":"+353 (0)65 707 4025","images":null,"lat":"53.0269889831543","lng":"-9.296793937683105"},"fields":{"slug":"/section-directory-content/seafood-restaurants/ballinalacken-castle-country-house-and-restaurant/"}}},{"node":{"frontmatter":{"title":"Becketts Bar and Restaurant","category":"Seafood Restaurants","county":"Waterford","type":"Content","excerpt":null,"address":"Becketts Bar, Knockboy, Waterford Outer City East, Co. Waterford","tel":"+353 (0)51 87 3082","images":null,"lat":"52.23102951049805","lng":"-7.062272071838379"},"fields":{"slug":"/section-directory-content/seafood-restaurants/becketts-bar-and-restaurant/"}}},{"node":{"frontmatter":{"title":"Bells and Bianconi Room","category":"Seafood Restaurants","county":"Waterford","type":"Content","excerpt":null,"address":"Granville Hotel, The Quay, Waterford City Centre, Co. Waterford","tel":"+353 (0)51 85 5111","images":null,"lat":"52.26203536987305","lng":"-7.108635425567627"},"fields":{"slug":"/section-directory-content/seafood-restaurants/bells-and-bianconi-room/"}}},{"node":{"frontmatter":{"title":"Chapter One Restaurant","category":"Seafood Restaurants","county":"Dublin","type":"Content","excerpt":null,"address":"18-19 Parnell Square, Basement of the Writer's Museum, Co. Dublin, Dublin 1","tel":"+353 (0)1 873 2266","images":null,"lat":"53.355159759521484","lng":"-6.263248443603516"},"fields":{"slug":"/section-directory-content/seafood-restaurants/chapter-one-restaurant/"}}},{"node":{"frontmatter":{"title":"Castle Grove Country House and Restaurant","category":"Seafood Restaurants","county":"Donegal","type":"Content","excerpt":null,"address":"Ramelton Road, Letterkenny, Co. Donegal","tel":"+353 (0)74 915 1118","images":null,"lat":"54.94715881347656","lng":"-7.7328410148620605"},"fields":{"slug":"/section-directory-content/seafood-restaurants/castle-grove-country-house-and-restaurant/"}}},{"node":{"frontmatter":{"title":"Anglers Rest","category":"Seafood Restaurants","county":"Dublin","type":"Content","excerpt":null,"address":"Knockmarron Hill,, Strawberry Beds, Chapelizod, Co. Dublin, South Dublin","tel":"+353 (0)18 20 8314","images":null,"lat":"53.35913848876953","lng":"-6.3589043617248535"},"fields":{"slug":"/section-directory-content/seafood-restaurants/anglers-rest/"}}},{"node":{"frontmatter":{"title":"Bon Appetit Restaurant","category":"Seafood Restaurants","county":"Dublin","type":"Content","excerpt":null,"address":"9 St. James Terrace, Malahide, Co. Dublin, Fingal","tel":"+353 (0)1 845 0314","images":null,"lat":"53.44115447998047","lng":"-6.163462162017822"},"fields":{"slug":"/section-directory-content/seafood-restaurants/bon-appetit-restaurant/"}}},{"node":{"frontmatter":{"title":"Chez Ks at the Fitzwilton Hotel","category":"Seafood Restaurants","county":"Waterford","type":"Content","excerpt":null,"address":"At the Fitzwilton Hotel, Bridge Street,, Waterford City","tel":"+353 (0)51 84 69 00","images":null,"lat":"52.258914947509766","lng":"-7.104846000671387"},"fields":{"slug":"/section-directory-content/seafood-restaurants/chez-ks-at-the-fitzwilton-hotel/"}}},{"node":{"frontmatter":{"title":"Coopers Kiltiernan","category":"Seafood Restaurants","county":"Dublin","type":"Content","excerpt":null,"address":"The Golden Ball, Kiltiernan, Kilternan, Co. Dublin","tel":"+353 (0)12 95 9349","images":null,"lat":"53.235164642333984","lng":"-6.203158855438232"},"fields":{"slug":"/section-directory-content/seafood-restaurants/coopers-kiltiernan/"}}},{"node":{"frontmatter":{"title":"Fitzers Cafe Dawson Street","category":"Seafood Restaurants","county":"Dublin","type":"Content","excerpt":null,"address":"51 Dawson Street, Dublin City Centre, Co. Dublin, Dublin 2","tel":"+353 (0)16 77 1155","images":null,"lat":"53.34147644042969","lng":"-6.2585649490356445"},"fields":{"slug":"/section-directory-content/seafood-restaurants/fitzers-cafe-dawson-street/"}}},{"node":{"frontmatter":{"title":"Druids Restaurant At The Lansdowne Hotel","category":"Seafood Restaurants","county":"Dublin","type":"Content","excerpt":null,"address":"Landsdowne Hotel, 27 to 29 Pembroke Road, Dublin City Area South, Co. Dublin","tel":"+353 (0)16 68 2522","images":null,"lat":"53.33171463012695","lng":"-6.2355756759643555"},"fields":{"slug":"/section-directory-content/seafood-restaurants/druids-restaurant-at-the-lansdowne-hotel/"}}},{"node":{"frontmatter":{"title":"Crockets on the Quay Restaurant and Bar","category":"Seafood Restaurants","county":"Mayo","type":"Content","excerpt":null,"address":"Crockets on the Quay, Restaurant and Bar, The Quay, Ballina, Co. Mayo","tel":"+353 (0)96 75 930","images":null,"lat":"54.131553649902344","lng":"-9.137234687805176"},"fields":{"slug":"/section-directory-content/seafood-restaurants/crockets-on-the-quay-restaurant-and-bar/"}}},{"node":{"frontmatter":{"title":"Fitzers Cafe National Gallery","category":"Seafood Restaurants","county":"Dublin","type":"Content","excerpt":null,"address":"Millennium Wing National Gallery, Merrion Square, Dublin City Centre, Co. Dublin, Dublin 2","tel":"+353 (0)16 63 3500","images":null,"lat":"53.3414192199707","lng":"-6.252036094665527"},"fields":{"slug":"/section-directory-content/seafood-restaurants/fitzers-cafe-national-gallery/"}}},{"node":{"frontmatter":{"title":"Freddys Bistro","category":"Seafood Restaurants","county":"Limerick","type":"Content","excerpt":null,"address":"Theatre Lane, Lower Glentworth Street, Limerick City Centre, Co. Limerick","tel":"+353 (0)61 41 8749","images":null,"lat":"52.660213470458984","lng":"-8.627358436584473"},"fields":{"slug":"/section-directory-content/seafood-restaurants/freddys-bistro/"}}},{"node":{"frontmatter":{"title":"FXB Restaurant Pembroke Street","category":"Seafood Restaurants","county":"Dublin","type":"Content","excerpt":null,"address":"1A Lower Pembroke Street, Co. Dublin, 2","tel":"+353 (0)1 676 4606","images":null,"lat":"53.33735275268555","lng":"-6.2518720626831055"},"fields":{"slug":"/section-directory-content/seafood-restaurants/fxb-restaurant-pembroke-street/"}}},{"node":{"frontmatter":{"title":"Curran's Bar and Seafood Steakhouse","category":"Seafood Restaurants","county":"Down","type":"Content","excerpt":null,"address":"83, Strangford Rd, Ardglass, Downpatrick, Co. Down BT30 7SP","tel":"028 4484 1332","images":null,"lat":"54.280691","lng":"-5.591314"},"fields":{"slug":"/section-directory-content/seafood-restaurants/currans-bar-and-seafood-steakhouse/"}}},{"node":{"frontmatter":{"title":"Fitzpatricks Restaurant","category":"Seafood Restaurants","county":"Cork","type":"Content","excerpt":null,"address":"Manor Lodge, Cork Road, Waterford City, Co. Waterford","tel":"+353 (0)51 37 8851","images":null,"lat":"52.26154327392578","lng":"-7.121079921722412"},"fields":{"slug":"/section-directory-content/seafood-restaurants/fitzpatricks-restaurant/"}}},{"node":{"frontmatter":{"title":"Foleys Seafood And Steak Restaurant","category":"Seafood Restaurants","county":"Kerry","type":"Content","excerpt":null,"address":"23 High Street, Killarney, Co. Kerry","tel":"+353 (0)64 663 1217","images":null,"lat":"52.06106185913086","lng":"-9.51097297668457"},"fields":{"slug":"/section-directory-content/seafood-restaurants/foleys-seafood-and-steak-restaurant/"}}},{"node":{"frontmatter":{"title":"FXB Steak and Seafood Restaurant Temple Bar","category":"Seafood Restaurants","county":"Dublin","type":"Content","excerpt":null,"address":"2 Crow Street, Temple Bar, Co. Dublin, 2","tel":"+353 (0)1 671 1248","images":null,"lat":"53.34464645385742","lng":"-6.2639312744140625"},"fields":{"slug":"/section-directory-content/seafood-restaurants/fxb-steak-and-seafood-restaurant-temple-bar/"}}},{"node":{"frontmatter":{"title":"Caravaggios Restaurant","category":"Seafood Restaurants","county":"Dublin","type":"Content","excerpt":null,"address":"The Alexander Hotel, Merrion Square, Dublin City Centre, Co. Dublin, Dublin 2","tel":"+353 (0)1 607 3700","images":null,"lat":"53.34184265136719","lng":"-6.249135971069336"},"fields":{"slug":"/section-directory-content/seafood-restaurants/caravaggios-restaurant/"}}},{"node":{"frontmatter":{"title":"Granary Restaurant","category":"Seafood Restaurants","county":"Donegal","type":"Content","excerpt":null,"address":"The Mill Park Hotel, The Mullins, Donegal Town, Co. Donegal","tel":"+353 (0)74 972 2880","images":null,"lat":"54.65999984741211","lng":"-8.119998931884766"},"fields":{"slug":"/section-directory-content/seafood-restaurants/granary-restaurant/"}}},{"node":{"frontmatter":{"title":"Flanagans Restaurant And Pizzeria","category":"Seafood Restaurants","county":"Dublin","type":"Content","excerpt":null,"address":"61 Upper O' Connell Street, Dublin City Centre, Co. Dublin, Dublin 1","tel":"+353 (0)18 73 1388","images":null,"lat":"53.34990310668945","lng":"-6.262606143951416"},"fields":{"slug":"/section-directory-content/seafood-restaurants/flanagans-restaurant-and-pizzeria/"}}},{"node":{"frontmatter":{"title":"Faras Restaurant","category":"Seafood Restaurants","county":"Donegal","type":"Content","excerpt":null,"address":"Villa Rose Hotel and V-Spa, Main Street, Ballybofey, Co. Donegal","tel":"+353 (0)74 913 2266","images":null,"lat":"54.79999923706055","lng":"-7.7833333015441895"},"fields":{"slug":"/section-directory-content/seafood-restaurants/faras-restaurant/"}}},{"node":{"frontmatter":{"title":"Lannigans Restaurant Quality Hotel Clonakilty","category":"Seafood Restaurants","county":"Cork","type":"Content","excerpt":null,"address":"Clogheen, Clonakilty, Co. Cork","tel":"+353 (0)23 883 5858","images":null,"lat":"51.614051818847656","lng":"-8.895258903503418"},"fields":{"slug":"/section-directory-content/seafood-restaurants/lannigans-restaurant-quality-hotel-clonakilty/"}}},{"node":{"frontmatter":{"title":"Hartleys Brasserie","category":"Seafood Restaurants","county":"Dublin","type":"Content","excerpt":null,"address":"1 Harbour Road, Dun Laoghaire, Co. Dublin, Dun Laoghaire","tel":"+353 (0)1 280 6767","images":null,"lat":"53.28802490234375","lng":"-6.140054225921631"},"fields":{"slug":"/section-directory-content/seafood-restaurants/hartleys-brasserie/"}}},{"node":{"frontmatter":{"title":"McAlpins Suir Inn","category":"Seafood Restaurants","county":"Waterford","type":"Content","excerpt":null,"address":"Cheekpoint, Waterford Outer City East, Co. Waterford","tel":"+353 (0)51 38 2220","images":null,"lat":"52.26498031616211","lng":"-7.0047287940979"},"fields":{"slug":"/section-directory-content/seafood-restaurants/mcalpins-suir-inn/"}}},{"node":{"frontmatter":{"title":"Jacksons Restaurant","category":"Seafood Restaurants","county":"Roscommon","type":"Content","excerpt":null,"address":"Jackson's Restaurant, Market Square, Roscommon Town, Co. Roscommon","tel":"+353 (0)90 663 4140","images":null,"lat":"53.69166564941406","lng":"-8.216666221618652"},"fields":{"slug":"/section-directory-content/seafood-restaurants/jacksons-restaurant/"}}},{"node":{"frontmatter":{"title":"Lord Bakers Seafood Restaurant and Bar","category":"Seafood Restaurants","county":"Kerry","type":"Content","excerpt":null,"address":"Main Street, Dingle, Co. Kerry","tel":"+353 (0)66 915 1277","images":null,"lat":"52.141754150390625","lng":"-10.268695831298828"},"fields":{"slug":"/section-directory-content/seafood-restaurants/lord-bakers-seafood-restaurant-and-bar/"}}},{"node":{"frontmatter":{"title":"Le Caprice Restaurant","category":"Seafood Restaurants","county":"Dublin","type":"Content","excerpt":null,"address":"12 Saint Andrews Street, Dublin City Centre, Co. Dublin","tel":"+353 (0)1 679 4050","images":null,"lat":"53.343658447265625","lng":"-6.2625603675842285"},"fields":{"slug":"/section-directory-content/seafood-restaurants/le-caprice-restaurant/"}}},{"node":{"frontmatter":{"title":"Johnnie Foxs Pub and Restaurant","category":"Seafood Restaurants","county":"Dublin","type":"Content","excerpt":null,"address":"Glencullen, The Dublin Mountains, Kilternan, Co. Dublin","tel":"+353 (0)1 295 5647","images":null,"lat":"53.22171401977539","lng":"-6.219309329986572"},"fields":{"slug":"/section-directory-content/seafood-restaurants/johnnie-foxs-pub-and-restaurant/"}}},{"node":{"frontmatter":{"title":"Lannigans Restaurant Quality Hotel Waterford","category":"Seafood Restaurants","county":"Waterford","type":"Content","excerpt":null,"address":"The Quays, Canada Street, Waterford City Centre, Co. Waterford","tel":"+353 (0)51 85 6600","images":null,"lat":"52.262020111083984","lng":"-7.111652851104736"},"fields":{"slug":"/section-directory-content/seafood-restaurants/lannigans-restaurant-quality-hotel-waterford/"}}},{"node":{"frontmatter":{"title":"McGrattans In The Lane","category":"Seafood Restaurants","county":"Dublin","type":"Content","excerpt":null,"address":"76 Fitzwilliam Lane, Dublin city cente, Co. Dublin, Dublin 2","tel":"+353 (0)16 61 8808","images":null,"lat":"53.338531494140625","lng":"-6.251298427581787"},"fields":{"slug":"/section-directory-content/seafood-restaurants/mcgrattans-in-the-lane/"}}},{"node":{"frontmatter":{"title":"Mayflower Chinese and Seafood Restaurant","category":"Seafood Restaurants","county":"Kerry","type":"Content","excerpt":null,"address":"College Square, Killarney, Co. Kerry","tel":"+353 (0)64 663 2212","images":null,"lat":"52.05842590332031","lng":"-9.507617950439453"},"fields":{"slug":"/section-directory-content/seafood-restaurants/mayflower-chinese-and-seafood-restaurant/"}}},{"node":{"frontmatter":{"title":"ODowds Seafood Bar and Restaurant and Roundstone Caf","category":"Seafood Restaurants","county":"Galway","type":"Content","excerpt":null,"address":"Roundstone, Co. Galway","tel":"+353 (0)95 35 809","images":null,"lat":"53.39413070678711","lng":"-9.92028522491455"},"fields":{"slug":"/section-directory-content/seafood-restaurants/odowds-seafood-bar-and-restaurant-and-roundstone-caf/"}}},{"node":{"frontmatter":{"title":"Old Dublin Restaurant","category":"Seafood Restaurants","county":"Dublin","type":"Content","excerpt":null,"address":"90 to 91 Francis Street, Dublin City Centre, Co. Dublin, Dublin 8","tel":"+353 (0)14 54 2028","images":null,"lat":"53.33998107910156","lng":"-6.27422571182251"},"fields":{"slug":"/section-directory-content/seafood-restaurants/old-dublin-restaurant/"}}},{"node":{"frontmatter":{"title":"Morans Oyster Cottage","category":"Seafood Restaurants","county":"Galway","type":"Content","excerpt":null,"address":"Moran's Oyster Cottage, The Weir, Kilcolgan, Co. Galway","tel":"+353 (0)91 79 6113","images":null,"lat":"53.20042419433594","lng":"-8.883623123168945"},"fields":{"slug":"/section-directory-content/seafood-restaurants/morans-oyster-cottage/"}}},{"node":{"frontmatter":{"title":"Pangur Bn Restaurant and Cookery School","category":"Seafood Restaurants","county":"Galway","type":"Content","excerpt":null,"address":"Pangur B??n Restaurant and Cookery School, Letterfrack, Co. Galway","tel":"+353 (0)95 41 243","images":null,"lat":"53.555755615234375","lng":"-9.950937271118164"},"fields":{"slug":"/section-directory-content/seafood-restaurants/pangur-bn-restaurant-and-cookery-school/"}}},{"node":{"frontmatter":{"title":"Kingfisher Restaurant","category":"Seafood Restaurants","county":"Dublin","type":"Content","excerpt":null,"address":"166 Parnell Street, Dublin City Centre, Co. Dublin, Dublin 1","tel":"+353 (0)18 72 8732","images":null,"lat":"53.350669860839844","lng":"-6.265879154205322"},"fields":{"slug":"/section-directory-content/seafood-restaurants/kingfisher-restaurant/"}}},{"node":{"frontmatter":{"title":"The Old Schoolhouse Restaurant","category":"Seafood Restaurants","county":"Dublin","type":"Content","excerpt":null,"address":"Church Road, Swords, Co. Dublin, Fingal","tel":"+353 (0)1 840 2846","images":null,"lat":"53.451866149902344","lng":"-6.224118232727051"},"fields":{"slug":"/section-directory-content/seafood-restaurants/the-old-schoolhouse-restaurant/"}}},{"node":{"frontmatter":{"title":"Shanahans on the Green","category":"Seafood Restaurants","county":"Dublin","type":"Content","excerpt":null,"address":"119 St. Stephen's Green,, Dublin city centre, Co. Dublin, Dublin 2","tel":"+353 (0)14 07 0939","images":null,"lat":"53.33838653564453","lng":"-6.262354373931885"},"fields":{"slug":"/section-directory-content/seafood-restaurants/shanahans-on-the-green/"}}},{"node":{"frontmatter":{"title":"Reynards Restaurant at Errigal Country House Hotel","category":"Seafood Restaurants","county":"Cavan","type":"Content","excerpt":null,"address":"Cavan Road, Cootehill, Co. Cavan","tel":"+353 (0)49 555 6901","images":null,"lat":"54.0724983215332","lng":"-7.081944465637207"},"fields":{"slug":"/section-directory-content/seafood-restaurants/reynards-restaurant-at-errigal-country-house-hotel/"}}},{"node":{"frontmatter":{"title":"The Dargle Room Restaurant","category":"Seafood Restaurants","county":"Wicklow","type":"Content","excerpt":null,"address":"The Royal Hotel, Main Street, Bray, Co. Wicklow","tel":"+353 (0)12 86 2935","images":null,"lat":"53.197792053222656","lng":"-6.099673271179199"},"fields":{"slug":"/section-directory-content/seafood-restaurants/the-dargle-room-restaurant/"}}},{"node":{"frontmatter":{"title":"Wongs Chinese Restaurant Monkstown","category":"Seafood Restaurants","county":"Dublin","type":"Content","excerpt":null,"address":"5A The Crescent, Monkstown, Co. Dublin","tel":"+353 (0)12 30 1212","images":null,"lat":"53.288856506347656","lng":"-6.1704607009887695"},"fields":{"slug":"/section-directory-content/seafood-restaurants/wongs-chinese-restaurant-monkstown/"}}},{"node":{"frontmatter":{"title":"Raglans Restaurant","category":"Seafood Restaurants","county":"Dublin","type":"Content","excerpt":null,"address":"Jurys Hotel And Towers, Pembroke Road, Dublin City Area South, Co. Dublin","tel":"+353 (0)16 60 5000","images":null,"lat":"53.33306884765625","lng":"-6.234168529510498"},"fields":{"slug":"/section-directory-content/seafood-restaurants/raglans-restaurant/"}}},{"node":{"frontmatter":{"title":"Tribeca Restaurant","category":"Seafood Restaurants","county":"Donegal","type":"Content","excerpt":null,"address":"Radisson SAS, Paddy Hare Road, Letterkenny, Co. Donegal","tel":"+353 (0)74 919 4444","images":null,"lat":"54.95000076293945","lng":"-7.733333110809326"},"fields":{"slug":"/section-directory-content/seafood-restaurants/tribeca-restaurant/"}}},{"node":{"frontmatter":{"title":"Wongs Chinese Restaurant Clontarf Road","category":"Seafood Restaurants","county":"Dublin","type":"Content","excerpt":null,"address":"436 Clontarf Road, Dublin City Area North, Co. Dublin, Dublin 3","tel":"+353 (0)18 33 4400","images":null,"lat":"53.36515426635742","lng":"-6.176067352294922"},"fields":{"slug":"/section-directory-content/seafood-restaurants/wongs-chinese-restaurant-clontarf-road/"}}},{"node":{"frontmatter":{"title":"Rendezvous Room Restaurant","category":"Seafood Restaurants","county":"Dublin","type":"Content","excerpt":null,"address":"Mc Eniff Skylon Hotel, Upper Drumcondra Road, Dublin City Area North, Co. Dublin, Dublin 9","tel":"+353 (0)18 37 9121","images":null,"lat":"53.372718811035156","lng":"-6.2533674240112305"},"fields":{"slug":"/section-directory-content/seafood-restaurants/rendezvous-room-restaurant/"}}}]}},"pageContext":{"isCreatedByStatefulCreatePages":false,"slug":"/section-directory/seafood-restaurants/","category":"Seafood Restaurants"}}}