{"componentChunkName":"component---src-templates-section-directory-js","path":"/section-directory/rail-services/","webpackCompilationHash":"","result":{"data":{"markdownRemark":{"html":"","frontmatter":{"category":"Rail Services"}},"allMarkdownRemark":{"distinct":["Antrim","Armagh","Derry","Down","Dublin","Galway","Sligo"],"edges":[{"node":{"frontmatter":{"title":"Giants Causeway and Bushmills Railway","category":"Rail Services","county":"Antrim","type":"Content","excerpt":null,"address":"Bushmills Railway, Giant's Causeway Station Runkerry Road, Bushmills, Co. Antrim, BT57 8SZ","tel":"+44 28 2073 2844","images":null,"lat":"55.204498291015625","lng":"-6.52309513092041"},"fields":{"slug":"/section-directory-content/rail-services/giants-causeway-and-bushmills-railway/"}}},{"node":{"frontmatter":{"title":"AYTON COACHES LIBERTY TOURS (NI)","category":"Rail Services","county":"Derry","type":"Content","excerpt":null,"address":"4, Woodside Heights, Derry, Co. Derry BT47 2LQ","tel":"028 7130 8769","images":null,"lat":"054.9862610000","lng":"-007.3014500000"},"fields":{"slug":"/section-directory-content/rail-services/ayton-coaches-liberty-tours-ni/"}}},{"node":{"frontmatter":{"title":"Carrickfergus Train Station","category":"Rail Services","county":"Antrim","type":"Content","excerpt":null,"address":"Carrickfergus Train Station, 10 Victoria Street, Carrickfergus, Antrim, BT38 8AQ","tel":"+44 28 9335 1286","images":null,"lat":"54.715145111083984","lng":"-5.805984973907471"},"fields":{"slug":"/section-directory-content/rail-services/carrickfergus-train-station/"}}},{"node":{"frontmatter":{"title":"Iarnrod Eireann","category":"Rail Services","county":"Sligo","type":"Content","excerpt":null,"address":"Sligo Town, Co. Sligo","tel":"NOVAL","images":null,"lat":"54.266666412353516","lng":"-8.483333587646484"},"fields":{"slug":"/section-directory-content/rail-services/iarnrod-eireann/"}}},{"node":{"frontmatter":{"title":"Heuston Station","category":"Rail Services","county":"Dublin","type":"Content","excerpt":null,"address":"Iarnrod Eireann, Heuston Station, Dublin, Co. Dublin, 8","tel":"+353 1 8366222","images":null,"lat":"53.34636688232422","lng":"-6.294119834899902"},"fields":{"slug":"/section-directory-content/rail-services/heuston-station/"}}},{"node":{"frontmatter":{"title":"Belfast Great Victoria Street Train Station","category":"Rail Services","county":"Antrim","type":"Content","excerpt":null,"address":"Belfast Great Victoria Street Train Station, Great Victoria Street, Belfast, Antrim, BT2 7HR","tel":"+44 28 9089 9411","images":null,"lat":"54.59572982788086","lng":"-5.936308860778809"},"fields":{"slug":"/section-directory-content/rail-services/belfast-great-victoria-street-train-station/"}}},{"node":{"frontmatter":{"title":"Lisburn Train Station","category":"Rail Services","county":"Antrim","type":"Content","excerpt":null,"address":"Northern Ireland Railways Lisburn Train Station, Lisburn, Antrim","tel":"+44 28 9266 2294","images":null,"lat":"54.510009765625","lng":"-6.043118953704834"},"fields":{"slug":"/section-directory-content/rail-services/lisburn-train-station/"}}},{"node":{"frontmatter":{"title":"Iarnrod ireann","category":"Rail Services","county":"Galway","type":"Content","excerpt":null,"address":"Ceannt Station, Eyre Square, Co. Galway","tel":"+353 1 8366222","images":null,"lat":"53.27194595336914","lng":"-9.04888916015625"},"fields":{"slug":"/section-directory-content/rail-services/iarnrod-ireann/"}}},{"node":{"frontmatter":{"title":"Northern Ireland Railways Newry Train Station","category":"Rail Services","county":"Down","type":"Content","excerpt":null,"address":"Northern Ireland Railways Newry Train Station, Newry, Down","tel":"+44 28 3026 9271","images":null,"lat":"54.17662811279297","lng":"-6.339670181274414"},"fields":{"slug":"/section-directory-content/rail-services/northern-ireland-railways-newry-train-station/"}}},{"node":{"frontmatter":{"title":"Northern Ireland Railways Portadown Train Station","category":"Rail Services","county":"Armagh","type":"Content","excerpt":null,"address":"Northern Ireland Railways Portadown Train Station, Portadown, Armagh","tel":"+44 28 381 4220","images":null,"lat":"54.45169448852539","lng":"-6.397026062011719"},"fields":{"slug":"/section-directory-content/rail-services/northern-ireland-railways-portadown-train-station/"}}},{"node":{"frontmatter":{"title":"Translink","category":"Rail Services","county":"Antrim","type":"Content","excerpt":null,"address":"Central Station, East Bridge Street, Belfast, Co. Antrim, BT1 3NR","tel":"028 9066 6630","images":null,"lat":"054.5956430000","lng":"-005.9172720000"},"fields":{"slug":"/section-directory-content/rail-services/translink/"}}},{"node":{"frontmatter":{"title":"Railtours Cork Blarney Castle And The Queenstown Story","category":"Rail Services","county":"Dublin","type":"Content","excerpt":null,"address":"16 Amiens Street, Co. Dublin, Dublin 1","tel":"+353 1 856 0045","images":null,"lat":"53.35109329223633","lng":"-6.250678539276123"},"fields":{"slug":"/section-directory-content/rail-services/railtours-cork-blarney-castle-and-the-queenstown-story/"}}},{"node":{"frontmatter":{"title":"Northern Ireland Railways Lurgan Train Station","category":"Rail Services","county":"Armagh","type":"Content","excerpt":null,"address":"Northern Ireland Railways Lurgan Train Station, Lurgan, Armagh","tel":"+44 28 3832 2052","images":null,"lat":"54.462921142578125","lng":"-6.33630895614624"},"fields":{"slug":"/section-directory-content/rail-services/northern-ireland-railways-lurgan-train-station/"}}},{"node":{"frontmatter":{"title":"The Railway Preservation Society of Ireland","category":"Rail Services","county":"Antrim","type":"Content","excerpt":null,"address":"Excursion Station, Whitehead, Co. Antrim, BT38 9NA","tel":"NOVAL","images":null,"lat":"54.715145111083984","lng":"-5.805984973907471"},"fields":{"slug":"/section-directory-content/rail-services/the-railway-preservation-society-of-ireland/"}}},{"node":{"frontmatter":{"title":"Railtours The Ring Of Kerry","category":"Rail Services","county":"Dublin","type":"Content","excerpt":null,"address":"16 Amiens Street, Co. Dublin, Dublin 1","tel":"+353 1 856 0045","images":null,"lat":"51.862850189208984","lng":"-10.178211212158203"},"fields":{"slug":"/section-directory-content/rail-services/railtours-the-ring-of-kerry/"}}},{"node":{"frontmatter":{"title":"Northern Ireland Railways Larne","category":"Rail Services","county":"Antrim","type":"Content","excerpt":null,"address":"Northern Ireland Railways Larne, Circular Road, Larne, Antrim, BT40 3AE","tel":"+44 28 2827 0604","images":null,"lat":"54.85028076171875","lng":"-5.822878837585449"},"fields":{"slug":"/section-directory-content/rail-services/northern-ireland-railways-larne/"}}},{"node":{"frontmatter":{"title":"Northern Ireland Railways Bangor Train Station","category":"Rail Services","county":"Down","type":"Content","excerpt":null,"address":"Northern Ireland Railways Bangor Train Station, Bangor, Down","tel":"+44 28 9066 6630","images":null,"lat":"54.66252136230469","lng":"-5.6714301109313965"},"fields":{"slug":"/section-directory-content/rail-services/northern-ireland-railways-bangor-train-station/"}}}]}},"pageContext":{"isCreatedByStatefulCreatePages":false,"slug":"/section-directory/rail-services/","category":"Rail Services"}}}