{"componentChunkName":"component---src-templates-section-directory-js","path":"/section-directory/sea-angling/","webpackCompilationHash":"","result":{"data":{"markdownRemark":{"html":"","frontmatter":{"category":"Sea Angling"}},"allMarkdownRemark":{"distinct":["Antrim","Clare","Cork","Derry","Donegal","Down","Dublin","Galway","Kerry","Limerick","Mayo","Sligo","Waterford","Wexford"],"edges":[{"node":{"frontmatter":{"title":"Ballinskelligs Watersports","category":"Sea Angling","county":"Kerry","type":"Content","excerpt":null,"address":"Dungegan, Ballinskelligs, Co. Kerry","tel":"+353 (0)86 417 6612","images":null,"lat":"51.834136962890625","lng":"-10.263077735900879"},"fields":{"slug":"/section-directory-content/sea-angling/ballinskelligs-watersports/"}}},{"node":{"frontmatter":{"title":"Bluefin Chartering","category":"Sea Angling","county":"Donegal","type":"Content","excerpt":null,"address":"Churchtown, Kilcar, Co. Donegal","tel":"+353 (0)74 973 8495","images":null,"lat":"54.631507873535156","lng":"-8.601153373718262"},"fields":{"slug":"/section-directory-content/sea-angling/bluefin-chartering/"}}},{"node":{"frontmatter":{"title":"Bundoran Star Charter Boat","category":"Sea Angling","county":"Donegal","type":"Content","excerpt":null,"address":"Strand View, West End, Bundoran, Donegal","tel":"+353 (0)87 419 8323","images":null,"lat":"54.47698211669922","lng":"-8.286076545715332"},"fields":{"slug":"/section-directory-content/sea-angling/bundoran-star-charter-boat/"}}},{"node":{"frontmatter":{"title":"Baltimore Diving And Watersports Centre","category":"Sea Angling","county":"Cork","type":"Content","excerpt":null,"address":"Harbour Drive, Baltimore, Co. Cork","tel":"+353 (0)28 20 300","images":null,"lat":"51.48128890991211","lng":"-9.368711471557617"},"fields":{"slug":"/section-directory-content/sea-angling/baltimore-diving-and-watersports-centre/"}}},{"node":{"frontmatter":{"title":"Brothers - Pleasure Trips and Deep Sea Fishing","category":"Sea Angling","county":"Antrim","type":"Content","excerpt":null,"address":"Brothers, Portrush, Co. Antrim","tel":"0770 205 2918","images":null,"lat":"55.20457077026367","lng":"-6.650444984436035"},"fields":{"slug":"/section-directory-content/sea-angling/brothers---pleasure-trips-and-deep-sea-fishing/"}}},{"node":{"frontmatter":{"title":"Belmullet Sea Angling Club","category":"Sea Angling","county":"Mayo","type":"Content","excerpt":null,"address":"Tackle Shop, American Street, Belmullet, Co. Mayo","tel":"+353 (0)97 82 093","images":null,"lat":"54.2247428894043","lng":"-9.988127708435059"},"fields":{"slug":"/section-directory-content/sea-angling/belmullet-sea-angling-club/"}}},{"node":{"frontmatter":{"title":"Br Chlann Lir Boat Charters","category":"Sea Angling","county":"Mayo","type":"Content","excerpt":null,"address":"Bru Chlann Lir, Tirrane, Clogher, Belmullet, Co. Mayo","tel":"+353 (0)97 85 741","images":null,"lat":"54.143436431884766","lng":"-10.101594924926758"},"fields":{"slug":"/section-directory-content/sea-angling/br-chlann-lir-boat-charters/"}}},{"node":{"frontmatter":{"title":"Bluefin Charters","category":"Sea Angling","county":"Sligo","type":"Content","excerpt":null,"address":"Operate out of Mullaghmore Harbour, Mullaghmore, Co. Sligo","tel":"+353 (0)71 916 6106","images":null,"lat":"54.467811584472656","lng":"-8.451801300048828"},"fields":{"slug":"/section-directory-content/sea-angling/bluefin-charters/"}}},{"node":{"frontmatter":{"title":"Courtmacsherry Angling Ltd.","category":"Sea Angling","county":"Cork","type":"Content","excerpt":null,"address":"Woodpoint, Courtmacsherry, Co. Cork","tel":"+353 (0)23 884 6427","images":null,"lat":"51.63471221923828","lng":"-8.690759658813477"},"fields":{"slug":"/section-directory-content/sea-angling/courtmacsherry-angling-ltd/"}}},{"node":{"frontmatter":{"title":"Carrigaholt Sea Angling Centre","category":"Sea Angling","county":"Clare","type":"Content","excerpt":null,"address":"Carrigaholt, Co. Clare","tel":"+353 (0)65 905 8209","images":null,"lat":"52.60383605957031","lng":"-9.71018123626709"},"fields":{"slug":"/section-directory-content/sea-angling/carrigaholt-sea-angling-centre/"}}},{"node":{"frontmatter":{"title":"Double or Quits","category":"Sea Angling","county":"Dublin","type":"Content","excerpt":null,"address":"43 St Nessans Tec, Howth, Co. Dublin","tel":"+353 (0)85 813 5193","images":null,"lat":"53.387779235839844","lng":"-6.065277576446533"},"fields":{"slug":"/section-directory-content/sea-angling/double-or-quits/"}}},{"node":{"frontmatter":{"title":"Carrick Shore Angling","category":"Sea Angling","county":"Donegal","type":"Content","excerpt":null,"address":"Teelin Pier, Carrick, Co. Donegal","tel":"+353 (0)74 952 1297","images":null,"lat":"54.65673065185547","lng":"-8.629955291748047"},"fields":{"slug":"/section-directory-content/sea-angling/carrick-shore-angling/"}}},{"node":{"frontmatter":{"title":"Connemara Coastal Charter","category":"Sea Angling","county":"Derry","type":"Content","excerpt":null,"address":"Mr Shane Bisgood, Derryinver, Letterfrack, Co. Galway","tel":"+353 (0)86 279 5118","images":null,"lat":"53.550968170166016","lng":"-10.084157943725586"},"fields":{"slug":"/section-directory-content/sea-angling/connemara-coastal-charter/"}}},{"node":{"frontmatter":{"title":"Galway Bay Fishing","category":"Sea Angling","county":"Galway","type":"Content","excerpt":null,"address":"Galway Bay Fishing, Spiddal Pier, Spiddal, Co. Galway","tel":"+353 (0)86 854 7890","images":null,"lat":"53.246665954589844","lng":"-9.302778244018555"},"fields":{"slug":"/section-directory-content/sea-angling/galway-bay-fishing/"}}},{"node":{"frontmatter":{"title":"Enniscrone Killala Angling Charter","category":"Sea Angling","county":"Sligo","type":"Content","excerpt":null,"address":"Atlantic Mist, Enniscrone, Co. Sligo","tel":"+353 (0)96 36 644","images":null,"lat":"54.211822509765625","lng":"-9.220911026000977"},"fields":{"slug":"/section-directory-content/sea-angling/enniscrone-killala-angling-charter/"}}},{"node":{"frontmatter":{"title":"Inches House and Boat Angling Centre","category":"Sea Angling","county":"Cork","type":"Content","excerpt":null,"address":"Castletownbere, Co. Cork","tel":"+353 (0)27 74 494","images":null,"lat":"51.65584182739258","lng":"-9.909777641296387"},"fields":{"slug":"/section-directory-content/sea-angling/inches-house-and-boat-angling-centre/"}}},{"node":{"frontmatter":{"title":"Culdaff Bay Shore Angling","category":"Sea Angling","county":"Donegal","type":"Content","excerpt":null,"address":"Culdaff, Inishowen, Co. Donegal","tel":"+353 (0)74 936 2600","images":null,"lat":"55.28852081298828","lng":"-7.166406154632568"},"fields":{"slug":"/section-directory-content/sea-angling/culdaff-bay-shore-angling/"}}},{"node":{"frontmatter":{"title":"Ewings Sea Angling and Boat Charters","category":"Sea Angling","county":"Sligo","type":"Content","excerpt":null,"address":"The Harry Ewing Pier, Rosses Point, Sligo","tel":"+353 (0)86 891 3618","images":null,"lat":"54.31569290161133","lng":"-8.56986141204834"},"fields":{"slug":"/section-directory-content/sea-angling/ewings-sea-angling-and-boat-charters/"}}},{"node":{"frontmatter":{"title":"Iain ODriscoll","category":"Sea Angling","county":"Cork","type":"Content","excerpt":null,"address":"Barry's Road, South Schull, Schull, Co. Cork","tel":"+353 (0)86 386 2876","images":null,"lat":"51.521060943603516","lng":"-9.552452087402344"},"fields":{"slug":"/section-directory-content/sea-angling/iain-odriscoll/"}}},{"node":{"frontmatter":{"title":"Killybegs Sea Angling Club","category":"Sea Angling","county":"Donegal","type":"Content","excerpt":null,"address":"Kellys Quay, Killybegs, Co. Donegal","tel":"+353 (0)74 973 1137","images":null,"lat":"54.63833236694336","lng":"-8.443522453308105"},"fields":{"slug":"/section-directory-content/sea-angling/killybegs-sea-angling-club/"}}},{"node":{"frontmatter":{"title":"Kilmore Quay Angling - Eamonn Hayes","category":"Sea Angling","county":"Wexford","type":"Content","excerpt":null,"address":"Kilmore Quay, Wexford","tel":"+353 (0)53 912 9723","images":null,"lat":"52.1713752746582","lng":"-6.590498447418213"},"fields":{"slug":"/section-directory-content/sea-angling/kilmore-quay-angling---eamonn-hayes/"}}},{"node":{"frontmatter":{"title":"East Cork Angling Centre","category":"Sea Angling","county":"Cork","type":"Content","excerpt":null,"address":"Loughcarrig House, Ballinacurra, Midleton, Cork","tel":"+353 (0)21 463 1952","images":null,"lat":"51.888099670410156","lng":"-8.166120529174805"},"fields":{"slug":"/section-directory-content/sea-angling/east-cork-angling-centre/"}}},{"node":{"frontmatter":{"title":"Joe Roddy and Sons Skellig Trips and Angling","category":"Sea Angling","county":"Kerry","type":"Content","excerpt":null,"address":"Portmagee, Co. Kerry","tel":"+353 (0)87 120 9924","images":null,"lat":"51.885780334472656","lng":"-10.36289119720459"},"fields":{"slug":"/section-directory-content/sea-angling/joe-roddy-and-sons-skellig-trips-and-angling/"}}},{"node":{"frontmatter":{"title":"Cobh Angling Centre","category":"Sea Angling","county":"Cork","type":"Content","excerpt":null,"address":"Rackheath House, Rushbrooke, Cobh, Co. Cork","tel":"+353 (0)21 481 3417","images":null,"lat":"51.847251892089844","lng":"-8.31893539428711"},"fields":{"slug":"/section-directory-content/sea-angling/cobh-angling-centre/"}}},{"node":{"frontmatter":{"title":"Kilmore Quay Angling Charter - Sean Radford","category":"Sea Angling","county":"Wexford","type":"Content","excerpt":null,"address":"Rackardstown, Kilmore Quay, Wexford","tel":"+353 (0)53 912 9707","images":null,"lat":"52.17075729370117","lng":"-6.5882158279418945"},"fields":{"slug":"/section-directory-content/sea-angling/kilmore-quay-angling-charter---sean-radford/"}}},{"node":{"frontmatter":{"title":"Lakeland and Midsummer Lakehouse","category":"Sea Angling","county":"Galway","type":"Content","excerpt":null,"address":"Accommodation and Angling/Boating Centre, Portacarron Bay, Oughterard, Co. Galway","tel":"+353 (0)91 55 2121","images":null,"lat":"53.42097854614258","lng":"-9.324402809143066"},"fields":{"slug":"/section-directory-content/sea-angling/lakeland-and-midsummer-lakehouse/"}}},{"node":{"frontmatter":{"title":"Galway Bay Sea Angling and Sightseeing Trips","category":"Sea Angling","county":"Galway","type":"Content","excerpt":null,"address":"Galway City, Co. Galway","tel":"+353 (0)86 104 0702","images":null,"lat":"53.27217483520508","lng":"-9.049474716186523"},"fields":{"slug":"/section-directory-content/sea-angling/galway-bay-sea-angling-and-sightseeing-trips/"}}},{"node":{"frontmatter":{"title":"Sea Angling in Carlingford Lough","category":"Sea Angling","county":"Down","type":"Content","excerpt":null,"address":"Carlingford Lough Sea Angling, 25 Chestnut Grove, Newry, Co. Down, Northern Ireland","tel":"+353 (0)28 3026 4906","images":null,"lat":"54.03789138793945","lng":"-6.186023712158203"},"fields":{"slug":"/section-directory-content/sea-angling/sea-angling-in-carlingford-lough/"}}},{"node":{"frontmatter":{"title":"Riverwatch Visitor Centre and Aquarium","category":"Sea Angling","county":"Derry","type":"Content","excerpt":null,"address":"Loughs Agency - Riverwatch, 22 Victoria Road, Derry, Derry, BT47 2AB","tel":"+44 (0)28 7134 2100","images":null,"lat":"54.9918098449707","lng":"-7.320168972015381"},"fields":{"slug":"/section-directory-content/sea-angling/riverwatch-visitor-centre-and-aquarium/"}}},{"node":{"frontmatter":{"title":"Sea Angling and Diving Charter","category":"Sea Angling","county":"Waterford","type":"Content","excerpt":null,"address":"Gorteen, Dungarvan, CO. Waterford","tel":"+353 (0)87 689 7600","images":null,"lat":"52.11530685424805","lng":"-7.589956760406494"},"fields":{"slug":"/section-directory-content/sea-angling/sea-angling-and-diving-charter/"}}},{"node":{"frontmatter":{"title":"Sea Fishing - Mr John Ryan","category":"Sea Angling","county":"Galway","type":"Content","excerpt":null,"address":"Dun Aengus House, Sky Road, Clifden, Co. Galway","tel":"+353 (0)95 21 069","images":null,"lat":"53.49185562133789","lng":"-10.034811019897461"},"fields":{"slug":"/section-directory-content/sea-angling/sea-fishing---mr-john-ryan/"}}},{"node":{"frontmatter":{"title":"Sea Fishing John McLaughlin","category":"Sea Angling","county":"Donegal","type":"Content","excerpt":null,"address":"Inisowen Boating, Carrowmore, Culdaff, Donegal","tel":"+353 (0)74 937 0605","images":null,"lat":"55.276058197021484","lng":"-7.1669487953186035"},"fields":{"slug":"/section-directory-content/sea-angling/sea-fishing-john-mclaughlin/"}}},{"node":{"frontmatter":{"title":"Sea Fishing John And Coin McGarry","category":"Sea Angling","county":"Waterford","type":"Content","excerpt":null,"address":"c/o The Enterprise Bar, Grattan Square, Dungarvan, Waterford","tel":"+353 (0)58 42 657","images":null,"lat":"52.089412689208984","lng":"-7.635828018188477"},"fields":{"slug":"/section-directory-content/sea-angling/sea-fishing-john-and-coin-mcgarry/"}}},{"node":{"frontmatter":{"title":"Sea Fishing Brian Barton","category":"Sea Angling","county":"Waterford","type":"Content","excerpt":null,"address":"Ballincourty, Dungarvan, Waterford","tel":"+353 (0)58 44 962","images":null,"lat":"52.08249282836914","lng":"-7.559139728546143"},"fields":{"slug":"/section-directory-content/sea-angling/sea-fishing-brian-barton/"}}},{"node":{"frontmatter":{"title":"New Ross - Sea Angling Club","category":"Sea Angling","county":"Wexford","type":"Content","excerpt":null,"address":"New Ross Sea Angling Club, Ballinteskin, Wexford","tel":"+353 (0)51 38 8135","images":null,"lat":"52.34885025024414","lng":"-6.941117286682129"},"fields":{"slug":"/section-directory-content/sea-angling/new-ross---sea-angling-club/"}}},{"node":{"frontmatter":{"title":"Sea Fishing Martin Brennan","category":"Sea Angling","county":"Clare","type":"Content","excerpt":null,"address":"Shannon Angling, Fort House, Kilrush, Clare","tel":"+353 (0)65 905 2031","images":null,"lat":"52.637916564941406","lng":"-9.492205619812012"},"fields":{"slug":"/section-directory-content/sea-angling/sea-fishing-martin-brennan/"}}},{"node":{"frontmatter":{"title":"Sea Fishing Sean O Shea","category":"Sea Angling","county":"Derry","type":"Content","excerpt":null,"address":"Skellig House, Bunavalla, Derrynane, Kerry","tel":"+353 (0)66 947 5129","images":null,"lat":"51.76511001586914","lng":"-10.101088523864746"},"fields":{"slug":"/section-directory-content/sea-angling/sea-fishing-sean-o-shea/"}}},{"node":{"frontmatter":{"title":"Richard and Kevin OLeary - CC Angling","category":"Sea Angling","county":"Kerry","type":"Content","excerpt":null,"address":"Valentia Island, Co. Kerry","tel":"+353 (0)66 947 6407","images":null,"lat":"51.908790588378906","lng":"-10.372248649597168"},"fields":{"slug":"/section-directory-content/sea-angling/richard-and-kevin-oleary---cc-angling/"}}},{"node":{"frontmatter":{"title":"Sea Fishing Michael Moriarty","category":"Sea Angling","county":"Kerry","type":"Content","excerpt":null,"address":"Talaught, Fenit, Co. Kerry","tel":"+353 (0)66 713 6303","images":null,"lat":"52.2730598449707","lng":"-9.875192642211914"},"fields":{"slug":"/section-directory-content/sea-angling/sea-fishing-michael-moriarty/"}}},{"node":{"frontmatter":{"title":"Sea Fishing William O Callaghan","category":"Sea Angling","county":"Clare","type":"Content","excerpt":null,"address":"Rosslevan, Ennis, Clare","tel":"+353 (0)65 682 1374","images":null,"lat":"52.8405647277832","lng":"-8.99487018585205"},"fields":{"slug":"/section-directory-content/sea-angling/sea-fishing-william-o-callaghan/"}}},{"node":{"frontmatter":{"title":"Sea Fishing in the Shannon Estuary - Limerick City to Loop Head","category":"Sea Angling","county":"Limerick","type":"Content","excerpt":null,"address":"Shannon Regional Fisheries Board Ashbourne Business Park, Dock Road, Limerick, Co. Limerick","tel":"+353 (0)61 30 0238","images":null,"lat":"52.655372619628906","lng":"-8.651154518127441"},"fields":{"slug":"/section-directory-content/sea-angling/sea-fishing-in-the-shannon-estuary---limerick-city-to-loop-head/"}}},{"node":{"frontmatter":{"title":"Ten Island Tours","category":"Sea Angling","county":"Cork","type":"Content","excerpt":null,"address":"c/o Carbery Isle Ferries, Baltimore, Co. Cork","tel":"+353 (0)87 263 8470","images":null,"lat":"51.48128890991211","lng":"-9.368711471557617"},"fields":{"slug":"/section-directory-content/sea-angling/ten-island-tours/"}}},{"node":{"frontmatter":{"title":"Pisces II: Sea Angling and Sightseeing on Carlingford Lough","category":"Sea Angling","county":"Down","type":"Content","excerpt":null,"address":"Pisces II, 31 Manse Road, Kilkeel, Co. Down","tel":"+44 (0)28 4176 3669","images":null,"lat":"54.03982925415039","lng":"-6.0989990234375"},"fields":{"slug":"/section-directory-content/sea-angling/pisces-ii-sea-angling-and-sightseeing-on-carlingford-lough/"}}},{"node":{"frontmatter":{"title":"Sea Fishing John O Connor","category":"Sea Angling","county":"Waterford","type":"Content","excerpt":null,"address":"Pelorus, Fairybush, Dunmore East, Waterford","tel":"+353 (0)51 38 3397","images":null,"lat":"52.153480529785156","lng":"-6.998467445373535"},"fields":{"slug":"/section-directory-content/sea-angling/sea-fishing-john-o-connor/"}}},{"node":{"frontmatter":{"title":"Sea Fishing Rathmullan Enterprise Group Limited","category":"Sea Angling","county":"Donegal","type":"Content","excerpt":null,"address":"Ballyboe, Rathmullan, Donegal","tel":"+353 (0)74 915 8129","images":null,"lat":"55.09421157836914","lng":"-7.552245140075684"},"fields":{"slug":"/section-directory-content/sea-angling/sea-fishing-rathmullan-enterprise-group-limited/"}}},{"node":{"frontmatter":{"title":"South East Charters","category":"Sea Angling","county":"Wexford","type":"Content","excerpt":null,"address":"South East Charters, Duncannon, New Ross, Co. Wexford","tel":"+353 (0)51 38 9242","images":null,"lat":"52.222232818603516","lng":"-6.9282708168029785"},"fields":{"slug":"/section-directory-content/sea-angling/south-east-charters/"}}},{"node":{"frontmatter":{"title":"Spiddal Sea Angling School","category":"Sea Angling","county":"Galway","type":"Content","excerpt":null,"address":"Mr Noel Thornton, Bothuna, Spiddal, Co. Galway","tel":"+353 (0)91 55 3510","images":null,"lat":"53.246665954589844","lng":"-9.302778244018555"},"fields":{"slug":"/section-directory-content/sea-angling/spiddal-sea-angling-school/"}}},{"node":{"frontmatter":{"title":"The Helm - Sea Angling and Boat Charter","category":"Sea Angling","county":"Mayo","type":"Content","excerpt":null,"address":"The Helm, Westport Harbour, Westport, Co. Mayo","tel":"+353 (0)98 26 194","images":null,"lat":"53.80208206176758","lng":"-9.556053161621094"},"fields":{"slug":"/section-directory-content/sea-angling/the-helm---sea-angling-and-boat-charter/"}}},{"node":{"frontmatter":{"title":"Sea Fishing John O Mahony","category":"Sea Angling","county":"Cork","type":"Content","excerpt":null,"address":"White Lady Hotel, Kinsale, Co. Cork","tel":"+353 (0)21 477 2737","images":null,"lat":"51.70139694213867","lng":"-8.519824028015137"},"fields":{"slug":"/section-directory-content/sea-angling/sea-fishing-john-o-mahony/"}}},{"node":{"frontmatter":{"title":"West of Ireland Angling","category":"Sea Angling","county":"Mayo","type":"Content","excerpt":null,"address":"Knockfarnaght, Lahardane, Ballina, Co. Mayo","tel":"+353 (0)96 51 933","images":null,"lat":"54.022098541259766","lng":"-9.30988883972168"},"fields":{"slug":"/section-directory-content/sea-angling/west-of-ireland-angling/"}}}]}},"pageContext":{"isCreatedByStatefulCreatePages":false,"slug":"/section-directory/sea-angling/","category":"Sea Angling"}}}