{"componentChunkName":"component---src-templates-section-directory-js","path":"/section-directory/coarse-angling/","webpackCompilationHash":"","result":{"data":{"markdownRemark":{"html":"","frontmatter":{"category":"Coarse Angling"}},"allMarkdownRemark":{"distinct":["Antrim","Armagh","Cork","Derry","Donegal","Down","Dublin","Fermanagh","Galway","Limerick","Tyrone","Westmeath","Wicklow"],"edges":[{"node":{"frontmatter":{"title":"Brookborough Rt. Hon. Viscount","category":"Coarse Angling","county":"Fermanagh","type":"Content","excerpt":null,"address":"Colebrook House, Brookborough, Fermanagh","tel":"+44 (0)28 8953 1402","images":null,"lat":"54.346771240234375","lng":"-7.645120143890381"},"fields":{"slug":"/section-directory-content/coarse-angling/brookborough-rt-hon-viscount/"}}},{"node":{"frontmatter":{"title":"Cashel Lake View","category":"Coarse Angling","county":"Derry","type":"Content","excerpt":null,"address":"17 Birren Road Dungiven, Limavady, Co. Derry, BT47 4SH","tel":"+44 (0)28 7774 2159","images":null,"lat":"54.9918098449707","lng":"-7.320168972015381"},"fields":{"slug":"/section-directory-content/coarse-angling/cashel-lake-view/"}}},{"node":{"frontmatter":{"title":"Antrim Tourist Information Centre","category":"Coarse Angling","county":"Antrim","type":"Content","excerpt":null,"address":"Antrim Tourist Information Centre, The Old Courthouse Market Square, Antrim, Co. Antrim, BT41 4AW","tel":"+44 (0)28 9442 8331","images":null,"lat":"54.714759826660156","lng":"-6.2200751304626465"},"fields":{"slug":"/section-directory-content/coarse-angling/antrim-tourist-information-centre/"}}},{"node":{"frontmatter":{"title":"Coburn James and Sons","category":"Coarse Angling","county":"Down","type":"Content","excerpt":null,"address":"Coburn James and Sons, 32 Scarva Street, Banbridge, Down","tel":"+44 (0)28 4066 2207","images":null,"lat":"54.34701156616211","lng":"-6.2713189125061035"},"fields":{"slug":"/section-directory-content/coarse-angling/coburn-james-and-sons/"}}},{"node":{"frontmatter":{"title":"Course and Game Angling","category":"Coarse Angling","county":"Armagh","type":"Content","excerpt":null,"address":"Craigavon Borough Council, Craigavon, Co. Armagh","tel":"+44 (0)28 3831 2400","images":null,"lat":"54.45169448852539","lng":"-6.397026062011719"},"fields":{"slug":"/section-directory-content/coarse-angling/course-and-game-angling/"}}},{"node":{"frontmatter":{"title":"Castle Services","category":"Coarse Angling","county":"Fermanagh","type":"Content","excerpt":null,"address":"Castle Services, Drumbougher, Newtonbutler, Fermanagh","tel":"+44 (0)28 6773 8148","images":null,"lat":"54.1820182800293","lng":"-7.360599040985107"},"fields":{"slug":"/section-directory-content/coarse-angling/castle-services/"}}},{"node":{"frontmatter":{"title":"Coney Island","category":"Coarse Angling","county":"Armagh","type":"Content","excerpt":null,"address":"Kinnego Marina Caravan Park, Kinnego Marina Oxford island Annaloiste Road, Lurgan, Co. Armagh, BT66 6NJ","tel":"+44 (0)28 3832 7573","images":null,"lat":"54.462921142578125","lng":"-6.33630895614624"},"fields":{"slug":"/section-directory-content/coarse-angling/coney-island/"}}},{"node":{"frontmatter":{"title":"Fisheries Conservancy Board","category":"Coarse Angling","county":"Armagh","type":"Content","excerpt":null,"address":"Fisheries Conservancy Board, 1 Mahon Road,, Portadown, Armagh","tel":"+44 (0)28 3833 4666","images":null,"lat":"54.45169448852539","lng":"-6.397026062011719"},"fields":{"slug":"/section-directory-content/coarse-angling/fisheries-conservancy-board/"}}},{"node":{"frontmatter":{"title":"Beattie CF Gunsmith","category":"Coarse Angling","county":"Antrim","type":"Content","excerpt":null,"address":"Beattie, CF Gunsmith, 39 Main Street Ballycarry,, Carrickfergus, Antrim","tel":"+44 (0)28 9335 3462","images":null,"lat":"54.715145111083984","lng":"-5.805984973907471"},"fields":{"slug":"/section-directory-content/coarse-angling/beattie-cf-gunsmith/"}}},{"node":{"frontmatter":{"title":"Erne Tackle and Cycles","category":"Coarse Angling","county":"Fermanagh","type":"Content","excerpt":null,"address":"Erne Tackle, 121 Main Street, Lisnaskea, Co. Fermanagh","tel":"+44 (0)28 6772 1969","images":null,"lat":"54.346771240234375","lng":"-7.645120143890381"},"fields":{"slug":"/section-directory-content/coarse-angling/erne-tackle-and-cycles/"}}},{"node":{"frontmatter":{"title":"Giants Causeway Holiday Cotteges","category":"Coarse Angling","county":"Antrim","type":"Content","excerpt":null,"address":"Giants Causeway Holiday Cotteges, 71 Causeway Road, Bushmills, Antrim","tel":"+44 (0)28 2073 1673","images":null,"lat":"55.204498291015625","lng":"-6.52309513092041"},"fields":{"slug":"/section-directory-content/coarse-angling/giants-causeway-holiday-cotteges/"}}},{"node":{"frontmatter":{"title":"Country Sports and Tackle","category":"Coarse Angling","county":"Antrim","type":"Content","excerpt":null,"address":"Country Sports and Tackle, 9 Rough Lane, Antrim,, Co. Antrim","tel":"+44 (0)28 9446 7378","images":null,"lat":"54.71554946899414","lng":"-6.2163801193237305"},"fields":{"slug":"/section-directory-content/coarse-angling/country-sports-and-tackle/"}}},{"node":{"frontmatter":{"title":"Foyle Carlingford and Irish light","category":"Coarse Angling","county":"Derry","type":"Content","excerpt":null,"address":"Foyle Carlingford and Irish light, 22 Victoria Road, Derry, Co. Derry","tel":"+44 (0)28 7134 2100","images":null,"lat":"54.9918098449707","lng":"-7.320168972015381"},"fields":{"slug":"/section-directory-content/coarse-angling/foyle-carlingford-and-irish-light/"}}},{"node":{"frontmatter":{"title":"Field And Stream","category":"Coarse Angling","county":"Tyrone","type":"Content","excerpt":null,"address":"Field and Stream, 24 Charlemount Street, Moy, Co. Tyrone","tel":"+44 (0)28 8778 9533","images":null,"lat":"54.505088806152344","lng":"-6.764308929443359"},"fields":{"slug":"/section-directory-content/coarse-angling/field-and-stream/"}}},{"node":{"frontmatter":{"title":"Home Field and Stream","category":"Coarse Angling","county":"Fermanagh","type":"Content","excerpt":null,"address":"Home Field and Stream, 18 Church Street, Enniskillen, Co. Fermanagh","tel":"+44 (0)28 6632 2114","images":null,"lat":"54.346771240234375","lng":"-7.645120143890381"},"fields":{"slug":"/section-directory-content/coarse-angling/home-field-and-stream/"}}},{"node":{"frontmatter":{"title":"Home Stores Tackle","category":"Coarse Angling","county":"Antrim","type":"Content","excerpt":null,"address":"Home Stores Tackle, 433 Lisburn Road, Belfast, Antrim","tel":"+44 (0)28 9038 1284","images":null,"lat":"54.59572982788086","lng":"-5.936308860778809"},"fields":{"slug":"/section-directory-content/coarse-angling/home-stores-tackle/"}}},{"node":{"frontmatter":{"title":"Lough Derravaragh","category":"Coarse Angling","county":"Westmeath","type":"Content","excerpt":null,"address":"Mullingar Tourist Office, Mullingar, Co. Westmeath","tel":"+353 (0)44 934 8650","images":null,"lat":"53.65121841430664","lng":"-7.37468147277832"},"fields":{"slug":"/section-directory-content/coarse-angling/lough-derravaragh/"}}},{"node":{"frontmatter":{"title":"Huestons Footware Fishing Tackle and Blinds","category":"Coarse Angling","county":"Derry","type":"Content","excerpt":null,"address":"Huestons Footware,Fishing Tackle and Blinds, 55 Main street, Castledawson, Co. Derry","tel":"+44 (0)28 7946 8282","images":null,"lat":"54.755401611328125","lng":"-6.608119010925293"},"fields":{"slug":"/section-directory-content/coarse-angling/huestons-footware-fishing-tackle-and-blinds/"}}},{"node":{"frontmatter":{"title":"Gibson TM Farmer","category":"Coarse Angling","county":"Tyrone","type":"Content","excerpt":null,"address":"Gibson, TM Farmer, Tullyweary House, Stewartstown, Co. Tyrone","tel":"+44 (0)28 8676 2606","images":null,"lat":"54.505088806152344","lng":"-6.764308929443359"},"fields":{"slug":"/section-directory-content/coarse-angling/gibson-tm-farmer/"}}},{"node":{"frontmatter":{"title":"Lough Gur","category":"Coarse Angling","county":"Limerick","type":"Content","excerpt":null,"address":"Shannon Regional Fisheries, BoardAshbourne Business Park, Limerick, Co. Limerick","tel":"+353 (0)61 30 0238","images":null,"lat":"52.66180419921875","lng":"-8.62877082824707"},"fields":{"slug":"/section-directory-content/coarse-angling/lough-gur/"}}},{"node":{"frontmatter":{"title":"Lough Erne Resort - Angling","category":"Coarse Angling","county":"Fermanagh","type":"Content","excerpt":null,"address":"Belleek Road, Enniskillen, Co. Fermanagh, BT93 7ED","tel":"+44 (0)28 6632 3230","images":null,"lat":"54.346771240234375","lng":"-7.645120143890381"},"fields":{"slug":"/section-directory-content/coarse-angling/lough-erne-resort---angling/"}}},{"node":{"frontmatter":{"title":"Lough Melvin and River Drowes - Drowes Estuary","category":"Coarse Angling","county":"Donegal","type":"Content","excerpt":null,"address":"Northern Regional Fisheries Board, Station Road, Ballyshannon, Donegal","tel":"+353 (0)71 985 1435","images":null,"lat":"54.45106506347656","lng":"-8.246232032775879"},"fields":{"slug":"/section-directory-content/coarse-angling/lough-melvin-and-river-drowes---drowes-estuary/"}}},{"node":{"frontmatter":{"title":"Larne Angling Centre","category":"Coarse Angling","county":"Antrim","type":"Content","excerpt":null,"address":"Larne Angling Centre, 128 main Street, Larne, Antrim","tel":"+44 (0)28 2827 0404","images":null,"lat":"54.85028076171875","lng":"-5.822878837585449"},"fields":{"slug":"/section-directory-content/coarse-angling/larne-angling-centre/"}}},{"node":{"frontmatter":{"title":"Lough Stock and Barrel","category":"Coarse Angling","county":"Armagh","type":"Content","excerpt":null,"address":"Lough, Stock and Barrel, 80 William Street, Lurgan, Armagh","tel":"+44 (0)28 3831 6855","images":null,"lat":"54.462921142578125","lng":"-6.33630895614624"},"fields":{"slug":"/section-directory-content/coarse-angling/lough-stock-and-barrel/"}}},{"node":{"frontmatter":{"title":"Lough Neagh Fishing Tours","category":"Coarse Angling","county":"Tyrone","type":"Content","excerpt":null,"address":"Lough Neagh Fishing Tours, Mr Tom Woods 190 Aghafad Road, Clogher, Co. Tyrone, BT76 0XE","tel":"+44 (0)28 8554 8659","images":null,"lat":"54.71554946899414","lng":"-6.2163801193237305"},"fields":{"slug":"/section-directory-content/coarse-angling/lough-neagh-fishing-tours/"}}},{"node":{"frontmatter":{"title":"Mallow (Coarse)","category":"Coarse Angling","county":"Cork","type":"Content","excerpt":null,"address":"South Western Regional Fisheries Board, Sunnyside House, Macroom, Cork","tel":"+353 (0)26 41 222","images":null,"lat":"52.1384391784668","lng":"-8.644827842712402"},"fields":{"slug":"/section-directory-content/coarse-angling/mallow-coarse/"}}},{"node":{"frontmatter":{"title":"Marybound Country Sports","category":"Coarse Angling","county":"Antrim","type":"Content","excerpt":null,"address":"Marybound Country Sports, Maryland Industrial Estate Ballygomartin Road, Belfast, Antrim","tel":"+44 (0)28 9044 8598","images":null,"lat":"54.59572982788086","lng":"-5.936308860778809"},"fields":{"slug":"/section-directory-content/coarse-angling/marybound-country-sports/"}}},{"node":{"frontmatter":{"title":"Lough Ree","category":"Coarse Angling","county":"Dublin","type":"Content","excerpt":null,"address":"The Central Fisheries Board, Unit 4, Swords Business Campus, Balheary Road, Swords, Dublin","tel":"+353 (0)1 8842 600","images":null,"lat":"53.51365280151367","lng":"-7.977115154266357"},"fields":{"slug":"/section-directory-content/coarse-angling/lough-ree/"}}},{"node":{"frontmatter":{"title":"McGrogans Fishing Tackle","category":"Coarse Angling","county":"Antrim","type":"Content","excerpt":null,"address":"Mcgrogans Fishing Tackle, 34 Broughshane Street, Ballymena, Antrim","tel":"+44 (0)28 2564 6370","images":null,"lat":"54.86907958984375","lng":"-6.2760701179504395"},"fields":{"slug":"/section-directory-content/coarse-angling/mcgrogans-fishing-tackle/"}}},{"node":{"frontmatter":{"title":"Melvin Tackle","category":"Coarse Angling","county":"Fermanagh","type":"Content","excerpt":null,"address":"Melvin Tackle, Main Street, Garrison, Co. Fermanagh","tel":"+44 (0)28 6865 8194","images":null,"lat":"54.346771240234375","lng":"-7.645120143890381"},"fields":{"slug":"/section-directory-content/coarse-angling/melvin-tackle/"}}},{"node":{"frontmatter":{"title":"Pollaphuca Reservoir","category":"Coarse Angling","county":"Wicklow","type":"Content","excerpt":null,"address":"Electricity Supply Board, Fisheries Office, Blessington, Wicklow","tel":"+353 (0)61 34 5589","images":null,"lat":"53.336875915527344","lng":"-6.248754024505615"},"fields":{"slug":"/section-directory-content/coarse-angling/pollaphuca-reservoir/"}}},{"node":{"frontmatter":{"title":"Lough Mask","category":"Coarse Angling","county":"Galway","type":"Content","excerpt":null,"address":"The Western Regional Fisheries Board, Weir Lodge, Earls Island, Galway City","tel":"+353 (0)91 56 3118","images":null,"lat":"53.625587463378906","lng":"-9.352433204650879"},"fields":{"slug":"/section-directory-content/coarse-angling/lough-mask/"}}},{"node":{"frontmatter":{"title":"River Fergus System and Lakes","category":"Coarse Angling","county":"Limerick","type":"Content","excerpt":null,"address":"Shannon Regional Fisheries Board, Ashbourne Business Park Dock Road, Limerick, Co. Limerick","tel":"+353 (0)61 30 0238","images":null,"lat":"52.655372619628906","lng":"-8.651154518127441"},"fields":{"slug":"/section-directory-content/coarse-angling/river-fergus-system-and-lakes/"}}},{"node":{"frontmatter":{"title":"McKnights Fishing Tackle","category":"Coarse Angling","county":"Antrim","type":"Content","excerpt":null,"address":"McKnights Fishing Tackle, 18 Main Street, Portglenone, Antrim","tel":"+44 (0)28 2582 2269","images":null,"lat":"54.86907958984375","lng":"-6.2760701179504395"},"fields":{"slug":"/section-directory-content/coarse-angling/mcknights-fishing-tackle/"}}},{"node":{"frontmatter":{"title":"Pollocks Car Wash Centre","category":"Coarse Angling","county":"Antrim","type":"Content","excerpt":null,"address":"Pollocks Car Wash Centre, Rodeing Foot, Ballymoney, Antrim","tel":"+44 (0)28 2766 3529","images":null,"lat":"55.07075119018555","lng":"-6.511940002441406"},"fields":{"slug":"/section-directory-content/coarse-angling/pollocks-car-wash-centre/"}}},{"node":{"frontmatter":{"title":"Riverbush Salmon Station","category":"Coarse Angling","county":"Antrim","type":"Content","excerpt":null,"address":"Riverbush Salmon Station, 21 Church Street, Bushmills, Antrim","tel":"+44 (0)28 2073 1435","images":null,"lat":"55.204498291015625","lng":"-6.52309513092041"},"fields":{"slug":"/section-directory-content/coarse-angling/riverbush-salmon-station/"}}},{"node":{"frontmatter":{"title":"Moyle Outdoor Angling and Leisure","category":"Coarse Angling","county":"Antrim","type":"Content","excerpt":null,"address":"Moyle outdoor Anglingand Leisure, 17 Castle street, Ballycastle, Antrim","tel":"+44 (0)28 2076 9521","images":null,"lat":"55.20366287231445","lng":"-6.243484020233154"},"fields":{"slug":"/section-directory-content/coarse-angling/moyle-outdoor-angling-and-leisure/"}}},{"node":{"frontmatter":{"title":"Shannons Lough Derg Pike and Coarse fishery","category":"Coarse Angling","county":"Limerick","type":"Content","excerpt":null,"address":"Shannon Regional Fisheries Board Ashbourne Business Park Dock Road Limerick City Ireland, Ashbourne Business Park, Limerick, Limerick","tel":"+353 (0)61 30 0238","images":null,"lat":"52.65628433227539","lng":"-8.652350425720215"},"fields":{"slug":"/section-directory-content/coarse-angling/shannons-lough-derg-pike-and-coarse-fishery/"}}},{"node":{"frontmatter":{"title":"Stewrt and James Hardware","category":"Coarse Angling","county":"Down","type":"Content","excerpt":null,"address":"Stewart and James Hardware, 20 Main Street, Rathfriland, Down","tel":"+44 (0)28 4063 0601","images":null,"lat":"54.17662811279297","lng":"-6.339670181274414"},"fields":{"slug":"/section-directory-content/coarse-angling/stewrt-and-james-hardware/"}}},{"node":{"frontmatter":{"title":"The River Shannon Athlone to Meelick","category":"Coarse Angling","county":"Dublin","type":"Content","excerpt":null,"address":"The Central Fisheries Board, Unit 4, Swords Business Campus, Balheary Road, Swords, Dublin","tel":"+353 (0)1 8842 600","images":null,"lat":"53.71656799316406","lng":"-7.949179172515869"},"fields":{"slug":"/section-directory-content/coarse-angling/the-river-shannon-athlone-to-meelick/"}}},{"node":{"frontmatter":{"title":"River Shannon - Shannonbridge to Limerick City - great angling","category":"Coarse Angling","county":"Limerick","type":"Content","excerpt":null,"address":"Shannon Regional Fisheries Board, Ashbourne Business Park Dock Road, Limerick, Limerick","tel":"+353 (0)61 30 0238","images":null,"lat":"52.655372619628906","lng":"-8.651154518127441"},"fields":{"slug":"/section-directory-content/coarse-angling/river-shannon---shannonbridge-to-limerick-city---great-angling/"}}},{"node":{"frontmatter":{"title":"Shorts Sports and Cycles","category":"Coarse Angling","county":"Armagh","type":"Content","excerpt":null,"address":"shorts sports and cycles, 2 North Street, Crossmaglen, Armagh","tel":"+44 (0)28 3086 1861","images":null,"lat":"54.17662811279297","lng":"-6.339670181274414"},"fields":{"slug":"/section-directory-content/coarse-angling/shorts-sports-and-cycles/"}}},{"node":{"frontmatter":{"title":"The Valley Hotel","category":"Coarse Angling","county":"Tyrone","type":"Content","excerpt":null,"address":"The Valley Hotel, Main Street, Fivemiletown, Co. Tyrone","tel":"+44 (0)28 8952 1505","images":null,"lat":"54.3785400390625","lng":"-7.316298961639404"},"fields":{"slug":"/section-directory-content/coarse-angling/the-valley-hotel/"}}},{"node":{"frontmatter":{"title":"Shanes Castle Angling","category":"Coarse Angling","county":"Antrim","type":"Content","excerpt":null,"address":"Shanes Castle, Estate Office Shanes Castle, Antrim, Co. Anrrim","tel":"+44 (0)28 9442 8216","images":null,"lat":"54.71554946899414","lng":"-6.2163801193237305"},"fields":{"slug":"/section-directory-content/coarse-angling/shanes-castle-angling/"}}},{"node":{"frontmatter":{"title":"Cassells EJ and Sons","category":"Coarse Angling","county":"Antrim","type":"Content","excerpt":null,"address":"Cassells, EJ and Sons, 41 - 43 Main street, Ballymoney, Antrim","tel":"+44 (0)28 2766 3216","images":null,"lat":"55.07075119018555","lng":"-6.511940002441406"},"fields":{"slug":"/section-directory-content/coarse-angling/cassells-ej-and-sons/"}}},{"node":{"frontmatter":{"title":"Movilla Trout Fishery","category":"Coarse Angling","county":"Down","type":"Content","excerpt":null,"address":"Movilla Trout Fishery, 155c Movilla Road, Newtownards, Co. Down, BT23 8RL","tel":"+44 (0)28 9181 3334","images":null,"lat":"54.594329833984375","lng":"-5.70030403137207"},"fields":{"slug":"/section-directory-content/coarse-angling/movilla-trout-fishery/"}}},{"node":{"frontmatter":{"title":"Stinson The Saddler","category":"Coarse Angling","county":"Armagh","type":"Content","excerpt":null,"address":"Stinson The Saddler, 20 Thomas Street, Armagh, Co. Armagh","tel":"+44 (0)28 3752 3339","images":null,"lat":"54.34708023071289","lng":"-6.648488998413086"},"fields":{"slug":"/section-directory-content/coarse-angling/stinson-the-saddler/"}}},{"node":{"frontmatter":{"title":"Watermill Fishing Lodge","category":"Coarse Angling","county":"Fermanagh","type":"Content","excerpt":null,"address":"Kilmore Quay, Lisnaskea, Co. Fermanagh, BT92 0DT","tel":"+44 (0)28 6772 4369","images":null,"lat":"54.346771240234375","lng":"-7.645120143890381"},"fields":{"slug":"/section-directory-content/coarse-angling/watermill-fishing-lodge/"}}},{"node":{"frontmatter":{"title":"Tight Lines","category":"Coarse Angling","county":"Antrim","type":"Content","excerpt":null,"address":"Tight lines, 198 - 200 Albertbridge Road, Belfast, Antrim","tel":"+44 (0)28 9045 7357","images":null,"lat":"54.59572982788086","lng":"-5.936308860778809"},"fields":{"slug":"/section-directory-content/coarse-angling/tight-lines/"}}},{"node":{"frontmatter":{"title":"Cookstown Sports Centre","category":"Coarse Angling","county":"Tyrone","type":"Content","excerpt":null,"address":"Cookstown Sports Centre, 45 William Street, Cookstown, Co. Tyrone","tel":"+44 (0)28 8676 4100","images":null,"lat":"54.64448928833008","lng":"-6.744750022888184"},"fields":{"slug":"/section-directory-content/coarse-angling/cookstown-sports-centre/"}}}]}},"pageContext":{"isCreatedByStatefulCreatePages":false,"slug":"/section-directory/coarse-angling/","category":"Coarse Angling"}}}