{"componentChunkName":"component---src-templates-section-directory-js","path":"/section-directory/angling/","webpackCompilationHash":"","result":{"data":{"markdownRemark":{"html":"","frontmatter":{"category":"Angling"}},"allMarkdownRemark":{"distinct":["Cork","Donegal","Down","Dublin","Fermanagh","Galway","Kerry","Laois","Limerick","Louth","Mayo","Meath","Offaly","Tipperary","Waterford","Wexford","Wicklow"],"edges":[{"node":{"frontmatter":{"title":"An Duanai Mara Charters","category":"Angling","county":"Donegal","type":"Content","excerpt":null,"address":"Creevy Co-Op Society, Creevy, Ballyshannon, Co. Donegal","tel":"+353 (0)87 275 9731","images":null,"lat":"54.526206970214844","lng":"-8.229476928710938"},"fields":{"slug":"/section-directory-content/angling/an-duanai-mara-charters/"}}},{"node":{"frontmatter":{"title":"Angling Adrigole River","category":"Angling","county":"Cork","type":"Content","excerpt":null,"address":"South Western Regional Fisheries Board, Sunnyside House, Macroom, Co. Cork","tel":"+353 (0)26 41 222","images":null,"lat":"51.695838928222656","lng":"-9.71950912475586"},"fields":{"slug":"/section-directory-content/angling/angling-adrigole-river/"}}},{"node":{"frontmatter":{"title":"Caha Mountain Loughs","category":"Angling","county":"Cork","type":"Content","excerpt":null,"address":"South Western Regional Fisheries Board, Sunnyside House, Macroom, Co. Cork","tel":"+353 (0)26 41 222","images":null,"lat":"51.74733352661133","lng":"-9.549739837646484"},"fields":{"slug":"/section-directory-content/angling/caha-mountain-loughs/"}}},{"node":{"frontmatter":{"title":"Angling Roxboro River","category":"Angling","county":"Cork","type":"Content","excerpt":null,"address":"South Western Regional Fisheries Board, Sunnyside House, Macroom, Co. Cork","tel":"+353 (0)26 41 221","images":null,"lat":"51.90983581542969","lng":"-8.174790382385254"},"fields":{"slug":"/section-directory-content/angling/angling-roxboro-river/"}}},{"node":{"frontmatter":{"title":"Cahir Angling Association","category":"Angling","county":"Tipperary","type":"Content","excerpt":null,"address":"PRO Cahir and District Anglers??? Association, Reiska Road,, Cahir, South Tipperary","tel":"+353 (0)52 744 2729","images":null,"lat":"52.379852294921875","lng":"-7.9235944747924805"},"fields":{"slug":"/section-directory-content/angling/cahir-angling-association/"}}},{"node":{"frontmatter":{"title":"Cappoquin Salmon and Trout Anglers Association - River Blackwater","category":"Angling","county":"Waterford","type":"Content","excerpt":null,"address":"Cappoquin, Waterford","tel":"NOVAL","images":null,"lat":"52.14651107788086","lng":"-7.847639560699463"},"fields":{"slug":"/section-directory-content/angling/cappoquin-salmon-and-trout-anglers-association---river-blackwater/"}}},{"node":{"frontmatter":{"title":"Attymass Salmon Fishery","category":"Angling","county":"Mayo","type":"Content","excerpt":null,"address":"Attymass Angling Association, C/o Mr Padraic Garret, Carrowkerribla, Attymass, Ballina, Co. Mayo","tel":"+353 (0)94 925 8151","images":null,"lat":"52.80157470703125","lng":"-7.688981533050537"},"fields":{"slug":"/section-directory-content/angling/attymass-salmon-fishery/"}}},{"node":{"frontmatter":{"title":"Banbridge Angling Club - Corbet Lough","category":"Angling","county":"Down","type":"Content","excerpt":null,"address":"Banbridge Angling Club, Corbet Lough Aughnacloy Road, Banbridge, Co. Down, BT32 3RU","tel":"+44 (0)28 4062 5039","images":null,"lat":"54.34701156616211","lng":"-6.2713189125061035"},"fields":{"slug":"/section-directory-content/angling/banbridge-angling-club---corbet-lough/"}}},{"node":{"frontmatter":{"title":"Angling Bohernabreena Reservoirs","category":"Angling","county":"Dublin","type":"Content","excerpt":null,"address":"Waterworks Department, 68 Marrowbone Lane, Tallaght, Co. Dublin","tel":"+353 (0)14 54 3444","images":null,"lat":"53.2823600769043","lng":"-6.3665595054626465"},"fields":{"slug":"/section-directory-content/angling/angling-bohernabreena-reservoirs/"}}},{"node":{"frontmatter":{"title":"Enfield Blackwater","category":"Angling","county":"Meath","type":"Content","excerpt":null,"address":"Contact your local Tourist Office for further information, Longwood, Co. Meath","tel":"+353 (0)41 988 0305","images":null,"lat":"53.42635726928711","lng":"-6.890331268310547"},"fields":{"slug":"/section-directory-content/angling/enfield-blackwater/"}}},{"node":{"frontmatter":{"title":"Dunfanaghy Anglers Association Waters","category":"Angling","county":"Donegal","type":"Content","excerpt":null,"address":"Dunfanaghy Anglers Association, Arnolds Hotel, Dunfanaghy, Donegal","tel":"+353 (0)74 913 6218","images":null,"lat":"55.18027114868164","lng":"-7.969065189361572"},"fields":{"slug":"/section-directory-content/angling/dunfanaghy-anglers-association-waters/"}}},{"node":{"frontmatter":{"title":"Jim Robinson Angling Centre","category":"Angling","county":"Limerick","type":"Content","excerpt":null,"address":"Saint Bridgets, Farranshone, Limerick, Limerick","tel":"+353 (0)61 45 3808","images":null,"lat":"52.66421890258789","lng":"-8.634214401245117"},"fields":{"slug":"/section-directory-content/angling/jim-robinson-angling-centre/"}}},{"node":{"frontmatter":{"title":"Croansaght River Glanmore Lough","category":"Angling","county":"Kerry","type":"Content","excerpt":null,"address":"Craigies Hotel, Castletown Bearhaven, Lauragh, Kerry","tel":"+353 (0)27 70 379","images":null,"lat":"51.76138687133789","lng":"-9.782258987426758"},"fields":{"slug":"/section-directory-content/angling/croansaght-river-glanmore-lough/"}}},{"node":{"frontmatter":{"title":"Lakeland and Midsummer Lakehouse","category":"Angling","county":"Galway","type":"Content","excerpt":null,"address":"Accommodation and Angling/Boating Centre, Portacarron Bay, Oughterard, Co. Galway","tel":"+353 (0)91 55 2121","images":null,"lat":"53.42097854614258","lng":"-9.324402809143066"},"fields":{"slug":"/section-directory-content/angling/lakeland-and-midsummer-lakehouse/"}}},{"node":{"frontmatter":{"title":"Fishermans Village Lodge Deep Sea Angling Boat","category":"Angling","county":"Down","type":"Content","excerpt":null,"address":"Atlantic Drive, Downings, Co. Donegal","tel":"+353 (0)74 915 5080","images":null,"lat":"55.19552230834961","lng":"-7.816474437713623"},"fields":{"slug":"/section-directory-content/angling/fishermans-village-lodge-deep-sea-angling-boat/"}}},{"node":{"frontmatter":{"title":"Killineer Reservoir","category":"Angling","county":"Louth","type":"Content","excerpt":null,"address":"For further information contact your local tourist information office, Drogheda, Co. Louth","tel":"+353 (0)42 933 5484","images":null,"lat":"53.704673767089844","lng":"-6.36536979675293"},"fields":{"slug":"/section-directory-content/angling/killineer-reservoir/"}}},{"node":{"frontmatter":{"title":"Lough Erne Resort Angling","category":"Angling","county":"Fermanagh","type":"Content","excerpt":null,"address":"Lough Erne Resort, Belleek Road, Enniskillen, Fermanagh, BT93 7ED","tel":"+44 (0)28 6632 3230","images":null,"lat":"54.346771240234375","lng":"-7.645120143890381"},"fields":{"slug":"/section-directory-content/angling/lough-erne-resort-angling/"}}},{"node":{"frontmatter":{"title":"Little Boyne","category":"Angling","county":"Offaly","type":"Content","excerpt":null,"address":"For further information contact your local tourist information office, Edenderry, Co. Offaly","tel":"+353 (0)44 934 8650","images":null,"lat":"53.344459533691406","lng":"-7.0692877769470215"},"fields":{"slug":"/section-directory-content/angling/little-boyne/"}}},{"node":{"frontmatter":{"title":"Lough Aderra","category":"Angling","county":"Cork","type":"Content","excerpt":null,"address":"South Western Regional Fisheries Board, Sunnyside House, Masseytown, Macroom, Co. Cork","tel":"+353 (0)26 41 222","images":null,"lat":"51.94636154174805","lng":"-7.853960990905762"},"fields":{"slug":"/section-directory-content/angling/lough-aderra/"}}},{"node":{"frontmatter":{"title":"Lough Gur","category":"Angling","county":"Limerick","type":"Content","excerpt":null,"address":"Shannon Regional Fisheries, BoardAshbourne Business Park, Limerick, Co. Limerick","tel":"+353 (0)61 30 0238","images":null,"lat":"52.66180419921875","lng":"-8.62877082824707"},"fields":{"slug":"/section-directory-content/angling/lough-gur/"}}},{"node":{"frontmatter":{"title":"Lough Nacung Lough Lacung Upper And Dunlewy Lake","category":"Angling","county":"Donegal","type":"Content","excerpt":null,"address":"Lakeside Centre, Dunlewy, Donegal","tel":"+353 (0)74 953 1699","images":null,"lat":"55.018348693847656","lng":"-8.125822067260742"},"fields":{"slug":"/section-directory-content/angling/lough-nacung-lough-lacung-upper-and-dunlewy-lake/"}}},{"node":{"frontmatter":{"title":"Lough Mask","category":"Angling","county":"Galway","type":"Content","excerpt":null,"address":"The Western Regional Fisheries Board, Weir Lodge, Earls Island, Galway City","tel":"+353 (0)91 56 3118","images":null,"lat":"53.625587463378906","lng":"-9.352433204650879"},"fields":{"slug":"/section-directory-content/angling/lough-mask/"}}},{"node":{"frontmatter":{"title":"Ghillie Cottage And Blackwater Fly Fishing","category":"Angling","county":"Cork","type":"Content","excerpt":null,"address":"Ghillie Cottage, Kilbarry Stud, Fermoy, Co. Cork","tel":"+353 (0)25 32 720","images":null,"lat":"52.13481521606445","lng":"-8.292661666870117"},"fields":{"slug":"/section-directory-content/angling/ghillie-cottage-and-blackwater-fly-fishing/"}}},{"node":{"frontmatter":{"title":"Lough Ree","category":"Angling","county":"Dublin","type":"Content","excerpt":null,"address":"The Central Fisheries Board, Unit 4, Swords Business Campus, Balheary Road, Swords, Dublin","tel":"+353 (0)1 8842 600","images":null,"lat":"53.51365280151367","lng":"-7.977115154266357"},"fields":{"slug":"/section-directory-content/angling/lough-ree/"}}},{"node":{"frontmatter":{"title":"Mallow (Coarse)","category":"Angling","county":"Cork","type":"Content","excerpt":null,"address":"South Western Regional Fisheries Board, Sunnyside House, Macroom, Cork","tel":"+353 (0)26 41 222","images":null,"lat":"52.1384391784668","lng":"-8.644827842712402"},"fields":{"slug":"/section-directory-content/angling/mallow-coarse/"}}},{"node":{"frontmatter":{"title":"Lough Nacroaghy Kiltooris Lough And Doon Lough","category":"Angling","county":"Donegal","type":"Content","excerpt":null,"address":"Honorary Secretary, Ardara Anglers Association, Ardara, Donegal","tel":"+353 (0)74 972 1148","images":null,"lat":"54.757469177246094","lng":"-8.418723106384277"},"fields":{"slug":"/section-directory-content/angling/lough-nacroaghy-kiltooris-lough-and-doon-lough/"}}},{"node":{"frontmatter":{"title":"New Ross - Sea Angling Club","category":"Angling","county":"Wexford","type":"Content","excerpt":null,"address":"New Ross Sea Angling Club, Ballinteskin, Wexford","tel":"+353 (0)51 38 8135","images":null,"lat":"52.34885025024414","lng":"-6.941117286682129"},"fields":{"slug":"/section-directory-content/angling/new-ross---sea-angling-club/"}}},{"node":{"frontmatter":{"title":"Lower Lough Avaul","category":"Angling","county":"Cork","type":"Content","excerpt":null,"address":"South Western Regional Fisheries Board, Sunnyside House, Macroom, Co. Cork","tel":"+353 (0)26 41 222","images":null,"lat":"51.7467041015625","lng":"-9.5498628616333"},"fields":{"slug":"/section-directory-content/angling/lower-lough-avaul/"}}},{"node":{"frontmatter":{"title":"Navan And District Angling","category":"Angling","county":"Meath","type":"Content","excerpt":null,"address":"Clarkes Sports Den, Tringate Street, Navan (An Uaimh), Meath","tel":"+353 (0)46 902 1130","images":null,"lat":"53.652488708496094","lng":"-6.686404228210449"},"fields":{"slug":"/section-directory-content/angling/navan-and-district-angling/"}}},{"node":{"frontmatter":{"title":"Owenass River","category":"Angling","county":"Laois","type":"Content","excerpt":null,"address":"For further information contact your local tourist office, Mountmellick, Co. Laois","tel":"+353 (0)57 862 1178","images":null,"lat":"53.11195755004883","lng":"-7.328779697418213"},"fields":{"slug":"/section-directory-content/angling/owenass-river/"}}},{"node":{"frontmatter":{"title":"Owennacurra River","category":"Angling","county":"Cork","type":"Content","excerpt":null,"address":"South Western Regional Fisheries Board, Sunnyside House, Macroom, Co. Cork","tel":"+353 (0)26 41 222","images":null,"lat":"51.910194396972656","lng":"-8.174646377563477"},"fields":{"slug":"/section-directory-content/angling/owennacurra-river/"}}},{"node":{"frontmatter":{"title":"Owenea River","category":"Angling","county":"Donegal","type":"Content","excerpt":null,"address":"Owena Angling Centre, Glenties Hatchery, Glenties, Donegal ( When in season )","tel":"+353 (0)74 955 1141","images":null,"lat":"54.75774002075195","lng":"-8.418725967407227"},"fields":{"slug":"/section-directory-content/angling/owenea-river/"}}},{"node":{"frontmatter":{"title":"Pollaphuca Reservoir","category":"Angling","county":"Wicklow","type":"Content","excerpt":null,"address":"Electricity Supply Board, Fisheries Office, Blessington, Wicklow","tel":"+353 (0)61 34 5589","images":null,"lat":"53.336875915527344","lng":"-6.248754024505615"},"fields":{"slug":"/section-directory-content/angling/pollaphuca-reservoir/"}}},{"node":{"frontmatter":{"title":"River Feale System - salmon and brown trout","category":"Angling","county":"Limerick","type":"Content","excerpt":null,"address":"Shannon Region Fishery Board, Ashbourne Business Park Dock Road, Limerick, Co. Limeick","tel":"+353 (0)61 30 0238","images":null,"lat":"52.655372619628906","lng":"-8.651154518127441"},"fields":{"slug":"/section-directory-content/angling/river-feale-system---salmon-and-brown-trout/"}}},{"node":{"frontmatter":{"title":"Pontoon Bridge Hotel Angling and Fly Fishing School","category":"Angling","county":"Mayo","type":"Content","excerpt":null,"address":"Pontoon Bridge Hotel, Pontoon, Co. Mayo","tel":"+353 (0)94 925 6120","images":null,"lat":"53.98883056640625","lng":"-9.195138931274414"},"fields":{"slug":"/section-directory-content/angling/pontoon-bridge-hotel-angling-and-fly-fishing-school/"}}},{"node":{"frontmatter":{"title":"River Brosna salmon and brown trout","category":"Angling","county":"Limerick","type":"Content","excerpt":null,"address":"Shannon Regional Fisheries, Dock Road, Limerick, Co. Limerick","tel":"+353 (0)61 30 0238","images":null,"lat":"52.655372619628906","lng":"-8.651154518127441"},"fields":{"slug":"/section-directory-content/angling/river-brosna-salmon-and-brown-trout/"}}},{"node":{"frontmatter":{"title":"River Ilen (Game)","category":"Angling","county":"Cork","type":"Content","excerpt":null,"address":"South Western Regional Fisheries Board, Sunnyside House, Macroom, Co. Cork","tel":"+353 (0)26 41 222","images":null,"lat":"51.54900360107422","lng":"-9.267895698547363"},"fields":{"slug":"/section-directory-content/angling/river-ilen-game/"}}},{"node":{"frontmatter":{"title":"River Inny (Game)","category":"Angling","county":"Cork","type":"Content","excerpt":null,"address":"South Western Regional Fisheries Board, Sunnyside House, Macroom, Co. Cork","tel":"+353 (0)26 41 222","images":null,"lat":"51.8591423034668","lng":"-10.173039436340332"},"fields":{"slug":"/section-directory-content/angling/river-inny-game/"}}},{"node":{"frontmatter":{"title":"Owennamarve River","category":"Angling","county":"Donegal","type":"Content","excerpt":null,"address":"Rosses Anglers Association, Fishing Tackle Shop, Dungloe, Donegal","tel":"+353 (0)74 952 1163","images":null,"lat":"54.94633865356445","lng":"-8.37495231628418"},"fields":{"slug":"/section-directory-content/angling/owennamarve-river/"}}},{"node":{"frontmatter":{"title":"River Maigue System","category":"Angling","county":"Limerick","type":"Content","excerpt":null,"address":"Shannon Regional Fisheries Board Ashbourne Business Park, Dock Road, Limerick, Co. Limerick","tel":"+353 (0)61 30 0238","images":null,"lat":"52.554935455322266","lng":"-8.80056381225586"},"fields":{"slug":"/section-directory-content/angling/river-maigue-system/"}}},{"node":{"frontmatter":{"title":"River Martin","category":"Angling","county":"Cork","type":"Content","excerpt":null,"address":"South Western Regional Fisheries Board, Sunnyside House, Macroom, Co. Cork","tel":"+353 (0)26 41 222","images":null,"lat":"51.93528747558594","lng":"-8.567758560180664"},"fields":{"slug":"/section-directory-content/angling/river-martin/"}}},{"node":{"frontmatter":{"title":"River Suir and Drish brown trout","category":"Angling","county":"Limerick","type":"Content","excerpt":null,"address":"Shannon Regional Fisheries Board Ashbourne Business Park, Dock Road, Limerick, Co. Limerick","tel":"+353 (0)61 30 0238","images":null,"lat":"52.6536750793457","lng":"-8.648306846618652"},"fields":{"slug":"/section-directory-content/angling/river-suir-and-drish-brown-trout/"}}},{"node":{"frontmatter":{"title":"River Lee System","category":"Angling","county":"Cork","type":"Content","excerpt":null,"address":"South Western Regional Fisheries Board, Sunnyside House, Macroom, Co. Cork","tel":"+353 (0)26 41 222","images":null,"lat":"51.89734649658203","lng":"-8.958512306213379"},"fields":{"slug":"/section-directory-content/angling/river-lee-system/"}}},{"node":{"frontmatter":{"title":"The River Nore","category":"Angling","county":"Dublin","type":"Content","excerpt":null,"address":"The Central Fisheries Board, Unit 4, Swords Business Campus, Balheary Road, Swords, Dublin","tel":"+353 (0)1 8842 600","images":null,"lat":"52.46628189086914","lng":"-7.040762901306152"},"fields":{"slug":"/section-directory-content/angling/the-river-nore/"}}},{"node":{"frontmatter":{"title":"Sea Fishing in the Shannon Estuary - Limerick City to Loop Head","category":"Angling","county":"Limerick","type":"Content","excerpt":null,"address":"Shannon Regional Fisheries Board Ashbourne Business Park, Dock Road, Limerick, Co. Limerick","tel":"+353 (0)61 30 0238","images":null,"lat":"52.655372619628906","lng":"-8.651154518127441"},"fields":{"slug":"/section-directory-content/angling/sea-fishing-in-the-shannon-estuary---limerick-city-to-loop-head/"}}},{"node":{"frontmatter":{"title":"Uragh Lough","category":"Angling","county":"Cork","type":"Content","excerpt":null,"address":"South Western Regional Fisheries Board, Sunnyside House, Macroom, Co. Cork","tel":"+353 (0)26 41 222","images":null,"lat":"51.872806549072266","lng":"-9.596870422363281"},"fields":{"slug":"/section-directory-content/angling/uragh-lough/"}}},{"node":{"frontmatter":{"title":"Rosses Anglers Association","category":"Angling","county":"Donegal","type":"Content","excerpt":null,"address":"Fishing Tackle Shop, The Bridge, Dungloe, Donegal","tel":"+353 (0)74 952 1163","images":null,"lat":"54.94742202758789","lng":"-8.373245239257812"},"fields":{"slug":"/section-directory-content/angling/rosses-anglers-association/"}}},{"node":{"frontmatter":{"title":"Lough Melvin and River Drowes - Drowes Estuary","category":"Angling","county":"Donegal","type":"Content","excerpt":null,"address":"Northern Regional Fisheries Board, Station Road, Ballyshannon, Donegal","tel":"+353 (0)71 985 1435","images":null,"lat":"54.45106506347656","lng":"-8.246232032775879"},"fields":{"slug":"/section-directory-content/angling/lough-melvin-and-river-drowes---drowes-estuary/"}}},{"node":{"frontmatter":{"title":"The River Shannon Lanesboro to Rooskey","category":"Angling","county":"Dublin","type":"Content","excerpt":null,"address":"The Central Fisheries Board, Unit 4, Swords Business Campus, Balheary Road, Swords, Dublin","tel":"+353 (0)1 8842 600","images":null,"lat":"53.71656799316406","lng":"-7.949179172515869"},"fields":{"slug":"/section-directory-content/angling/the-river-shannon-lanesboro-to-rooskey/"}}},{"node":{"frontmatter":{"title":"River Shannon - Shannonbridge to Limerick City - great angling","category":"Angling","county":"Limerick","type":"Content","excerpt":null,"address":"Shannon Regional Fisheries Board, Ashbourne Business Park Dock Road, Limerick, Limerick","tel":"+353 (0)61 30 0238","images":null,"lat":"52.655372619628906","lng":"-8.651154518127441"},"fields":{"slug":"/section-directory-content/angling/river-shannon---shannonbridge-to-limerick-city---great-angling/"}}}]}},"pageContext":{"isCreatedByStatefulCreatePages":false,"slug":"/section-directory/angling/","category":"Angling"}}}