{"componentChunkName":"component---src-templates-section-directory-js","path":"/section-directory/libraries/","webpackCompilationHash":"","result":{"data":{"markdownRemark":{"html":"","frontmatter":{"category":"Libraries"}},"allMarkdownRemark":{"distinct":["Antrim","Armagh","Cork","Derry","Down","Dublin","Fermanagh","Galway","Kildare","Limerick","Longford","Mayo","Tipperary","Tyrone","Waterford","Wexford","Wicklow"],"edges":[{"node":{"frontmatter":{"title":"Armagh Public Library","category":"Libraries","county":"Armagh","type":"Content","excerpt":null,"address":"Armagh Public Library, Armagh Publuic Library 43 Abbey Street, Armagh, Co. Armagh, BT61 7DY","tel":"+44 (0)28 3752 3142","images":null,"lat":"54.34937286376953","lng":"-6.657351016998291"},"fields":{"slug":"/section-directory-content/libraries/armagh-public-library/"}}},{"node":{"frontmatter":{"title":"Ballyfermot Library Drama Group","category":"Libraries","county":"Dublin","type":"Content","excerpt":null,"address":"Ballyfermot Library Ballyfermot rd 10 Co. Dublin","tel":"(01)6269324","images":null,"lat":"53.34359111","lng":"-6.368639285"},"fields":{"slug":"/section-directory-content/libraries/ballyfermot-library-drama-group/"}}},{"node":{"frontmatter":{"title":"Belfast Public Library","category":"Libraries","county":"Antrim","type":"Content","excerpt":null,"address":"Belfast Public Library, Royal Avenue, Belfast, Antrim, BT1 1FF","tel":"+44 (0)28 9050 9150","images":null,"lat":"54.59572982788086","lng":"-5.936308860778809"},"fields":{"slug":"/section-directory-content/libraries/belfast-public-library/"}}},{"node":{"frontmatter":{"title":"Cahill Peter Engineering Ltd","category":"Libraries","county":"Dublin","type":"Content","excerpt":null,"address":"Merrywell Business pk Ballymount rd 12 Co. Dublin","tel":"(01)4500030","images":null,"lat":"53.316178","lng":"-6.354056"},"fields":{"slug":"/section-directory-content/libraries/cahill-peter-engineering-ltd/"}}},{"node":{"frontmatter":{"title":"Carlton Atlantic Coast Hotel- C Spa and Leisure Centre","category":"Libraries","county":"Mayo","type":"Content","excerpt":null,"address":"The Quay Westport Co. Mayo","tel":"(098)29000","images":null,"lat":"53.79946242","lng":"-9.550824419"},"fields":{"slug":"/section-directory-content/libraries/carlton-atlantic-coast-hotel--c-spa-and-leisure-centre/"}}},{"node":{"frontmatter":{"title":"C.A. Parsons","category":"Libraries","county":"Dublin","type":"Content","excerpt":null,"address":"Unit 1A Broomhill Business Complex Broomhill Road Tallaght 24 Co. Dublin","tel":"(01)4526211","images":null,"lat":"53.296986","lng":"-6.364019"},"fields":{"slug":"/section-directory-content/libraries/ca-parsons/"}}},{"node":{"frontmatter":{"title":"Carnegie Building Falls Road Library","category":"Libraries","county":"Antrim","type":"Content","excerpt":null,"address":"Carnegie Building, 121 Donegall Road, Belfast, Antrim, BT12 5JL","tel":"+44 (0)28 9024 6609","images":null,"lat":"54.59572982788086","lng":"-5.936308860778809"},"fields":{"slug":"/section-directory-content/libraries/carnegie-building-falls-road-library/"}}},{"node":{"frontmatter":{"title":"Carlton Atlantic Coast Hotel- C Spa and Leisure Ctr","category":"Libraries","county":"Mayo","type":"Content","excerpt":null,"address":"The Quay Westport Co. Mayo","tel":"(098)29000","images":null,"lat":"53.79946242","lng":"-9.550824419"},"fields":{"slug":"/section-directory-content/libraries/carlton-atlantic-coast-hotel--c-spa-and-leisure-ctr/"}}},{"node":{"frontmatter":{"title":"Castletymon Public Library","category":"Libraries","county":"Dublin","type":"Content","excerpt":null,"address":"Castletymon S C Balrothery Tallaght Co. Dublin","tel":"(01)4524888","images":null,"lat":"53.29522429","lng":"-6.341655448"},"fields":{"slug":"/section-directory-content/libraries/castletymon-public-library/"}}},{"node":{"frontmatter":{"title":"Chester Beatty Library","category":"Libraries","county":"Dublin","type":"Content","excerpt":null,"address":"Dublin Castle, Co. Dublin, Dublin 2","tel":"+353 (0)1 407 0750","images":null,"lat":"53.34217834472656","lng":"-6.267275333404541"},"fields":{"slug":"/section-directory-content/libraries/chester-beatty-library/"}}},{"node":{"frontmatter":{"title":"Checkstock Security","category":"Libraries","county":"Dublin","type":"Content","excerpt":null,"address":"105/106 Robertson Mews Unit 49 Baldoyle Ind Est 13 Co. Dublin","tel":"(1800)511605","images":null,"lat":"53.395236","lng":"-6.147605492"},"fields":{"slug":"/section-directory-content/libraries/checkstock-security/"}}},{"node":{"frontmatter":{"title":"Cardinal Tomas Fiaich Memorial Library And Archive","category":"Libraries","county":"Armagh","type":"Content","excerpt":null,"address":"Cardinal Tomas O'Fiaich Memorial Library And Archive, 15 Moy Road, Armagh, Armagh, BT61 7LY","tel":"+44 (0)28 3752 2981","images":null,"lat":"54.35520935058594","lng":"-6.657671928405762"},"fields":{"slug":"/section-directory-content/libraries/cardinal-tomas-fiaich-memorial-library-and-archive/"}}},{"node":{"frontmatter":{"title":"Contemporary Music Centre","category":"Libraries","county":"Dublin","type":"Content","excerpt":null,"address":"19 Fishamble Street Temple Bar,, Old City, Dublin city centre, Co. Dublin, Dublin 8","tel":"+353 (0)1 673 1922","images":null,"lat":"53.34416198730469","lng":"-6.269582271575928"},"fields":{"slug":"/section-directory-content/libraries/contemporary-music-centre/"}}},{"node":{"frontmatter":{"title":"Dublin City Archives","category":"Libraries","county":"Dublin","type":"Content","excerpt":null,"address":"Dublin City Archives, 138 - 144 Pearse Street, Dublin City Centre, Co. Dublin, Dublin 2","tel":"+353 (0)16 74 4999","images":null,"lat":"53.34305953979492","lng":"-6.245091915130615"},"fields":{"slug":"/section-directory-content/libraries/dublin-city-archives/"}}},{"node":{"frontmatter":{"title":"Draperstown Library","category":"Libraries","county":"Derry","type":"Content","excerpt":null,"address":"20, High St, Draperstown, Magherafelt, Co. Derry BT45 7AA","tel":"028 7962 8249","images":null,"lat":"54.690819","lng":"-6.671345"},"fields":{"slug":"/section-directory-content/libraries/draperstown-library/"}}},{"node":{"frontmatter":{"title":"Central Heating Installations","category":"Libraries","county":"Dublin","type":"Content","excerpt":null,"address":"Unit 2 Capital House Malahide Road Industrial Park Dublin 17 Co. Dublin","tel":"(1890)905842","images":null,"lat":"53.3978","lng":"-6.19455"},"fields":{"slug":"/section-directory-content/libraries/central-heating-installations/"}}},{"node":{"frontmatter":{"title":"Dublin Tunnel Commercials","category":"Libraries","county":"Dublin","type":"Content","excerpt":null,"address":"The Heli Centre Airport Bus Pk Old Airport rd Co. Dublin Co. Dublin","tel":"(01)8080924","images":null,"lat":"53.42527","lng":"-6.223156"},"fields":{"slug":"/section-directory-content/libraries/dublin-tunnel-commercials/"}}},{"node":{"frontmatter":{"title":"Central Library","category":"Libraries","county":"Antrim","type":"Content","excerpt":null,"address":"Central Library Belfast, Royal Avenue, Belfast, Antrim, BT1 1DJ","tel":"+44 (0)28 9050 9150","images":null,"lat":"54.59572982788086","lng":"-5.936308860778809"},"fields":{"slug":"/section-directory-content/libraries/central-library/"}}},{"node":{"frontmatter":{"title":"Fivemiletown Library","category":"Libraries","county":"Tyrone","type":"Content","excerpt":null,"address":"Fivemiletown Library, Main Street, Fivemiletown, Tyrone, BT75 0PW","tel":"+44 (0)28 8952 1409","images":null,"lat":"54.378021240234375","lng":"-7.314824104309082"},"fields":{"slug":"/section-directory-content/libraries/fivemiletown-library/"}}},{"node":{"frontmatter":{"title":"Designer Library Margaret Sheehan and Sara Murphy","category":"Libraries","county":"Cork","type":"Content","excerpt":null,"address":"1 Woodview Glanmire Co. Cork","tel":"(021)4824449","images":null,"lat":"51.9185177","lng":"-8.396627924"},"fields":{"slug":"/section-directory-content/libraries/designer-library-margaret-sheehan-and-sara-murphy/"}}},{"node":{"frontmatter":{"title":"Grove Library","category":"Libraries","county":"Antrim","type":"Content","excerpt":null,"address":"Grove Wellbeing Centre, 120, York Rd, Belfast, Co. Antrim BT15 3HF","tel":"028 9050 9244","images":null,"lat":"54.617208","lng":"-5.924087"},"fields":{"slug":"/section-directory-content/libraries/grove-library/"}}},{"node":{"frontmatter":{"title":"Days Hotel Spa and Leisure Club Waterford","category":"Libraries","county":"Waterford","type":"Content","excerpt":null,"address":"1 Merchants Quay Waterford Co. Waterford","tel":"(051)877222","images":null,"lat":"52.2637","lng":"-7.11855"},"fields":{"slug":"/section-directory-content/libraries/days-hotel-spa-and-leisure-club-waterford/"}}},{"node":{"frontmatter":{"title":"Garda Siochana Museum Archives","category":"Libraries","county":"Dublin","type":"Content","excerpt":null,"address":"The Records Tower, Dublin Castle, Dublin City Centre, Co. Dublin","tel":"+353 (0)16 66 9998","images":null,"lat":"53.34312438964844","lng":"-6.266846179962158"},"fields":{"slug":"/section-directory-content/libraries/garda-siochana-museum-archives/"}}},{"node":{"frontmatter":{"title":"Coalisland Library","category":"Libraries","county":"Tyrone","type":"Content","excerpt":null,"address":"Hertitage Centre, Lineside, Coalisland, Dungannon, Co. Tyrone BT71 4LP","tel":"028 8774 0569","images":null,"lat":"54.539694","lng":"-6.70021"},"fields":{"slug":"/section-directory-content/libraries/coalisland-library/"}}},{"node":{"frontmatter":{"title":"International Education Services (IES Ltd)","category":"Libraries","county":"Kildare","type":"Content","excerpt":null,"address":"Weston Ind Est Salmon Leap Leixlip Co. Kildare","tel":"(01)6210310","images":null,"lat":"53.356341","lng":"-6.491021"},"fields":{"slug":"/section-directory-content/libraries/international-education-services-ies-ltd/"}}},{"node":{"frontmatter":{"title":"G P A Bolton Library","category":"Libraries","county":"Tipperary","type":"Content","excerpt":null,"address":"John Street, Cashel, Co. Tipperary","tel":"+353 (0)62 61 232","images":null,"lat":"52.51184844970703","lng":"-7.897050380706787"},"fields":{"slug":"/section-directory-content/libraries/g-p-a-bolton-library/"}}},{"node":{"frontmatter":{"title":"Irvinestown Library","category":"Libraries","county":"Fermanagh","type":"Content","excerpt":null,"address":"Main St, Irvinestown, Enniskillen, Co. Fermanagh BT94 1GJ","tel":"028 6862 1383","images":null,"lat":"54.472079","lng":"-7.633243"},"fields":{"slug":"/section-directory-content/libraries/irvinestown-library/"}}},{"node":{"frontmatter":{"title":"Irish Heritage Giftware(Irish Historical Picture Co.)","category":"Libraries","county":"Dublin","type":"Content","excerpt":null,"address":"Red House Ballyowen Co. Dublin Co. Dublin","tel":"(01)4578125","images":null,"lat":"53.3509","lng":"-6.4245"},"fields":{"slug":"/section-directory-content/libraries/irish-heritage-giftwareirish-historical-picture-co/"}}},{"node":{"frontmatter":{"title":"Kenny's Bindery","category":"Libraries","county":"Galway","type":"Content","excerpt":null,"address":"13-18 Kilkerrin Park, Liosban Industrial Estate, Tuam Road, Galway Co. Galway","tel":"(091)709362","images":null,"lat":"53.34408","lng":"-6.26749"},"fields":{"slug":"/section-directory-content/libraries/kennys-bindery/"}}},{"node":{"frontmatter":{"title":"Galway City Library","category":"Libraries","county":"Galway","type":"Content","excerpt":null,"address":"Galway City Centre Library, St Augustine Street, Galway City Centre","tel":"+353 (0)91 56 1666","images":null,"lat":"53.27194595336914","lng":"-9.04888916015625"},"fields":{"slug":"/section-directory-content/libraries/galway-city-library/"}}},{"node":{"frontmatter":{"title":"Munster Cancer Support","category":"Libraries","county":"Dublin","type":"Content","excerpt":null,"address":"c/o Irish Cancer Society 43/45 Northumberland Road, Ballsbridge, Dublin 4 (Munster)","tel":"(01)2310500","images":null,"lat":"53.33478","lng":"-6.23718"},"fields":{"slug":"/section-directory-content/libraries/munster-cancer-support/"}}},{"node":{"frontmatter":{"title":"Greenisland Library","category":"Libraries","county":"Antrim","type":"Content","excerpt":null,"address":"17, Glassillan Grove, Greenisland, Carrickfergus, Co. Antrim BT38 8TE","tel":"028 9086 5419","images":null,"lat":"54.696939","lng":"-5.871738"},"fields":{"slug":"/section-directory-content/libraries/greenisland-library/"}}},{"node":{"frontmatter":{"title":"Irish Archaeological Consultancy Ltd.","category":"Libraries","county":"Wicklow","type":"Content","excerpt":null,"address":"120b Greenpark rd Bray Co. Wicklow","tel":"(1890)948668","images":null,"lat":"53.20589587","lng":"-6.117976665"},"fields":{"slug":"/section-directory-content/libraries/irish-archaeological-consultancy-ltd/"}}},{"node":{"frontmatter":{"title":"Marshs Library","category":"Libraries","county":"Dublin","type":"Content","excerpt":null,"address":"St. Patrick's Close, Co. Dublin, Dublin 8","tel":"+353 (0)14 54 3511","images":null,"lat":"53.33933639526367","lng":"-6.270078182220459"},"fields":{"slug":"/section-directory-content/libraries/marshs-library/"}}},{"node":{"frontmatter":{"title":"Pearse Street Library","category":"Libraries","county":"Dublin","type":"Content","excerpt":null,"address":"Pearse Street Library, 138 to 144 Pearse Street, Dublin 2, Co. Dublin","tel":"+353 (0)16 74 4888","images":null,"lat":"53.34333801269531","lng":"-6.244419574737549"},"fields":{"slug":"/section-directory-content/libraries/pearse-street-library/"}}},{"node":{"frontmatter":{"title":"Longford Co. Council (Library and Cultural Services)","category":"Libraries","county":"Longford","type":"Content","excerpt":null,"address":"Aras an Chontae Great Water st Longford Co. Longford","tel":"(043)3341124","images":null,"lat":"53.73016615","lng":"-7.799126056"},"fields":{"slug":"/section-directory-content/libraries/longford-co-council-library-and-cultural-services/"}}},{"node":{"frontmatter":{"title":"Oranmore Lodge Hotel- Conference and Leisure Centre Galway","category":"Libraries","county":"Galway","type":"Content","excerpt":null,"address":"Oranmore Galway Co. Galway","tel":"(091)794400","images":null,"lat":"53.27037146","lng":"-8.922003824"},"fields":{"slug":"/section-directory-content/libraries/oranmore-lodge-hotel--conference-and-leisure-centre-galway/"}}},{"node":{"frontmatter":{"title":"Portglenone Library","category":"Libraries","county":"Antrim","type":"Content","excerpt":null,"address":"19, Townhill Rd, Portglenone, Ballymena, Co. Antrim BT44 8AD","tel":"028 2582 2228","images":null,"lat":"54.874868","lng":"-6.474523"},"fields":{"slug":"/section-directory-content/libraries/portglenone-library/"}}},{"node":{"frontmatter":{"title":"Richhill Branch Library","category":"Libraries","county":"Armagh","type":"Content","excerpt":null,"address":"1, Maynooth Rd, Richhill, Armagh, Co. Armagh BT61 9PE","tel":"028 3887 0639","images":null,"lat":"54.368711","lng":"-6.555203"},"fields":{"slug":"/section-directory-content/libraries/richhill-branch-library/"}}},{"node":{"frontmatter":{"title":"Rathcoole Library","category":"Libraries","county":"Antrim","type":"Content","excerpt":null,"address":"2, Rosslea Way, Rathcoole, Newtownabbey, Co. Antrim BT37 9BZ","tel":"028 9085 1157","images":null,"lat":"54.664198","lng":"-5.919034"},"fields":{"slug":"/section-directory-content/libraries/rathcoole-library/"}}},{"node":{"frontmatter":{"title":"Saintfield Library","category":"Libraries","county":"Down","type":"Content","excerpt":null,"address":"Ballynahinch Rd, Saintfield, Ballynahinch, Co. Down BT24 7AE","tel":"028 9751 0550","images":null,"lat":"54.456861","lng":"-5.840024"},"fields":{"slug":"/section-directory-content/libraries/saintfield-library/"}}},{"node":{"frontmatter":{"title":"Ryco Book Protection Services Ltd","category":"Libraries","county":"Wicklow","type":"Content","excerpt":null,"address":"Unit 10 Ballywaltrim Bus Centre Bray Co. Wicklow","tel":"(01)2867055","images":null,"lat":"53.185396","lng":"-6.122681"},"fields":{"slug":"/section-directory-content/libraries/ryco-book-protection-services-ltd/"}}},{"node":{"frontmatter":{"title":"The Interior Library","category":"Libraries","county":"Dublin","type":"Content","excerpt":null,"address":"6 Shelton Drive Kimmage Road West Dublin 12 Co. Dublin","tel":"(01)4059856","images":null,"lat":"53.31347985","lng":"-6.308373637"},"fields":{"slug":"/section-directory-content/libraries/the-interior-library/"}}},{"node":{"frontmatter":{"title":"Royal Irish Academy","category":"Libraries","county":"Dublin","type":"Content","excerpt":null,"address":"19 Dawson Street, Dublin City Centre, Co. Dublin, Dublin 2","tel":"+353 (0)16 76 2570","images":null,"lat":"53.34070587158203","lng":"-6.25813102722168"},"fields":{"slug":"/section-directory-content/libraries/royal-irish-academy/"}}},{"node":{"frontmatter":{"title":"Springhill House","category":"Libraries","county":"Derry","type":"Content","excerpt":null,"address":"Springhill House 20 Springhill Road, Moneymore, County Derry, BT45 7NQ","tel":"+44 (0)28 8674 8210","images":null,"lat":"54.6915283203125","lng":"-6.67012882232666"},"fields":{"slug":"/section-directory-content/libraries/springhill-house/"}}},{"node":{"frontmatter":{"title":"Wexford Co. Library","category":"Libraries","county":"Wexford","type":"Content","excerpt":null,"address":"Library Headquarters, Ardcavan, Wexford, Co. Wexford","tel":"+353 (0)53 912 4922","images":null,"lat":"52.3326301574707","lng":"-6.472326278686523"},"fields":{"slug":"/section-directory-content/libraries/wexford-co-library/"}}},{"node":{"frontmatter":{"title":"Portadown Library","category":"Libraries","county":"Armagh","type":"Content","excerpt":null,"address":"24-26, Church St, Portadown, Craigavon, Co. Armagh BT62 3LQ","tel":"028 3833 6122","images":null,"lat":"54.421797","lng":"-6.445498"},"fields":{"slug":"/section-directory-content/libraries/portadown-library/"}}},{"node":{"frontmatter":{"title":"Waterford Co. Library","category":"Libraries","county":"Waterford","type":"Content","excerpt":null,"address":"Lismore, Lismore, Co. Waterford","tel":"+353 (0)58 54 128","images":null,"lat":"52.13462448120117","lng":"-7.94157075881958"},"fields":{"slug":"/section-directory-content/libraries/waterford-co-library/"}}},{"node":{"frontmatter":{"title":"The Linen Hall Library","category":"Libraries","county":"Antrim","type":"Content","excerpt":null,"address":"The Linen Hall Library, 17 Donegall Square North, Belfast, Antrim, BT1 5GB","tel":"+44 (0)28 9032 1707","images":null,"lat":"54.59572982788086","lng":"-5.936308860778809"},"fields":{"slug":"/section-directory-content/libraries/the-linen-hall-library/"}}},{"node":{"frontmatter":{"title":"Limerick City Library","category":"Libraries","county":"Limerick","type":"Content","excerpt":null,"address":"The Granary, Michael Street, Limerick, Co. Limerick","tel":"+353 (0)61 31 4668","images":null,"lat":"52.66313552856445","lng":"-8.63493824005127"},"fields":{"slug":"/section-directory-content/libraries/limerick-city-library/"}}}]}},"pageContext":{"isCreatedByStatefulCreatePages":false,"slug":"/section-directory/libraries/","category":"Libraries"}}}