{"componentChunkName":"component---src-templates-section-directory-js","path":"/section-directory/pubs/","webpackCompilationHash":"","result":{"data":{"markdownRemark":{"html":"","frontmatter":{"category":"Pubs"}},"allMarkdownRemark":{"distinct":["Antrim","Armagh","Derry","Down","Dublin","Fermanagh","Kilkenny","Limerick","Tyrone"],"edges":[{"node":{"frontmatter":{"title":"Anchor Bar Complex Portstewart","category":"Pubs","county":"Derry","type":"Content","excerpt":null,"address":"The Anchor Bar, Portstewart, 86-87 The Promenade, Portstewart, Co. Derry, BT55 7AG","tel":"+44 (0)28 7083 2003","images":null,"lat":"55.18360900878906","lng":"-6.718277931213379"},"fields":{"slug":"/section-directory-content/pubs/anchor-bar-complex-portstewart/"}}},{"node":{"frontmatter":{"title":"Black Box","category":"Pubs","county":"Antrim","type":"Content","excerpt":null,"address":"Black Box, Near Commercial Court 18 - 22 Hill Street, BELFAST, Co. Antrim, BT1 2LA","tel":"+44 (0)28 9024 4400","images":null,"lat":"54.59572982788086","lng":"-5.936308860778809"},"fields":{"slug":"/section-directory-content/pubs/black-box/"}}},{"node":{"frontmatter":{"title":"Anglers Rest Bar and Bistro","category":"Pubs","county":"Down","type":"Content","excerpt":null,"address":"Anglers Rest Bistro, 42 Aughnacloy Rd, Katesbridge, Banbridge, Co. Down, BT32 5QG","tel":"+44 (0)28 4067 1515","images":null,"lat":"54.34701156616211","lng":"-6.2713189125061035"},"fields":{"slug":"/section-directory-content/pubs/anglers-rest-bar-and-bistro/"}}},{"node":{"frontmatter":{"title":"Ava Restaurant and Vin Caf","category":"Pubs","county":"Down","type":"Content","excerpt":null,"address":"Ava Restaurant and Bar, 132 Main Street, Bangor, Down, BT20 4AG","tel":"+44 (0)28 9145 4428","images":null,"lat":"54.66023635864258","lng":"-5.669025897979736"},"fields":{"slug":"/section-directory-content/pubs/ava-restaurant-and-vin-caf/"}}},{"node":{"frontmatter":{"title":"Currans Bar and Seafood Steakhouse","category":"Pubs","county":"Antrim","type":"Content","excerpt":null,"address":"Curran's Bar and Seafood Steakhouse, 83 Strangford Road Ardglass, Downpatrick, Co. Antrim, BT30 7SP","tel":"+44 (0)28 4484 1332","images":null,"lat":"54.280784606933594","lng":"-5.591814994812012"},"fields":{"slug":"/section-directory-content/pubs/currans-bar-and-seafood-steakhouse/"}}},{"node":{"frontmatter":{"title":"Copperfields Bar","category":"Pubs","county":"Antrim","type":"Content","excerpt":null,"address":"Copperfields Bar, 11-13 Fountain Street, Belfast, Co. Antrim, BT1 5EA","tel":"+44 (0)28 9024 7367","images":null,"lat":"54.59572982788086","lng":"-5.936308860778809"},"fields":{"slug":"/section-directory-content/pubs/copperfields-bar/"}}},{"node":{"frontmatter":{"title":"Daft Eddys Bar and Restaurant","category":"Pubs","county":"Down","type":"Content","excerpt":null,"address":"Daft Eddies Bar and Restaurant, Sketrick Island Whiterock, Killinchy, Co. Down, BT23 6QH","tel":"+44 (0)28 9754 1615","images":null,"lat":"54.594329833984375","lng":"-5.70030403137207"},"fields":{"slug":"/section-directory-content/pubs/daft-eddys-bar-and-restaurant/"}}},{"node":{"frontmatter":{"title":"Denvirs Restaurant","category":"Pubs","county":"Down","type":"Content","excerpt":null,"address":"Denvir's Restaurant, 14-16 English Street, Downpatrick, Co. Down, BT30 6AB","tel":"+44 (0)28 4461 2012","images":null,"lat":"54.328590393066406","lng":"-5.718432903289795"},"fields":{"slug":"/section-directory-content/pubs/denvirs-restaurant/"}}},{"node":{"frontmatter":{"title":"Corner House Rostrevor","category":"Pubs","county":"Down","type":"Content","excerpt":null,"address":"Corner House Rostrevor, 1 Bridge Street, Rostrevor, Down, BT34 3BG","tel":"+44 (0)28 4173 8236","images":null,"lat":"54.10190963745117","lng":"-6.196949005126953"},"fields":{"slug":"/section-directory-content/pubs/corner-house-rostrevor/"}}},{"node":{"frontmatter":{"title":"Film House Temple Bar","category":"Pubs","county":"Dublin","type":"Content","excerpt":null,"address":"Rere 44 East Essex Street, Temple Bar,, Co. Dublin, Dublin 2","tel":"+353 (0)16 70 3288 (/6703031)","images":null,"lat":"53.34564208984375","lng":"-6.2631402015686035"},"fields":{"slug":"/section-directory-content/pubs/film-house-temple-bar/"}}},{"node":{"frontmatter":{"title":"Hilton Templepatrick Hotel and Country Club","category":"Pubs","county":"Antrim","type":"Content","excerpt":null,"address":"Castle Upton Estate, Templepatrick, Co. Antrim","tel":"+44 (0)28 9443 5500 5555","images":null,"lat":"54.75114822387695","lng":"-5.998569011688232"},"fields":{"slug":"/section-directory-content/pubs/hilton-templepatrick-hotel-and-country-club/"}}},{"node":{"frontmatter":{"title":"Donegans Bar and Restaurant","category":"Pubs","county":"Down","type":"Content","excerpt":null,"address":"Donegan's Bar and Restaurant, 44 High Street, Bangor, Down, BT20 5AZ","tel":"+44 (0)28 9127 0362","images":null,"lat":"54.66334533691406","lng":"-5.664545059204102"},"fields":{"slug":"/section-directory-content/pubs/donegans-bar-and-restaurant/"}}},{"node":{"frontmatter":{"title":"Hogshead and Waterfront Lounge","category":"Pubs","county":"Tyrone","type":"Content","excerpt":null,"address":"Hogshead and Waterfront Lounge, 1 McConnell Place, Omagh, Tyrone, BT78 1BY","tel":"+44 (0)28 8224 2210","images":null,"lat":"54.60209274291992","lng":"-7.306303977966309"},"fields":{"slug":"/section-directory-content/pubs/hogshead-and-waterfront-lounge/"}}},{"node":{"frontmatter":{"title":"Four Trees Bar And Bistro","category":"Pubs","county":"Armagh","type":"Content","excerpt":null,"address":"Four Trees Bar And Bistro, 63 Main Street, Moira, Armagh, BT67 0LQ","tel":"+44 (0)28 9261 1437","images":null,"lat":"54.45169448852539","lng":"-6.397026062011719"},"fields":{"slug":"/section-directory-content/pubs/four-trees-bar-and-bistro/"}}},{"node":{"frontmatter":{"title":"Fullerton Arms Guest Inn","category":"Pubs","county":"Antrim","type":"Content","excerpt":null,"address":"Fullerton Arms Guest Inn, 22-24 Main Street, Ballintoy, Co. Antrim","tel":"+44 (0)28 2076 9613","images":null,"lat":"55.20366287231445","lng":"-6.243484020233154"},"fields":{"slug":"/section-directory-content/pubs/fullerton-arms-guest-inn/"}}},{"node":{"frontmatter":{"title":"J D Wetherspoons Central Bar","category":"Pubs","county":"Antrim","type":"Content","excerpt":null,"address":"J D Wetherspoons Central Bar, 13-15 High Street, Carrickfergus, Antrim, BT38 7AX","tel":"+44 (0)28 9335 7840","images":null,"lat":"54.715145111083984","lng":"-5.805984973907471"},"fields":{"slug":"/section-directory-content/pubs/j-d-wetherspoons-central-bar/"}}},{"node":{"frontmatter":{"title":"Fiddlers Green Pub","category":"Pubs","county":"Down","type":"Content","excerpt":null,"address":"Fiddler's Green Pub, 10-12 Church Street, Portaferry, Co. Down, BT22 1LS","tel":"+44 (0)28 4272 8393","images":null,"lat":"54.38182830810547","lng":"-5.546350002288818"},"fields":{"slug":"/section-directory-content/pubs/fiddlers-green-pub/"}}},{"node":{"frontmatter":{"title":"Mollys Bar and Restaurant","category":"Pubs","county":"Fermanagh","type":"Content","excerpt":null,"address":"Molly's Bar and Restaurant, 18 Main Street, Irvinestown, Co. Fermanagh","tel":"+44 (0)28 6862 8777","images":null,"lat":"54.346771240234375","lng":"-7.645120143890381"},"fields":{"slug":"/section-directory-content/pubs/mollys-bar-and-restaurant/"}}},{"node":{"frontmatter":{"title":"Lily Johnstons Pub and Restaurant","category":"Pubs","county":"Antrim","type":"Content","excerpt":null,"address":"McGeowns, 22 Main Street, Glenavy, Antrim, BT29 4LW","tel":"+44 (0)28 9442 2467","images":null,"lat":"54.62057876586914","lng":"-6.216598987579346"},"fields":{"slug":"/section-directory-content/pubs/lily-johnstons-pub-and-restaurant/"}}},{"node":{"frontmatter":{"title":"House of McDonnell","category":"Pubs","county":"Antrim","type":"Content","excerpt":null,"address":"House of McDonnell, 71 Castle Street, Ballycastle, Antrim, BT54 6AS","tel":"+44 (0)28 2076 2975","images":null,"lat":"55.20366287231445","lng":"-6.243484020233154"},"fields":{"slug":"/section-directory-content/pubs/house-of-mcdonnell/"}}},{"node":{"frontmatter":{"title":"The Five Corner Guest Inn","category":"Pubs","county":"Antrim","type":"Content","excerpt":null,"address":"The Five Corner Guest Inn, 249 Rashee Road, Ballyclare, Co. Antrim, BT39 9JN","tel":"+44 (0)28 9332 2657","images":null,"lat":"54.75114822387695","lng":"-5.998569011688232"},"fields":{"slug":"/section-directory-content/pubs/the-five-corner-guest-inn/"}}},{"node":{"frontmatter":{"title":"Horseshoe Saddlers Restaurant and Wine Bar","category":"Pubs","county":"Fermanagh","type":"Content","excerpt":null,"address":"Horseshoe and Saddlers Restaurant, 66 Belmore Street, Enniskillen, Fermanagh, BT74 6AA","tel":"+44 (0)28 6632 6223","images":null,"lat":"54.34416580200195","lng":"-7.633662223815918"},"fields":{"slug":"/section-directory-content/pubs/horseshoe-saddlers-restaurant-and-wine-bar/"}}},{"node":{"frontmatter":{"title":"McGraths Bar And Lounge","category":"Pubs","county":"Down","type":"Content","excerpt":null,"address":"McGraths Bar And Lounge, 4 Rathfriland Street, Banbridge, Down, BT32 3LA","tel":"+44 (0)28 4062 5725","images":null,"lat":"54.34701156616211","lng":"-6.2713189125061035"},"fields":{"slug":"/section-directory-content/pubs/mcgraths-bar-and-lounge/"}}},{"node":{"frontmatter":{"title":"The Fountain Bar and Restaurant","category":"Pubs","county":"Antrim","type":"Content","excerpt":null,"address":"The Fountain Bar and Restaurant, 16-20 Fountain Street, Belfast, Co. Antrim, BT1 5EA","tel":"+44 (0)28 9032 4769","images":null,"lat":"54.59572982788086","lng":"-5.936308860778809"},"fields":{"slug":"/section-directory-content/pubs/the-fountain-bar-and-restaurant/"}}},{"node":{"frontmatter":{"title":"The House Pub and Kitchen","category":"Pubs","county":"Antrim","type":"Content","excerpt":null,"address":"Sketch Developments 12 Stranmillis Road, Belfast, Co. Antrim, BT9 5AA","tel":"+44 (0)28 9068 2266","images":null,"lat":"54.59572982788086","lng":"-5.936308860778809"},"fields":{"slug":"/section-directory-content/pubs/the-house-pub-and-kitchen/"}}},{"node":{"frontmatter":{"title":"The Ice Wharf - JDW Lloyds No1","category":"Pubs","county":"Derry","type":"Content","excerpt":null,"address":"The Ice Wharf - JDW Lloyds No1, Strand Road, Derry, Co. Derry, BT48 7AB","tel":"+44 (0)28 7127 6610","images":null,"lat":"54.9918098449707","lng":"-7.320168972015381"},"fields":{"slug":"/section-directory-content/pubs/the-ice-wharf---jdw-lloyds-no1/"}}},{"node":{"frontmatter":{"title":"Sean Cara Restaurant","category":"Pubs","county":"Limerick","type":"Content","excerpt":null,"address":"Dolans Pub and Restaurant, Dock Road, Limerick City, Co. Limerick","tel":"+353 (0)61 31 4483","images":null,"lat":"52.65883255004883","lng":"-8.638216018676758"},"fields":{"slug":"/section-directory-content/pubs/sean-cara-restaurant/"}}},{"node":{"frontmatter":{"title":"The John Hewitt Bar and Restaurant","category":"Pubs","county":"Antrim","type":"Content","excerpt":null,"address":"The John Hewitt Bar and Restaurant, 51 Donegall Street, Belfast, Co. Antrim, BT1 2FH","tel":"+44 (0)28 9023 3768","images":null,"lat":"54.59572982788086","lng":"-5.936308860778809"},"fields":{"slug":"/section-directory-content/pubs/the-john-hewitt-bar-and-restaurant/"}}},{"node":{"frontmatter":{"title":"The Lobby Bar Europa Hotel","category":"Pubs","county":"Antrim","type":"Content","excerpt":null,"address":"The Lobby Bar Europa Hotel Belfast, Great Victoria Street, Belfast, Antrim, BT2 7HR","tel":"+44 (0)28 9027 1006","images":null,"lat":"54.59418487548828","lng":"-5.933897018432617"},"fields":{"slug":"/section-directory-content/pubs/the-lobby-bar-europa-hotel/"}}},{"node":{"frontmatter":{"title":"The Crowes Nest Bistro Bar And Nightclub","category":"Pubs","county":"Fermanagh","type":"Content","excerpt":null,"address":"The Crows Nest Bistro Bar And Niteclub, High Street, Enniskillen, Fermanagh, BT74 7DQ","tel":"+44 (0)28 6632 5252","images":null,"lat":"54.34535217285156","lng":"-7.639123916625977"},"fields":{"slug":"/section-directory-content/pubs/the-crowes-nest-bistro-bar-and-nightclub/"}}},{"node":{"frontmatter":{"title":"The Locke Bar and Oyster House Restaurant","category":"Pubs","county":"Limerick","type":"Content","excerpt":null,"address":"3 Georges Quay, Limerick City, Co. Limerick","tel":"+353 (0)61 41 3733","images":null,"lat":"52.66313171386719","lng":"-8.635825157165527"},"fields":{"slug":"/section-directory-content/pubs/the-locke-bar-and-oyster-house-restaurant/"}}},{"node":{"frontmatter":{"title":"OHares Lounge Bars and Beer Garden","category":"Pubs","county":"Down","type":"Content","excerpt":null,"address":"121 Central Promenade, Newcastle, Co. Down, BT33 0EU","tel":"+44 (0)28 4372 2487","images":null,"lat":"54.204795837402344","lng":"-5.893033027648926"},"fields":{"slug":"/section-directory-content/pubs/ohares-lounge-bars-and-beer-garden/"}}},{"node":{"frontmatter":{"title":"The Loft Restaurant at Balmoral Hotel","category":"Pubs","county":"Down","type":"Content","excerpt":null,"address":"Balmoral, 13 Seaview, Warrenpoint, Co. Down, BT34 3SH","tel":"+44 (0)28 4175 4093","images":null,"lat":"54.10100173950195","lng":"-6.253808975219727"},"fields":{"slug":"/section-directory-content/pubs/the-loft-restaurant-at-balmoral-hotel/"}}},{"node":{"frontmatter":{"title":"Skippers Wine Bar and Restaurant","category":"Pubs","county":"Derry","type":"Content","excerpt":null,"address":"Skippers Wine Bar, 87 The Promenade, Portstewart, Derry, BT55 7AE","tel":"+44 (0)28 7083 2003","images":null,"lat":"55.185394287109375","lng":"-6.71910285949707"},"fields":{"slug":"/section-directory-content/pubs/skippers-wine-bar-and-restaurant/"}}},{"node":{"frontmatter":{"title":"The Linen Hall (JD Wetherspoons)","category":"Pubs","county":"Fermanagh","type":"Content","excerpt":null,"address":"The Linen Hall (JD Wetherspoons), 11-13 Townhall Street, Enniskillen, Co. Fermanagh","tel":"+44 (0)28 6634 0910","images":null,"lat":"54.346771240234375","lng":"-7.645120143890381"},"fields":{"slug":"/section-directory-content/pubs/the-linen-hall-jd-wetherspoons/"}}},{"node":{"frontmatter":{"title":"The Marble City Bar and Tea Rooms","category":"Pubs","county":"Kilkenny","type":"Content","excerpt":null,"address":"High Street, Kieran Street, Kilkenny City, Co. Kilkenny","tel":"+353 (0)56 776 1143","images":null,"lat":"52.652713775634766","lng":"-7.248618125915527"},"fields":{"slug":"/section-directory-content/pubs/the-marble-city-bar-and-tea-rooms/"}}},{"node":{"frontmatter":{"title":"The Long Man Of Kilfane","category":"Pubs","county":"Dublin","type":"Content","excerpt":null,"address":"The Long Man Of Kilfane, Dublin Road, Thomastown, Co. Kilkenny","tel":"+353 (0)56 772 4774","images":null,"lat":"52.51824951171875","lng":"-7.1461992263793945"},"fields":{"slug":"/section-directory-content/pubs/the-long-man-of-kilfane/"}}},{"node":{"frontmatter":{"title":"Sweeneys Public House and Wine Bar","category":"Pubs","county":"Antrim","type":"Content","excerpt":null,"address":"Sweeneys Wine Bar, 6B Seaport Avenue, Portballintrae, Antrim, BT57 8SB","tel":"+44 (0)28 2073 2405","images":null,"lat":"55.204498291015625","lng":"-6.52309513092041"},"fields":{"slug":"/section-directory-content/pubs/sweeneys-public-house-and-wine-bar/"}}},{"node":{"frontmatter":{"title":"The Saltwater Brig","category":"Pubs","county":"Down","type":"Content","excerpt":null,"address":"The Saltwater Brig, 43 Rowreagh Road Kircubbin, Newtownards, Co. Down, BT22 1AR","tel":"+44 (0)28 4273 8435","images":null,"lat":"54.594329833984375","lng":"-5.70030403137207"},"fields":{"slug":"/section-directory-content/pubs/the-saltwater-brig/"}}},{"node":{"frontmatter":{"title":"The Skerry Inn","category":"Pubs","county":"Antrim","type":"Content","excerpt":null,"address":"The Skerry Inn, 12 Old Cushendun Road, Newtown Crommelin, Antrim, BT43 6RJ","tel":"+44 (0)28 2175 8669","images":null,"lat":"54.983299255371094","lng":"-6.216598987579346"},"fields":{"slug":"/section-directory-content/pubs/the-skerry-inn/"}}},{"node":{"frontmatter":{"title":"The Spaniard","category":"Pubs","county":"Antrim","type":"Content","excerpt":null,"address":"The Spaniard, Jeffers Gastro Pub 3 Skipper Street, Belfast, Co. Antrim, BT1 2DZ","tel":"+44 (0)28 9023 2448","images":null,"lat":"54.59572982788086","lng":"-5.936308860778809"},"fields":{"slug":"/section-directory-content/pubs/the-spaniard/"}}},{"node":{"frontmatter":{"title":"The Nook At The Giants Causeway","category":"Pubs","county":"Antrim","type":"Content","excerpt":null,"address":"The Nook At The Giant's Causeway, 48 Causeway Road, Bushmills, Co. Antrim, BT57 8SU","tel":"+44 (0)28 2073 2993","images":null,"lat":"55.204498291015625","lng":"-6.52309513092041"},"fields":{"slug":"/section-directory-content/pubs/the-nook-at-the-giants-causeway/"}}},{"node":{"frontmatter":{"title":"The White Horse Inn","category":"Pubs","county":"Down","type":"Content","excerpt":null,"address":"The White Horse Inn, 49-53 Main Street, Saintfield, Co. Down, BT24 7AB","tel":"+44 (0)28 9751 1143","images":null,"lat":"54.46017837524414","lng":"-5.834383010864258"},"fields":{"slug":"/section-directory-content/pubs/the-white-horse-inn/"}}},{"node":{"frontmatter":{"title":"The Slaney Inn","category":"Pubs","county":"Down","type":"Content","excerpt":null,"address":"The Slaney Inn, 64 Saint Patricks Road Raholp, Downpatrick, Co. Down, BT30 7JJ","tel":"+44 (0)28 4461 2093","images":null,"lat":"54.352752685546875","lng":"-5.641960144042969"},"fields":{"slug":"/section-directory-content/pubs/the-slaney-inn/"}}},{"node":{"frontmatter":{"title":"The Quays Pub and Restaurant","category":"Pubs","county":"Antrim","type":"Content","excerpt":null,"address":"The Quays Bar and Restaurant, 81 New Harbour Road Portavogie, Newtownards, Co. Antrim, BT22 1EB","tel":"+44 (0)28 4277 2225","images":null,"lat":"54.594329833984375","lng":"-5.70030403137207"},"fields":{"slug":"/section-directory-content/pubs/the-quays-pub-and-restaurant/"}}},{"node":{"frontmatter":{"title":"Unicorn Pub and Restaurant","category":"Pubs","county":"Limerick","type":"Content","excerpt":null,"address":"Unicorn Pub and Restaurant, Dooradoyle, Limerick City, Co. Limerick","tel":"+353 (0)61 22 7405","images":null,"lat":"52.637908935546875","lng":"-8.654085159301758"},"fields":{"slug":"/section-directory-content/pubs/unicorn-pub-and-restaurant/"}}},{"node":{"frontmatter":{"title":"The Terrace Restaurant","category":"Pubs","county":"Fermanagh","type":"Content","excerpt":null,"address":"The Terrace Restaurant, Westville Hotel, Tempo Road, Enniskillen, Co. Fermanagh","tel":"+44 (0)28 6632 0333","images":null,"lat":"54.346771240234375","lng":"-7.645120143890381"},"fields":{"slug":"/section-directory-content/pubs/the-terrace-restaurant/"}}},{"node":{"frontmatter":{"title":"The Old Cross Inn","category":"Pubs","county":"Antrim","type":"Content","excerpt":null,"address":"The Old Cross Inn, 4 Castle Place, Newtownards, Co. Antrim, BT23 7JF","tel":"+44 (0)28 9182 1012","images":null,"lat":"54.594329833984375","lng":"-5.70030403137207"},"fields":{"slug":"/section-directory-content/pubs/the-old-cross-inn/"}}},{"node":{"frontmatter":{"title":"The Pheasant","category":"Pubs","county":"Down","type":"Content","excerpt":null,"address":"The Pheasant, 410 Upper Ballynahinch Road, Hillsborough., 410 Upper Ballynahinch Road Annahilt, Hillsborough, Down, BT26 6NR","tel":"+44 (0)28 9263 8056","images":null,"lat":"54.460391998291016","lng":"-5.993381977081299"},"fields":{"slug":"/section-directory-content/pubs/the-pheasant/"}}},{"node":{"frontmatter":{"title":"Cellar Bar","category":"Pubs","county":"Dublin","type":"Content","excerpt":null,"address":"The Merrion Hotel,, Upper Merrion Street,, Dublin city centre, Co. Dublin, Dublin 2","tel":"+353 (0)16 03 0600","images":null,"lat":"53.33852767944336","lng":"-6.252890110015869"},"fields":{"slug":"/section-directory-content/pubs/cellar-bar/"}}}]}},"pageContext":{"isCreatedByStatefulCreatePages":false,"slug":"/section-directory/pubs/","category":"Pubs"}}}