{"componentChunkName":"component---src-templates-section-directory-js","path":"/section-directory/museums/","webpackCompilationHash":"","result":{"data":{"markdownRemark":{"html":"","frontmatter":{"category":"Museums"}},"allMarkdownRemark":{"distinct":["Antrim","Armagh","Carlow","Cork","Derry","Donegal","Down","Dublin","Fermanagh","Galway","Kerry","Kilkenny","Mayo","Sligo","Tyrone"],"edges":[{"node":{"frontmatter":{"title":"Tullaherin Local Museum","category":"Museums","county":"Kilkenny","type":"Content","excerpt":"Tullaherin is a beautiful destination located seven miles to south-east of Kilkenny City in County Kilkenny. This beautiful place houses several attra...","address":"Bennettsbridge, Co. Kilkenny","tel":"+353 (0)56 27 211","images":null,"lat":"52.59126281738281","lng":"-7.1815409660339355"},"fields":{"slug":"/section-directory-content/museums/tullaherin-local-museum/"}}},{"node":{"frontmatter":{"title":"Central Gaeltacht Train Society","category":"Museums","county":"Donegal","type":"Content","excerpt":"The sole operational narrow gauge railway of Donegal, it resides in the heart of mountainous scenery of Ireland. Visitors enjoy the traditional, mythi...","address":"Fintown, Donegal","tel":"+353 (0)74 954 6280","images":null,"lat":"54.869873046875","lng":"-8.114959716796875"},"fields":{"slug":"/section-directory-content/museums/central-gaeltacht-train-society/"}}},{"node":{"frontmatter":{"title":"Northern Ireland War Memorial","category":"Museums","county":"Antrim","type":"Content","excerpt":"The impressive Northern Ireland War Memorial, also referred to as the NI War Memorial or simply War Memorial, is located at the Talbot Street of Belfa...","address":"21 Talbot Street, Belfast, Co. Antrim, BT1 2LD","tel":"+44 (0)28 9032 0392","images":["northern-ireland-war-memorial-0.jpg","500","375","northern-ireland-war-memorial-2.jpg","500","375","northern-ireland-war-memorial-3.jpg","130","182"],"lat":"54.59572982788086","lng":"-5.936308860778809"},"fields":{"slug":"/section-directory-content/museums/northern-ireland-war-memorial/"}}},{"node":{"frontmatter":{"title":"The National Leprechaun Museum","category":"Museums","county":"Dublin","type":"Content","excerpt":"The National Leprechaun Museum based in the heart of Dublin is the best place to discover enigmatic tales of Irish and Celtic culture. Dedicated to le...","address":"Twilfit House, 1 Jervis Street, Dublin City Centre, Co. Dublin, D1","tel":"+353 1 873 3899","images":["the-national-leprechaun-museum-2.jpg","395","229"],"lat":"53.347381591796875","lng":"-6.259270191192627"},"fields":{"slug":"/section-directory-content/museums/the-national-leprechaun-museum/"}}},{"node":{"frontmatter":{"title":"The Nally Heritage Centre","category":"Museums","county":"Tyrone","type":"Content","excerpt":"The Nally Heritage Centre is located at Naomh Colm Cille GAA grounds in Carrickmore in mid-Tyrone. Through its various exhibits, the museum portrays v...","address":"Club Naomh Colm Cille Quarry Road Carrickmore, Omagh, Co Tyrone","tel":"+44 (0)028 8076 1569 ","images":["the-nally-heritage-centre-0.jpg","262","206"],"lat":"54.5951907983909","lng":"-7.065839767456055"},"fields":{"slug":"/section-directory-content/museums/the-nally-heritage-centre/"}}},{"node":{"frontmatter":{"title":"Knock Museum","category":"Museums","county":"Mayo","type":"Content","excerpt":"Situated in Knock Shrine Grounds of County Mayo, Knock Museum captures the distinctive tale of the Knock Apparition that occurred in 1897. The museum...","address":"Knock, Co. Mayo","tel":"+353 (0)94 938 8100","images":["knock-museum-0.jpg","450","337"],"lat":"53.78466796875","lng":"-8.926042556762695"},"fields":{"slug":"/section-directory-content/museums/knock-museum/"}}},{"node":{"frontmatter":{"title":"Scarva Visitor Centre","category":"Museums","county":"Armagh","type":"Content","excerpt":"Scarva Visitor Centre helps the explorers to understand the history of canal building. One can understand the role of the Newry Canal in the linen ind...","address":"Scarva Visitor Centre, Main Street, Scarva, Co. Armagh, BT63 6NS","tel":"+44 (0)28 4062 3322","images":["scarva-visitor-centre-1.jpg","500","375","scarva-visitor-centre-2.jpg","500","375","scarva-visitor-centre-3.jpg","400","300"],"lat":"54.45169448852539","lng":"-6.397026062011719"},"fields":{"slug":"/section-directory-content/museums/scarva-visitor-centre/"}}},{"node":{"frontmatter":{"title":"Gasyard Centre","category":"Museums","county":"Derry","type":"Content","excerpt":"Regeneration project directed by a community in the heart of the Brandywell and Bogside neighborhoods, led to the rebirth of the Gasyard Center. Locat...","address":"Gasyard Centre, 128 Lecky Road Brandywell, Derry, Derry, BT48 6NP","tel":"+44 (0)28 7126 2812","images":["gasyard-centre-0.jpg","400","300"],"lat":"54.9918098449707","lng":"-7.320168972015381"},"fields":{"slug":"/section-directory-content/museums/gasyard-centre/"}}},{"node":{"frontmatter":{"title":"Peatlands Park","category":"Museums","county":"Armagh","type":"Content","excerpt":"Peatlands Park, the first of its type in the British Isles, is located close to the southern shores of Lough Neagh. Site for Peatlands Park was acquir...","address":"Peatlands Park, 33 Derryhubbert Road, Dungannon, Co. Armagh, BT71 6NW","tel":"+44 (0)28 3885 1102","images":["peatlands-park-0.jpg","500","375","peatlands-park-2.jpg","500","375","peatlands-park-3.jpg","350","275"],"lat":"54.505088806152344","lng":"-6.764308929443359"},"fields":{"slug":"/section-directory-content/museums/peatlands-park/"}}},{"node":{"frontmatter":{"title":"Moneypennys Lock","category":"Museums","county":"Armagh","type":"Content","excerpt":"Moneypennys Lock dates back to the year 1804. It is discovered when a renovation and rebuilding was carried out on the Newry Canal under the supervisi...","address":"Craigavon Museum Services, Craigavon Museum Services Oxford Island, Lurgan, Co. Armagh","tel":"+44 (0)28 3834 1635","images":["moneypennys-lock-1.jpg","150","220","moneypennys-lock-2.jpg","500","375","moneypennys-lock-3.jpg","340","500","moneypennys-lock-4.jpg","370","247"],"lat":"54.42043685913086","lng":"-6.435661315917969"},"fields":{"slug":"/section-directory-content/museums/moneypennys-lock/"}}},{"node":{"frontmatter":{"title":"Cork Public Museum","category":"Museums","county":"Cork","type":"Content","excerpt":"Located in the Fitzgerald Park in Mardyke in County Cork, the Cork Public Museum is also known as Cork City Museum. The museum was opened under the ma...","address":"Fitzgerald Park, Mardyke, Cork City","tel":"+353 (0)21 427 0679","images":["cork-public-museum-0.jpg","500","335","cork-public-museum-1.jpg","500","335","cork-public-museum-7.jpg","500","332","cork-public-museum-8.jpg","500","333","cork-public-museum-9.jpg","382","500","cork-public-museum.jpg","500","375"],"lat":"51.895442962646484","lng":"-8.495491981506348"},"fields":{"slug":"/section-directory-content/museums/cork-public-museum/"}}},{"node":{"frontmatter":{"title":"Teach Synge","category":"Museums","county":"Galway","type":"Content","excerpt":"Located in island of Inishmaan of Aran Islands in County Galway is a beautiful cottage known as Teach Synge, which is 300 years old. Teach Synge Cotta...","address":"Aran Islands, Co. Galway","tel":"+353 (0)99 73 036","images":["teach-synge-0.jpg","490","368","teach-synge-2.jpg","350","232","teach-synge-3.jpg","500","326"],"lat":"53.084571838378906","lng":"-9.593076705932617"},"fields":{"slug":"/section-directory-content/museums/teach-synge/"}}},{"node":{"frontmatter":{"title":"Celtic and Prehistoric Museum","category":"Museums","county":"Kerry","type":"Content","excerpt":"Located in Dingle town of County Kerry, Celtic and Prehistoric Museum is one of the foremost and primary resources of pre-history in Ireland. Founded...","address":"Kilvicadownig, Dingle, Co. Kerry","tel":"+353 (0)66 915 9191","images":["celtic-and-prehistoric-museum-0.jpg","300","200","celtic-and-prehistoric-museum-1.jpg","474","285","celtic-and-prehistoric-museum-3.jpg","474","260","celtic-and-prehistoric-museum-6.jpg","500","375","celtic-and-prehistoric-museum-7.jpg","500","374","celtic-and-prehistoric-museum-8.jpg","500","375"],"lat":"52.11068344116211","lng":"-10.39439582824707"},"fields":{"slug":"/section-directory-content/museums/celtic-and-prehistoric-museum/"}}},{"node":{"frontmatter":{"title":"Harbour Museum","category":"Museums","county":"Derry","type":"Content","excerpt":"Harbour Museum was formerly known as the Derry Port and Harbour Commissioners Office. It was built in the year 1882 and was officially opened on 18 Ma...","address":"Harbour Square, Derry, Co. Derry BT48 6AF","tel":"028 7137 7331","images":["harbour-museum-0.jpg","300","199"],"lat":"54.997996","lng":"-7.319625"},"fields":{"slug":"/section-directory-content/museums/harbour-museum/"}}},{"node":{"frontmatter":{"title":"Glencolmcille Folk Village","category":"Museums","county":"Donegal","type":"Content","excerpt":"Glencolmcille Folk Village was designed and constructed in just three months. It is situated at almost the most westerly point in Europe. The location...","address":"Glencolmcille, Co. Donegal","tel":"+353 (0)74 973 0017","images":["glencolmcille-folk-village-0.jpg","500","280"],"lat":"54.702022552490234","lng":"-8.728218078613281"},"fields":{"slug":"/section-directory-content/museums/glencolmcille-folk-village/"}}},{"node":{"frontmatter":{"title":"Donegal County Museum","category":"Museums","county":"Donegal","type":"Content","excerpt":"Donegal County Museum is situated on High Road in the urban locality of Letterkenn. With the objective to collect, record, preserve and display the ma...","address":"High Road, Letterkenny, Co. Donegal","tel":"+353 (0)74 912 4613","images":["donegal-county-museum-0.jpg","400","194","donegal-county-museum-3.jpg","500","375","donegal-county-museum-5.jpg","300","200"],"lat":"54.94707107543945","lng":"-7.733153343200684"},"fields":{"slug":"/section-directory-content/museums/donegal-county-museum/"}}},{"node":{"frontmatter":{"title":"Donaghmore Heritage Centre","category":"Museums","county":"Tyrone","type":"Content","excerpt":"Donaghmore Heritage Centre houses a collection of photographs, old school roll books and land registration ledgers. In addition to these, there are nu...","address":"Donaghmore Heritage Centre, 26 Market Square, Donaghmore, Tyrone","tel":"+44 (0)28 8776 1306","images":["donaghmore-heritage-centre-0.jpg","500","344","donaghmore-heritage-centre-2.jpg","375","500"],"lat":"54.505088806152344","lng":"-6.764308929443359"},"fields":{"slug":"/section-directory-content/museums/donaghmore-heritage-centre/"}}},{"node":{"frontmatter":{"title":"Culkins Emigration Centre","category":"Museums","county":"Sligo","type":"Content","excerpt":"Culkin's Emigration Center, also known as Culkin's Emigration Museum, is one of the most popular attractions of Cannaghanally of Dromore West in Count...","address":"Cannaghanally, Dromore West, Co. Sligo","tel":"+353 (0)96 47 152","images":["culkins-emigration-centre-0.jpg","300","200"],"lat":"54.24271011352539","lng":"-8.875055313110352"},"fields":{"slug":"/section-directory-content/museums/culkins-emigration-centre/"}}},{"node":{"frontmatter":{"title":"Carrickfergus Museum","category":"Museums","county":"Antrim","type":"Content","excerpt":"Carrickfergus Museum allows explorers to witness the life in the town from the medieval period to more recent times. The collection in the museum is a...","address":"Carrickfergus Museum, Andrew Jackson Centre Carrick Tourist Information Centre Heritage Plaza Antrim Street, Carrickfergus, Co. Antrim, BT38 7DG","tel":"+44 (0)28 9336 6455","images":["carrickfergus-museum-1.jpg","250","166","carrickfergus-museum-4.jpg","250","376","carrickfergus-museum-5.jpg","300","200"],"lat":"54.715145111083984","lng":"-5.805984973907471"},"fields":{"slug":"/section-directory-content/museums/carrickfergus-museum/"}}},{"node":{"frontmatter":{"title":"Carlow County Museum","category":"Museums","county":"Carlow","type":"Content","excerpt":"Carlow County Museum is situated in the College Street adjoining the Tourist Office in Carlow Town. The reception area of the museum will be depicted...","address":"Carlow Co. Museum, Carlow Town Council, Carlow Town","tel":"+353 (0)59 913 1759","images":["carlow-county-museum-4.jpg","262","206","carlow-county-museum-6.jpg","497","346","carlow-county-museum-9.jpg","194","114"],"lat":"52.83156967163086","lng":"-6.931771278381348"},"fields":{"slug":"/section-directory-content/museums/carlow-county-museum/"}}},{"node":{"frontmatter":{"title":"An Creagan Visitor Centre","category":"Museums","county":"Tyrone","type":"Content","excerpt":null,"address":"An Creagan Visitor Centre Creggan, Omagh, Co. Tyrone, BT79 9AF","tel":"+44 (0)28 8076 1112","images":null,"lat":"54.65936279296875","lng":"-7.035791873931885"},"fields":{"slug":"/section-directory-content/museums/an-creagan-visitor-centre/"}}},{"node":{"frontmatter":{"title":"Belfast Telegraph Newspapers","category":"Museums","county":"Antrim","type":"Content","excerpt":null,"address":"Belfast Telegraph Newspapers, 124 Royal Avenue, Belfast, Antrim","tel":"+44 (0)28 9026 4000","images":null,"lat":"54.59572982788086","lng":"-5.936308860778809"},"fields":{"slug":"/section-directory-content/museums/belfast-telegraph-newspapers/"}}},{"node":{"frontmatter":{"title":"Craigavon Museum","category":"Museums","county":"Armagh","type":"Content","excerpt":null,"address":"Craigavon Museum, Heritage Building 2 Tullygally Road, Craigavon, Co. Armagh, BT65 5BY","tel":"+44 (0)28 3834 1635","images":null,"lat":"54.45391082763672","lng":"-6.364916801452637"},"fields":{"slug":"/section-directory-content/museums/craigavon-museum/"}}},{"node":{"frontmatter":{"title":"Flame! The Gasworks Museum Of Ireland","category":"Museums","county":"Antrim","type":"Content","excerpt":null,"address":"Flame! The Gasworks Museum Of Ireland, Flame- The Gasworks Museum of Ireland Irish Quarter West, Carrickfergus, Co. Antrim, BT38 8AT","tel":"+44 (0)28 9336 9575","images":null,"lat":"54.715145111083984","lng":"-5.805984973907471"},"fields":{"slug":"/section-directory-content/museums/flame!-the-gasworks-museum-of-ireland/"}}},{"node":{"frontmatter":{"title":"FSC Derrygonnelly Centre","category":"Museums","county":"Fermanagh","type":"Content","excerpt":null,"address":"FSC Derrygonnelly Centre, FSC Derrygonnelly Centre Creamery Street, Derrygonnelly, Co. Fermanagh","tel":"+44 (0)28 6864 1673","images":null,"lat":"54.346771240234375","lng":"-7.645120143890381"},"fields":{"slug":"/section-directory-content/museums/fsc-derrygonnelly-centre/"}}},{"node":{"frontmatter":{"title":"Dublin Writers Museum","category":"Museums","county":"Dublin","type":"Content","excerpt":null,"address":"Dublin Writers Museum, 18 Parnell Square, Dublin City Centre, Co. Dublin, Dublin 1","tel":"+353 (0)1 872 2077","images":null,"lat":"53.35391616821289","lng":"-6.264770984649658"},"fields":{"slug":"/section-directory-content/museums/dublin-writers-museum/"}}},{"node":{"frontmatter":{"title":"Garvagh Museum and Heritage Centre","category":"Museums","county":"Derry","type":"Content","excerpt":null,"address":"Garvagh Museum And Heritage Centre, 142 Main Street, Garvagh, Derry, BT51 5AE","tel":"+44 (0)28 2955 8216","images":null,"lat":"54.98210906982422","lng":"-6.688057899475098"},"fields":{"slug":"/section-directory-content/museums/garvagh-museum-and-heritage-centre/"}}},{"node":{"frontmatter":{"title":"Fr Patrick Peyton Memorial Centre","category":"Museums","county":"Mayo","type":"Content","excerpt":null,"address":"Fr Patrick Peyton CSC Memorial Centre, Attymass, Ballina, Co. Mayo","tel":"+353 (0)96 45 374","images":null,"lat":"52.80157470703125","lng":"-7.688981533050537"},"fields":{"slug":"/section-directory-content/museums/fr-patrick-peyton-memorial-centre/"}}},{"node":{"frontmatter":{"title":"Headhunters Barber Shop and Railway Museum","category":"Museums","county":"Fermanagh","type":"Content","excerpt":null,"address":"5 Darling Street, Enniskillen, Co. Fermanagh, BT74 7DP","tel":"+44 (0)28 6632 7488","images":null,"lat":"54.346771240234375","lng":"-7.645120143890381"},"fields":{"slug":"/section-directory-content/museums/headhunters-barber-shop-and-railway-museum/"}}},{"node":{"frontmatter":{"title":"Irish Jewish Museum","category":"Museums","county":"Dublin","type":"Content","excerpt":null,"address":"Walworth Road (Off Victoria Street), Portobello, South Circular Road, Dublin City Centre South, Co. Dublin, Dublin 8","tel":"+353 (0)1 490 1857","images":null,"lat":"53.3311767578125","lng":"-6.269553184509277"},"fields":{"slug":"/section-directory-content/museums/irish-jewish-museum/"}}},{"node":{"frontmatter":{"title":"Giants Causeway Tourist Information Centre","category":"Museums","county":"Antrim","type":"Content","excerpt":null,"address":"Giant's Causeway Tourist Information Centre, 44 Causeway Road, Bushmills, Co. Antrim, BT57 8SU","tel":"+44 (0)28 2073 1855","images":null,"lat":"55.23350143432617","lng":"-6.514964580535889"},"fields":{"slug":"/section-directory-content/museums/giants-causeway-tourist-information-centre/"}}},{"node":{"frontmatter":{"title":"Grays Printing Press","category":"Museums","county":"Tyrone","type":"Content","excerpt":null,"address":"Gray's Printers' Museum, 49 Main Street, Strabane, Co. Tyrone, BT82 8AU","tel":"+44 (0)28 7188 0055","images":null,"lat":"54.825687408447266","lng":"-7.463508129119873"},"fields":{"slug":"/section-directory-content/museums/grays-printing-press/"}}},{"node":{"frontmatter":{"title":"Keady Heritage Centre","category":"Museums","county":"Armagh","type":"Content","excerpt":null,"address":"Keady Heritage Centre, Keady Heritage Centre The Old Mill 2 Kinelowen Street, Keady, Co. Armagh, BT60 3SU","tel":"+44 (0)28 3753 9928","images":null,"lat":"54.24977111816406","lng":"-6.7036051750183105"},"fields":{"slug":"/section-directory-content/museums/keady-heritage-centre/"}}},{"node":{"frontmatter":{"title":"National Museum of Ireland - Decorative Arts and History","category":"Museums","county":"Dublin","type":"Content","excerpt":null,"address":"Collins Barracks, Benburb Street, Dublin, 7","tel":"+353 (0)1 677 7444","images":null,"lat":"53.34811019897461","lng":"-6.285895824432373"},"fields":{"slug":"/section-directory-content/museums/national-museum-of-ireland---decorative-arts-and-history/"}}},{"node":{"frontmatter":{"title":"National Museum of Ireland - Natural History","category":"Museums","county":"Dublin","type":"Content","excerpt":null,"address":"National Museum of Natural History, Merrion Street, Dublin, 2","tel":"+353 (0)1 677 7444","images":null,"lat":"53.339847564697266","lng":"-6.253376483917236"},"fields":{"slug":"/section-directory-content/museums/national-museum-of-ireland---natural-history/"}}},{"node":{"frontmatter":{"title":"National Museum of Ireland - Archaeology and History","category":"Museums","county":"Dublin","type":"Content","excerpt":null,"address":"National Museum of Archaeology and History, Kildare Street, Dublin, 2","tel":"+353 (0)1 677 7444","images":null,"lat":"53.3400993347168","lng":"-6.255258083343506"},"fields":{"slug":"/section-directory-content/museums/national-museum-of-ireland---archaeology-and-history/"}}},{"node":{"frontmatter":{"title":"Pearses Cottage (Teach an Phiarsaigh)","category":"Museums","county":"Galway","type":"Content","excerpt":null,"address":"Teach an Phiarsaigh (Pearse's Cottage), Inbhear, Rosmuck (Ros Muc), Co. Galway","tel":"+353 (0)91 57 4292","images":null,"lat":"53.371646881103516","lng":"-9.621238708496094"},"fields":{"slug":"/section-directory-content/museums/pearses-cottage-teach-an-phiarsaigh/"}}},{"node":{"frontmatter":{"title":"Mourne Countryside Centre","category":"Museums","county":"Down","type":"Content","excerpt":null,"address":"Mourne Countryside Centre, 87 Central Promenade, Newcastle, Down, BT33 0HH","tel":"+44 (0)28 4372 4059","images":null,"lat":"54.207733154296875","lng":"-5.892343044281006"},"fields":{"slug":"/section-directory-content/museums/mourne-countryside-centre/"}}},{"node":{"frontmatter":{"title":"Portaferry Tourist Information and Visitor Centre","category":"Museums","county":"Down","type":"Content","excerpt":null,"address":"Portaferry Tourist Information And Visitor Centre, The Stables Castle Street, Portaferry, Co. Down, BT22 1NZ","tel":"+44 (0)28 4272 9882","images":null,"lat":"54.38146209716797","lng":"-5.548429012298584"},"fields":{"slug":"/section-directory-content/museums/portaferry-tourist-information-and-visitor-centre/"}}},{"node":{"frontmatter":{"title":"Royal Irish Fusiliers Museum","category":"Museums","county":"Armagh","type":"Content","excerpt":null,"address":"Royal Irish Fusiliers Museum, Sovereign's House, Armagh, BT61 9DL","tel":"+44 (0)28 3752 2911","images":null,"lat":"54.3487434387207","lng":"-6.64857816696167"},"fields":{"slug":"/section-directory-content/museums/royal-irish-fusiliers-museum/"}}},{"node":{"frontmatter":{"title":"Police Museum","category":"Museums","county":"Antrim","type":"Content","excerpt":null,"address":"Police Museum, Police Museum 65 Knock Road, Belfast, Co. Antrim, BT5 6LE","tel":"+44 (0)28 9065 0222 (ext 22499)","images":null,"lat":"54.59572982788086","lng":"-5.936308860778809"},"fields":{"slug":"/section-directory-content/museums/police-museum/"}}},{"node":{"frontmatter":{"title":"Royal Ulster Rifles Museum","category":"Museums","county":"Antrim","type":"Content","excerpt":null,"address":"Royal Ulster Rifles Mseum, 5 Waring Street, Belfast, Co. Antrim, BT1 2EW","tel":"+44 (0)28 9023 2086","images":null,"lat":"54.59572982788086","lng":"-5.936308860778809"},"fields":{"slug":"/section-directory-content/museums/royal-ulster-rifles-museum/"}}},{"node":{"frontmatter":{"title":"Sentry Hill Historic House and Visitor Centre","category":"Museums","county":"Antrim","type":"Content","excerpt":null,"address":"40, Ballycraigy Road, Co. Antrim, Newtownabbey, Co. Antrim, BT36 8SX","tel":"028 9083 2363","images":null,"lat":"054.6865740000","lng":"-005.9651860000"},"fields":{"slug":"/section-directory-content/museums/sentry-hill-historic-house-and-visitor-centre/"}}},{"node":{"frontmatter":{"title":"Royal Irish Regiment Museum","category":"Museums","county":"Antrim","type":"Content","excerpt":null,"address":"Royal Irish Regiment Museum, Royal Irish Regiment Museum Saint Patrick's Barracks, Ballymena, Co. Antrim","tel":"+44 (0)28 2566 1383","images":null,"lat":"54.86907958984375","lng":"-6.2760701179504395"},"fields":{"slug":"/section-directory-content/museums/royal-irish-regiment-museum/"}}},{"node":{"frontmatter":{"title":"The Abingdon Collection - a walk in the past","category":"Museums","county":"Tyrone","type":"Content","excerpt":null,"address":"The Abingdon Collection, 16 Gortnagarn Road, Omagh, Co. Tyrone, BT78 5NW","tel":"+44 (0)28 8224 3373","images":null,"lat":"54.644710540771484","lng":"-7.329156398773193"},"fields":{"slug":"/section-directory-content/museums/the-abingdon-collection---a-walk-in-the-past/"}}},{"node":{"frontmatter":{"title":"The Amelia Earhart Centre","category":"Museums","county":"Derry","type":"Content","excerpt":null,"address":"The Amelia Earhart Centre, Ballyarnett Country Park, Derry, Co. Derry, BT48 7UF","tel":"+44 (0)28 7135 4040","images":null,"lat":"54.9918098449707","lng":"-7.320168972015381"},"fields":{"slug":"/section-directory-content/museums/the-amelia-earhart-centre/"}}},{"node":{"frontmatter":{"title":"World War II Exhibition","category":"Museums","county":"Antrim","type":"Content","excerpt":null,"address":"World War II Exhibition, 9/13 Waring Street, Belfast, Antrim, BT1 2DY","tel":"+44 (0)28 9032 0392","images":null,"lat":"54.59572982788086","lng":"-5.936308860778809"},"fields":{"slug":"/section-directory-content/museums/world-war-ii-exhibition/"}}},{"node":{"frontmatter":{"title":"X2 Flight Experience Exhibition at the Ulster Folk and Transport Museum","category":"Museums","county":"Down","type":"Content","excerpt":null,"address":"153 Bangor Road Cultra, Holywood, Co. Down, BT18 0EU","tel":"+44 (0)84 5608 0000","images":null,"lat":"54.64950180053711","lng":"-5.7979888916015625"},"fields":{"slug":"/section-directory-content/museums/x2-flight-experience-exhibition-at-the-ulster-folk-and-transport-museum/"}}},{"node":{"frontmatter":{"title":"The Irish Linen Guild","category":"Museums","county":"Antrim","type":"Content","excerpt":null,"address":"The Irish Linen Guild, 5C The Square, Hillsborough, Co. Antrim, BT26 6AG","tel":"+44 (0)28 9268 9999","images":null,"lat":"54.46110916137695","lng":"-6.08475923538208"},"fields":{"slug":"/section-directory-content/museums/the-irish-linen-guild/"}}},{"node":{"frontmatter":{"title":"Ye Olde Hurdy-Gurdy Museum of Vintage Radio","category":"Museums","county":"Dublin","type":"Content","excerpt":null,"address":"Martello Tower, Howth, Dublin North, Co. Dublin, Fingal","tel":"+353 (0)86 815 4189","images":null,"lat":"53.38764572143555","lng":"-6.06369161605835"},"fields":{"slug":"/section-directory-content/museums/ye-olde-hurdy-gurdy-museum-of-vintage-radio/"}}}]}},"pageContext":{"isCreatedByStatefulCreatePages":false,"slug":"/section-directory/museums/","category":"Museums"}}}