{"componentChunkName":"component---src-templates-section-directory-js","path":"/section-directory/game-angling/","webpackCompilationHash":"","result":{"data":{"markdownRemark":{"html":"","frontmatter":{"category":"Game Angling"}},"allMarkdownRemark":{"distinct":["Antrim","Armagh","Cork","Derry","Donegal","Dublin","Fermanagh","Galway","Laois","Limerick","Louth","Mayo","Meath","Offaly","Tyrone","Wicklow"],"edges":[{"node":{"frontmatter":{"title":"Angling Roxboro River","category":"Game Angling","county":"Cork","type":"Content","excerpt":null,"address":"South Western Regional Fisheries Board, Sunnyside House, Macroom, Co. Cork","tel":"+353 (0)26 41 221","images":null,"lat":"51.90983581542969","lng":"-8.174790382385254"},"fields":{"slug":"/section-directory-content/game-angling/angling-roxboro-river/"}}},{"node":{"frontmatter":{"title":"Angling Adrigole River","category":"Game Angling","county":"Cork","type":"Content","excerpt":null,"address":"South Western Regional Fisheries Board, Sunnyside House, Macroom, Co. Cork","tel":"+353 (0)26 41 222","images":null,"lat":"51.695838928222656","lng":"-9.71950912475586"},"fields":{"slug":"/section-directory-content/game-angling/angling-adrigole-river/"}}},{"node":{"frontmatter":{"title":"Coney Island","category":"Game Angling","county":"Armagh","type":"Content","excerpt":null,"address":"Kinnego Marina Caravan Park, Kinnego Marina Oxford island Annaloiste Road, Lurgan, Co. Armagh, BT66 6NJ","tel":"+44 (0)28 3832 7573","images":null,"lat":"54.462921142578125","lng":"-6.33630895614624"},"fields":{"slug":"/section-directory-content/game-angling/coney-island/"}}},{"node":{"frontmatter":{"title":"Beattie CF Gunsmith","category":"Game Angling","county":"Antrim","type":"Content","excerpt":null,"address":"Beattie, CF Gunsmith, 39 Main Street Ballycarry,, Carrickfergus, Antrim","tel":"+44 (0)28 9335 3462","images":null,"lat":"54.715145111083984","lng":"-5.805984973907471"},"fields":{"slug":"/section-directory-content/game-angling/beattie-cf-gunsmith/"}}},{"node":{"frontmatter":{"title":"Antrim Tourist Information Centre","category":"Game Angling","county":"Antrim","type":"Content","excerpt":null,"address":"Antrim Tourist Information Centre, The Old Courthouse Market Square, Antrim, Co. Antrim, BT41 4AW","tel":"+44 (0)28 9442 8331","images":null,"lat":"54.714759826660156","lng":"-6.2200751304626465"},"fields":{"slug":"/section-directory-content/game-angling/antrim-tourist-information-centre/"}}},{"node":{"frontmatter":{"title":"Attymass Salmon Fishery","category":"Game Angling","county":"Mayo","type":"Content","excerpt":null,"address":"Attymass Angling Association, C/o Mr Padraic Garret, Carrowkerribla, Attymass, Ballina, Co. Mayo","tel":"+353 (0)94 925 8151","images":null,"lat":"52.80157470703125","lng":"-7.688981533050537"},"fields":{"slug":"/section-directory-content/game-angling/attymass-salmon-fishery/"}}},{"node":{"frontmatter":{"title":"Crana River and Fullerton Reservoir","category":"Game Angling","county":"Donegal","type":"Content","excerpt":null,"address":"Tourist Office, Buncrana, Inishowen, Co. Donegal","tel":"+353 (0)74 936 2600","images":null,"lat":"55.13753128051758","lng":"-7.451249122619629"},"fields":{"slug":"/section-directory-content/game-angling/crana-river-and-fullerton-reservoir/"}}},{"node":{"frontmatter":{"title":"Cookstown Sports Centre","category":"Game Angling","county":"Tyrone","type":"Content","excerpt":null,"address":"Cookstown Sports Centre, 45 William Street, Cookstown, Co. Tyrone","tel":"+44 (0)28 8676 4100","images":null,"lat":"54.64448928833008","lng":"-6.744750022888184"},"fields":{"slug":"/section-directory-content/game-angling/cookstown-sports-centre/"}}},{"node":{"frontmatter":{"title":"Dunfanaghy Anglers Association Waters","category":"Game Angling","county":"Donegal","type":"Content","excerpt":null,"address":"Dunfanaghy Anglers Association, Arnolds Hotel, Dunfanaghy, Donegal","tel":"+353 (0)74 913 6218","images":null,"lat":"55.18027114868164","lng":"-7.969065189361572"},"fields":{"slug":"/section-directory-content/game-angling/dunfanaghy-anglers-association-waters/"}}},{"node":{"frontmatter":{"title":"Ghillie Cottage And Blackwater Fly Fishing","category":"Game Angling","county":"Cork","type":"Content","excerpt":null,"address":"Ghillie Cottage, Kilbarry Stud, Fermoy, Co. Cork","tel":"+353 (0)25 32 720","images":null,"lat":"52.13481521606445","lng":"-8.292661666870117"},"fields":{"slug":"/section-directory-content/game-angling/ghillie-cottage-and-blackwater-fly-fishing/"}}},{"node":{"frontmatter":{"title":"Huestons Footware Fishing Tackle and Blinds","category":"Game Angling","county":"Derry","type":"Content","excerpt":null,"address":"Huestons Footware,Fishing Tackle and Blinds, 55 Main street, Castledawson, Co. Derry","tel":"+44 (0)28 7946 8282","images":null,"lat":"54.755401611328125","lng":"-6.608119010925293"},"fields":{"slug":"/section-directory-content/game-angling/huestons-footware-fishing-tackle-and-blinds/"}}},{"node":{"frontmatter":{"title":"Lakeland and Midsummer Lakehouse","category":"Game Angling","county":"Galway","type":"Content","excerpt":null,"address":"Accommodation and Angling/Boating Centre, Portacarron Bay, Oughterard, Co. Galway","tel":"+353 (0)91 55 2121","images":null,"lat":"53.42097854614258","lng":"-9.324402809143066"},"fields":{"slug":"/section-directory-content/game-angling/lakeland-and-midsummer-lakehouse/"}}},{"node":{"frontmatter":{"title":"Enfield Blackwater","category":"Game Angling","county":"Meath","type":"Content","excerpt":null,"address":"Contact your local Tourist Office for further information, Longwood, Co. Meath","tel":"+353 (0)41 988 0305","images":null,"lat":"53.42635726928711","lng":"-6.890331268310547"},"fields":{"slug":"/section-directory-content/game-angling/enfield-blackwater/"}}},{"node":{"frontmatter":{"title":"Little Boyne","category":"Game Angling","county":"Offaly","type":"Content","excerpt":null,"address":"For further information contact your local tourist information office, Edenderry, Co. Offaly","tel":"+353 (0)44 934 8650","images":null,"lat":"53.344459533691406","lng":"-7.0692877769470215"},"fields":{"slug":"/section-directory-content/game-angling/little-boyne/"}}},{"node":{"frontmatter":{"title":"Giants Causeway Holiday Cotteges","category":"Game Angling","county":"Antrim","type":"Content","excerpt":null,"address":"Giants Causeway Holiday Cotteges, 71 Causeway Road, Bushmills, Co. Antrim","tel":"+44 (0)28 2073 1673","images":null,"lat":"55.204498291015625","lng":"-6.52309513092041"},"fields":{"slug":"/section-directory-content/game-angling/giants-causeway-holiday-cotteges/"}}},{"node":{"frontmatter":{"title":"Craigmore Fishery","category":"Game Angling","county":"Antrim","type":"Content","excerpt":null,"address":"Craigmore Fishery, 30 Clonkeen Road Randalstown, Antrim, Co. Antrim, BT41 3JL","tel":"+44 (0)78 1144 0824","images":null,"lat":"54.758689880371094","lng":"-6.3684234619140625"},"fields":{"slug":"/section-directory-content/game-angling/craigmore-fishery/"}}},{"node":{"frontmatter":{"title":"Lough Aderra","category":"Game Angling","county":"Cork","type":"Content","excerpt":null,"address":"South Western Regional Fisheries Board, Sunnyside House, Masseytown, Macroom, Co. Cork","tel":"+353 (0)26 41 222","images":null,"lat":"51.94636154174805","lng":"-7.853960990905762"},"fields":{"slug":"/section-directory-content/game-angling/lough-aderra/"}}},{"node":{"frontmatter":{"title":"Home Field and Stream","category":"Game Angling","county":"Fermanagh","type":"Content","excerpt":null,"address":"Home Field and Stream, 18 Church Street, Enniskillen, Co. Fermanagh","tel":"+44 (0)28 6632 2114","images":null,"lat":"54.346771240234375","lng":"-7.645120143890381"},"fields":{"slug":"/section-directory-content/game-angling/home-field-and-stream/"}}},{"node":{"frontmatter":{"title":"Lough Nacroaghy Kiltooris Lough And Doon Lough","category":"Game Angling","county":"Donegal","type":"Content","excerpt":null,"address":"Honorary Secretary, Ardara Anglers Association, Ardara, Donegal","tel":"+353 (0)74 972 1148","images":null,"lat":"54.757469177246094","lng":"-8.418723106384277"},"fields":{"slug":"/section-directory-content/game-angling/lough-nacroaghy-kiltooris-lough-and-doon-lough/"}}},{"node":{"frontmatter":{"title":"Killineer Reservoir","category":"Game Angling","county":"Louth","type":"Content","excerpt":null,"address":"For further information contact your local tourist information office, Drogheda, Co. Louth","tel":"+353 (0)42 933 5484","images":null,"lat":"53.704673767089844","lng":"-6.36536979675293"},"fields":{"slug":"/section-directory-content/game-angling/killineer-reservoir/"}}},{"node":{"frontmatter":{"title":"Little Brosna and Camcor Rivers Brown Trout and Salmon","category":"Game Angling","county":"Limerick","type":"Content","excerpt":null,"address":"Shannon Regional Fisheries Board, Limerick, Co. Limerick","tel":"+353 (0)61 30 0238","images":null,"lat":"52.6536750793457","lng":"-8.648306846618652"},"fields":{"slug":"/section-directory-content/game-angling/little-brosna-and-camcor-rivers-brown-trout-and-salmon/"}}},{"node":{"frontmatter":{"title":"Lough Ree","category":"Game Angling","county":"Dublin","type":"Content","excerpt":null,"address":"The Central Fisheries Board, Unit 4, Swords Business Campus, Balheary Road, Swords, Dublin","tel":"+353 (0)1 8842 600","images":null,"lat":"53.51365280151367","lng":"-7.977115154266357"},"fields":{"slug":"/section-directory-content/game-angling/lough-ree/"}}},{"node":{"frontmatter":{"title":"Lough Gur","category":"Game Angling","county":"Limerick","type":"Content","excerpt":null,"address":"Shannon Regional Fisheries, BoardAshbourne Business Park, Limerick, Co. Limerick","tel":"+353 (0)61 30 0238","images":null,"lat":"52.66180419921875","lng":"-8.62877082824707"},"fields":{"slug":"/section-directory-content/game-angling/lough-gur/"}}},{"node":{"frontmatter":{"title":"Navan And District Angling","category":"Game Angling","county":"Meath","type":"Content","excerpt":null,"address":"Clarkes Sports Den, Tringate Street, Navan (An Uaimh), Meath","tel":"+353 (0)46 902 1130","images":null,"lat":"53.652488708496094","lng":"-6.686404228210449"},"fields":{"slug":"/section-directory-content/game-angling/navan-and-district-angling/"}}},{"node":{"frontmatter":{"title":"Lough Neagh Fishing Tours","category":"Game Angling","county":"Tyrone","type":"Content","excerpt":null,"address":"Lough Neagh Fishing Tours, Mr Tom Woods 190 Aghafad Road, Clogher, Co. Tyrone, BT76 0XE","tel":"+44 (0)28 8554 8659","images":null,"lat":"54.71554946899414","lng":"-6.2163801193237305"},"fields":{"slug":"/section-directory-content/game-angling/lough-neagh-fishing-tours/"}}},{"node":{"frontmatter":{"title":"Mr Mike Keady - Guided Angling Service","category":"Game Angling","county":"Galway","type":"Content","excerpt":null,"address":"Mr Mike Keady, Ballinahalla, Moycullen, Co. Galway","tel":"+353 (0)91 55 6326","images":null,"lat":"53.34055709838867","lng":"-9.203611373901367"},"fields":{"slug":"/section-directory-content/game-angling/mr-mike-keady---guided-angling-service/"}}},{"node":{"frontmatter":{"title":"Marybound Country Sports","category":"Game Angling","county":"Antrim","type":"Content","excerpt":null,"address":"Marybound Country Sports, Maryland Industrial Estate Ballygomartin Road, Belfast, Co. Antrim","tel":"+44 (0)28 9044 8598","images":null,"lat":"54.59572982788086","lng":"-5.936308860778809"},"fields":{"slug":"/section-directory-content/game-angling/marybound-country-sports/"}}},{"node":{"frontmatter":{"title":"Owenass River","category":"Game Angling","county":"Laois","type":"Content","excerpt":null,"address":"For further information contact your local tourist office, Mountmellick, Co. Laois","tel":"+353 (0)57 862 1178","images":null,"lat":"53.11195755004883","lng":"-7.328779697418213"},"fields":{"slug":"/section-directory-content/game-angling/owenass-river/"}}},{"node":{"frontmatter":{"title":"Pollaphuca Reservoir","category":"Game Angling","county":"Wicklow","type":"Content","excerpt":null,"address":"Electricity Supply Board, Fisheries Office, Blessington, Wicklow","tel":"+353 (0)61 34 5589","images":null,"lat":"53.336875915527344","lng":"-6.248754024505615"},"fields":{"slug":"/section-directory-content/game-angling/pollaphuca-reservoir/"}}},{"node":{"frontmatter":{"title":"Owennacurra River","category":"Game Angling","county":"Cork","type":"Content","excerpt":null,"address":"South Western Regional Fisheries Board, Sunnyside House, Macroom, Co. Cork","tel":"+353 (0)26 41 222","images":null,"lat":"51.910194396972656","lng":"-8.174646377563477"},"fields":{"slug":"/section-directory-content/game-angling/owennacurra-river/"}}},{"node":{"frontmatter":{"title":"River Brosna salmon and brown trout","category":"Game Angling","county":"Limerick","type":"Content","excerpt":null,"address":"Shannon Regional Fisheries, Dock Road, Limerick, Co. Limerick","tel":"+353 (0)61 30 0238","images":null,"lat":"52.655372619628906","lng":"-8.651154518127441"},"fields":{"slug":"/section-directory-content/game-angling/river-brosna-salmon-and-brown-trout/"}}},{"node":{"frontmatter":{"title":"Pontoon Bridge Hotel Angling and Fly Fishing School","category":"Game Angling","county":"Mayo","type":"Content","excerpt":null,"address":"Pontoon Bridge Hotel, Pontoon, Co. Mayo","tel":"+353 (0)94 925 6120","images":null,"lat":"53.98883056640625","lng":"-9.195138931274414"},"fields":{"slug":"/section-directory-content/game-angling/pontoon-bridge-hotel-angling-and-fly-fishing-school/"}}},{"node":{"frontmatter":{"title":"Moyle Outdoor Angling and Leisure","category":"Game Angling","county":"Antrim","type":"Content","excerpt":null,"address":"Moyle outdoor Anglingand Leisure, 17 Castle street, Ballycastle, Antrim","tel":"+44 (0)28 2076 9521","images":null,"lat":"55.20366287231445","lng":"-6.243484020233154"},"fields":{"slug":"/section-directory-content/game-angling/moyle-outdoor-angling-and-leisure/"}}},{"node":{"frontmatter":{"title":"Owenea River","category":"Game Angling","county":"Donegal","type":"Content","excerpt":null,"address":"Owena Angling Centre, Glenties Hatchery, Glenties, Donegal ( When in season )","tel":"+353 (0)74 955 1141","images":null,"lat":"54.75774002075195","lng":"-8.418725967407227"},"fields":{"slug":"/section-directory-content/game-angling/owenea-river/"}}},{"node":{"frontmatter":{"title":"River Feale System - salmon and brown trout","category":"Game Angling","county":"Limerick","type":"Content","excerpt":null,"address":"Shannon Region Fishery Board, Ashbourne Business Park Dock Road, Limerick, Co. Limeick","tel":"+353 (0)61 30 0238","images":null,"lat":"52.655372619628906","lng":"-8.651154518127441"},"fields":{"slug":"/section-directory-content/game-angling/river-feale-system---salmon-and-brown-trout/"}}},{"node":{"frontmatter":{"title":"River Fergus System and Lakes","category":"Game Angling","county":"Limerick","type":"Content","excerpt":null,"address":"Shannon Regional Fisheries Board, Ashbourne Business Park Dock Road, Limerick, Co. Limerick","tel":"+353 (0)61 30 0238","images":null,"lat":"52.655372619628906","lng":"-8.651154518127441"},"fields":{"slug":"/section-directory-content/game-angling/river-fergus-system-and-lakes/"}}},{"node":{"frontmatter":{"title":"River Bandon (Game)","category":"Game Angling","county":"Cork","type":"Content","excerpt":null,"address":"South Western Regional Fisheries Board, Sunnyside House, Macroom, Co. Cork","tel":"+353 (0)26 41 222","images":null,"lat":"51.90663146972656","lng":"-8.963068962097168"},"fields":{"slug":"/section-directory-content/game-angling/river-bandon-game/"}}},{"node":{"frontmatter":{"title":"River Shannon - Shannonbridge to Limerick City - great angling","category":"Game Angling","county":"Limerick","type":"Content","excerpt":null,"address":"Shannon Regional Fisheries Board, Ashbourne Business Park Dock Road, Limerick, Limerick","tel":"+353 (0)61 30 0238","images":null,"lat":"52.655372619628906","lng":"-8.651154518127441"},"fields":{"slug":"/section-directory-content/game-angling/river-shannon---shannonbridge-to-limerick-city---great-angling/"}}},{"node":{"frontmatter":{"title":"River Lee System","category":"Game Angling","county":"Cork","type":"Content","excerpt":null,"address":"South Western Regional Fisheries Board, Sunnyside House, Macroom, Co. Cork","tel":"+353 (0)26 41 222","images":null,"lat":"51.89734649658203","lng":"-8.958512306213379"},"fields":{"slug":"/section-directory-content/game-angling/river-lee-system/"}}},{"node":{"frontmatter":{"title":"River Maigue System","category":"Game Angling","county":"Limerick","type":"Content","excerpt":null,"address":"Shannon Regional Fisheries Board Ashbourne Business Park, Dock Road, Limerick, Co. Limerick","tel":"+353 (0)61 30 0238","images":null,"lat":"52.554935455322266","lng":"-8.80056381225586"},"fields":{"slug":"/section-directory-content/game-angling/river-maigue-system/"}}},{"node":{"frontmatter":{"title":"River Inny (Game)","category":"Game Angling","county":"Cork","type":"Content","excerpt":null,"address":"South Western Regional Fisheries Board, Sunnyside House, Macroom, Co. Cork","tel":"+353 (0)26 41 222","images":null,"lat":"51.8591423034668","lng":"-10.173039436340332"},"fields":{"slug":"/section-directory-content/game-angling/river-inny-game/"}}},{"node":{"frontmatter":{"title":"River Suir and Drish brown trout","category":"Game Angling","county":"Limerick","type":"Content","excerpt":null,"address":"Shannon Regional Fisheries Board Ashbourne Business Park, Dock Road, Limerick, Co. Limerick","tel":"+353 (0)61 30 0238","images":null,"lat":"52.6536750793457","lng":"-8.648306846618652"},"fields":{"slug":"/section-directory-content/game-angling/river-suir-and-drish-brown-trout/"}}},{"node":{"frontmatter":{"title":"Robe River Mayo","category":"Game Angling","county":"Galway","type":"Content","excerpt":null,"address":"Western Regional Fisheries Board, Weir Lodge, Earl's Island, Galway City, Co. Galway","tel":"+353 (0)91 56 3118","images":null,"lat":"53.61073684692383","lng":"-9.224569320678711"},"fields":{"slug":"/section-directory-content/game-angling/robe-river-mayo/"}}},{"node":{"frontmatter":{"title":"Stone Falls Specimen Trout Fishery and School of Fly Fishing","category":"Game Angling","county":"Derry","type":"Content","excerpt":null,"address":"Stone Falls Specimin Trout Fishery, 63 Altikeeragh Road, Castlerock, Co. Derry, BT51 4SR","tel":"+44 (0)28 7084 8380","images":null,"lat":"55.16653823852539","lng":"-6.787068843841553"},"fields":{"slug":"/section-directory-content/game-angling/stone-falls-specimen-trout-fishery-and-school-of-fly-fishing/"}}},{"node":{"frontmatter":{"title":"Riverbush Salmon Station","category":"Game Angling","county":"Antrim","type":"Content","excerpt":null,"address":"Riverbush Salmon Station, 21 Church Street, Bushmills, Antrim","tel":"+44 (0)28 2073 1435","images":null,"lat":"55.204498291015625","lng":"-6.52309513092041"},"fields":{"slug":"/section-directory-content/game-angling/riverbush-salmon-station/"}}},{"node":{"frontmatter":{"title":"River Ilen (Game)","category":"Game Angling","county":"Cork","type":"Content","excerpt":null,"address":"South Western Regional Fisheries Board, Sunnyside House, Macroom, Co. Cork","tel":"+353 (0)26 41 222","images":null,"lat":"51.54900360107422","lng":"-9.267895698547363"},"fields":{"slug":"/section-directory-content/game-angling/river-ilen-game/"}}},{"node":{"frontmatter":{"title":"Thomas Street Post Office","category":"Game Angling","county":"Antrim","type":"Content","excerpt":null,"address":"Thomas Street Post Office, 8 Thomas Street, Ballymena, Antrim","tel":"+44 (0)28 2565 6230","images":null,"lat":"54.86907958984375","lng":"-6.2760701179504395"},"fields":{"slug":"/section-directory-content/game-angling/thomas-street-post-office/"}}},{"node":{"frontmatter":{"title":"Shorts Sports and Cycles","category":"Game Angling","county":"Armagh","type":"Content","excerpt":null,"address":"shorts sports and cycles, 2 North Street, Crossmaglen, Armagh","tel":"+44 (0)28 3086 1861","images":null,"lat":"54.17662811279297","lng":"-6.339670181274414"},"fields":{"slug":"/section-directory-content/game-angling/shorts-sports-and-cycles/"}}},{"node":{"frontmatter":{"title":"Toombeola Loughs and Anglers Return Accommodation","category":"Game Angling","county":"Galway","type":"Content","excerpt":null,"address":"The Anglers Return, Toombeola, Roundstone, Co. Galway","tel":"+353 (0)95 31 091","images":null,"lat":"53.492591857910156","lng":"-10.03364086151123"},"fields":{"slug":"/section-directory-content/game-angling/toombeola-loughs-and-anglers-return-accommodation/"}}},{"node":{"frontmatter":{"title":"The River Nore","category":"Game Angling","county":"Dublin","type":"Content","excerpt":null,"address":"The Central Fisheries Board, Unit 4, Swords Business Campus, Balheary Road, Swords, Dublin","tel":"+353 (0)1 8842 600","images":null,"lat":"52.46628189086914","lng":"-7.040762901306152"},"fields":{"slug":"/section-directory-content/game-angling/the-river-nore/"}}}]}},"pageContext":{"isCreatedByStatefulCreatePages":false,"slug":"/section-directory/game-angling/","category":"Game Angling"}}}