{"componentChunkName":"component---src-templates-section-directory-js","path":"/section-directory/hostels/","webpackCompilationHash":"","result":{"data":{"markdownRemark":{"html":"","frontmatter":{"category":"Hostels"}},"allMarkdownRemark":{"distinct":["Antrim","Armagh","Cork","Derry","Donegal","Down","Dublin","Fermanagh","Galway","Kerry","Kilkenny","Limerick","Louth","Tipperary","Tyrone"],"edges":[{"node":{"frontmatter":{"title":"Armagh City Youth Hostel","category":"Hostels","county":"Armagh","type":"Content","excerpt":null,"address":"39, Abbey St, Armagh, Co. Armagh BT61 7DY","tel":"028 3751 1800","images":null,"lat":"54.34946","lng":"-6.6571"},"fields":{"slug":"/section-directory-content/hostels/armagh-city-youth-hostel/"}}},{"node":{"frontmatter":{"title":"Barholm Self Catering","category":"Hostels","county":"Down","type":"Content","excerpt":null,"address":"11, The Strand, Portaferry, Newtownards, Co. Down, BT22 1PF","tel":"028 4272 9598","images":null,"lat":"054.3810770000","lng":"-005.5502620000"},"fields":{"slug":"/section-directory-content/hostels/barholm-self-catering/"}}},{"node":{"frontmatter":{"title":"Backpackers Ireland Lakeside Hostel","category":"Hostels","county":"Donegal","type":"Content","excerpt":null,"address":"Old Dunlewey Hotel Dunlewey Co. Donegal Co. Donegal","tel":"(074)9532133","images":null,"lat":"55.02565482","lng":"-8.121535143"},"fields":{"slug":"/section-directory-content/hostels/backpackers-ireland-lakeside-hostel/"}}},{"node":{"frontmatter":{"title":"Belfast Goodwill Association","category":"Hostels","county":"Antrim","type":"Content","excerpt":null,"address":"126, Antrim Rd, Belfast, Co. Antrim BT15 5GA","tel":"028 9077 6106","images":null,"lat":"54.625086","lng":"-5.938225"},"fields":{"slug":"/section-directory-content/hostels/belfast-goodwill-association/"}}},{"node":{"frontmatter":{"title":"Belfast Welcome Centre","category":"Hostels","county":"Antrim","type":"Content","excerpt":null,"address":"Tourist Information Belfast and N.I., 47 Donegall Place, Belfast, Co. Antrim, BT1 5AD","tel":"028 9508 7532","images":null,"lat":"054.5977390000","lng":"-005.9302110000"},"fields":{"slug":"/section-directory-content/hostels/belfast-welcome-centre/"}}},{"node":{"frontmatter":{"title":"Belfast International Youth Hostel","category":"Hostels","county":"Antrim","type":"Content","excerpt":null,"address":"22-32, Donegall Rd, Belfast, Co. Antrim BT12 5JN","tel":"028 9031 5435","images":null,"lat":"54.589416","lng":"-5.935089"},"fields":{"slug":"/section-directory-content/hostels/belfast-international-youth-hostel/"}}},{"node":{"frontmatter":{"title":"Bushmills Youth Hostel","category":"Hostels","county":"Antrim","type":"Content","excerpt":null,"address":"Mill Rest, 49, Main St, Bushmills, Co. Antrim BT57 8QA","tel":"028 2073 1222","images":null,"lat":"55.20703","lng":"-6.52394"},"fields":{"slug":"/section-directory-content/hostels/bushmills-youth-hostel/"}}},{"node":{"frontmatter":{"title":"Bru Radharc na Mara Hostel","category":"Hostels","county":"Galway","type":"Content","excerpt":null,"address":"West vlge Inisheer Aran Isles Co. Galway","tel":"(099)75087","images":null,"lat":"53.063368","lng":"-9.519779"},"fields":{"slug":"/section-directory-content/hostels/bru-radharc-na-mara-hostel/"}}},{"node":{"frontmatter":{"title":"Breesy Accommodation Centre","category":"Hostels","county":"Donegal","type":"Content","excerpt":null,"address":"Cashelard Ballyshannon Co. Donegal","tel":"(071)9822925","images":null,"lat":"54.52455991","lng":"-8.108592086"},"fields":{"slug":"/section-directory-content/hostels/breesy-accommodation-centre/"}}},{"node":{"frontmatter":{"title":"Carlingford Community Development Ltd","category":"Hostels","county":"Louth","type":"Content","excerpt":null,"address":"Dundalk st Carlingford Co. Louth","tel":"(042)9383624","images":null,"lat":"54.03804725","lng":"-6.185261698"},"fields":{"slug":"/section-directory-content/hostels/carlingford-community-development-ltd/"}}},{"node":{"frontmatter":{"title":"Donegal Town Independent Hostel","category":"Hostels","county":"Donegal","type":"Content","excerpt":null,"address":"Doonan Donegal Town Co. Donegal","tel":"(074)9722805","images":null,"lat":"54.65506022","lng":"-8.108394565"},"fields":{"slug":"/section-directory-content/hostels/donegal-town-independent-hostel/"}}},{"node":{"frontmatter":{"title":"Carrick House Hostel","category":"Hostels","county":"Antrim","type":"Content","excerpt":null,"address":"8-10, Wall St, Belfast, Co. Antrim BT13 1BE","tel":"028 9032 1659","images":null,"lat":"54.604707","lng":"-5.935366"},"fields":{"slug":"/section-directory-content/hostels/carrick-house-hostel/"}}},{"node":{"frontmatter":{"title":"Downhill Tourist Hostel","category":"Hostels","county":"Down","type":"Content","excerpt":null,"address":"12, Mussenden Rd, Downhill, Coleraine, Co. Derry BT51 4RP","tel":"028 7084 9077","images":null,"lat":"55.165794","lng":"-6.81963"},"fields":{"slug":"/section-directory-content/hostels/downhill-tourist-hostel/"}}},{"node":{"frontmatter":{"title":"Extern Organisation","category":"Hostels","county":"Antrim","type":"Content","excerpt":null,"address":"Ormeau Centre, 5, Verner St, Belfast, Co. Antrim BT7 2AA","tel":"028 9023 8091","images":null,"lat":"54.595929","lng":"-5.92286"},"fields":{"slug":"/section-directory-content/hostels/extern-organisation/"}}},{"node":{"frontmatter":{"title":"Enniskillen Youth Hostel","category":"Hostels","county":"Fermanagh","type":"Content","excerpt":null,"address":"The Bridges, Belmore St, Enniskillen, Co. Fermanagh BT74 6AA","tel":"028 6634 0110","images":null,"lat":"54.344267","lng":"-7.63312"},"fields":{"slug":"/section-directory-content/hostels/enniskillen-youth-hostel/"}}},{"node":{"frontmatter":{"title":"Kinlay House Galway","category":"Hostels","county":"Galway","type":"Content","excerpt":null,"address":"Merchants Road Eyre Square Galway Co. Galway","tel":"(091)565244","images":null,"lat":"53.27324462","lng":"-9.048656384"},"fields":{"slug":"/section-directory-content/hostels/kinlay-house-galway/"}}},{"node":{"frontmatter":{"title":"Edward Street Hostel Ltd","category":"Hostels","county":"Armagh","type":"Content","excerpt":null,"address":"21, Edward St, Portadown, Craigavon, Co. Armagh BT62 3NE","tel":"028 3835 9596","images":null,"lat":"54.421302","lng":"-6.441598"},"fields":{"slug":"/section-directory-content/hostels/edward-street-hostel-ltd/"}}},{"node":{"frontmatter":{"title":"Groarty House/Manor","category":"Hostels","county":"Derry","type":"Content","excerpt":null,"address":"64, Groarty Road, Derry, BT48 0JY","tel":"0845 080 5104","images":null,"lat":"055.0127520000","lng":"-007.3717120000"},"fields":{"slug":"/section-directory-content/hostels/groarty-house manor/"}}},{"node":{"frontmatter":{"title":"Fairfold Tourist Hostel Ltd","category":"Hostels","county":"Dublin","type":"Content","excerpt":null,"address":"24 Sandycove Rd Dun Laoghaire Co. Dublin","tel":"(01)2805120","images":null,"lat":"53.2858","lng":"-6.11667"},"fields":{"slug":"/section-directory-content/hostels/fairfold-tourist-hostel-ltd/"}}},{"node":{"frontmatter":{"title":"Killeline Leisure Centre","category":"Hostels","county":"Limerick","type":"Content","excerpt":null,"address":"Cork rd Newcastlewest Link Co. Limerick","tel":"(069)77551","images":null,"lat":"52.44534482","lng":"-9.045390492"},"fields":{"slug":"/section-directory-content/hostels/killeline-leisure-centre/"}}},{"node":{"frontmatter":{"title":"Linen Court","category":"Hostels","county":"Armagh","type":"Content","excerpt":null,"address":"Linen Court, Linen Hall St, Armagh, Co. Armagh BT61 7AD","tel":"028 3751 1545","images":null,"lat":"54.345234","lng":"-6.65911"},"fields":{"slug":"/section-directory-content/hostels/linen-court/"}}},{"node":{"frontmatter":{"title":"Living Rivers Lighthouse Hostel","category":"Hostels","county":"Antrim","type":"Content","excerpt":null,"address":"8, Linenhall St, Ballymena, Co. Antrim BT43 5AL","tel":"028 2564 7654","images":null,"lat":"54.863643","lng":"-6.276915"},"fields":{"slug":"/section-directory-content/hostels/living-rivers-lighthouse-hostel/"}}},{"node":{"frontmatter":{"title":"MacGabhainns Backpacker Hostel","category":"Hostels","county":"Kilkenny","type":"Content","excerpt":null,"address":"24 Vicar St Kilkenny City, Kilkenny Co. Kilkenny","tel":"(056)7770970","images":null,"lat":"52.6566","lng":"-7.25594"},"fields":{"slug":"/section-directory-content/hostels/macgabhainns-backpacker-hostel/"}}},{"node":{"frontmatter":{"title":"Linen House Backpackers Hostel","category":"Hostels","county":"Antrim","type":"Content","excerpt":null,"address":"18, Kent St, Belfast, Co. Antrim BT1 2JA","tel":"028 9058 6400","images":null,"lat":"54.603003","lng":"-5.93221"},"fields":{"slug":"/section-directory-content/hostels/linen-house-backpackers-hostel/"}}},{"node":{"frontmatter":{"title":"Methodist City Mission Hostel","category":"Hostels","county":"Derry","type":"Content","excerpt":null,"address":"19a Crawford Square, Derry, Co. Derry BT48 7HR","tel":"028 7137 0090","images":null,"lat":"55.00315","lng":"-7.327305"},"fields":{"slug":"/section-directory-content/hostels/methodist-city-mission-hostel/"}}},{"node":{"frontmatter":{"title":"New Haven Hostel","category":"Hostels","county":"Antrim","type":"Content","excerpt":null,"address":"47, Irish Quarter South, Carrickfergus, Co. Antrim BT38 8BL","tel":"028 9335 1383","images":null,"lat":"54.713745","lng":"-5.810989"},"fields":{"slug":"/section-directory-content/hostels/new-haven-hostel/"}}},{"node":{"frontmatter":{"title":"Mournehostel-Cnocnafeola","category":"Hostels","county":"Down","type":"Content","excerpt":null,"address":"Bog Rd, Atticall, Kilkeel, Newry, Co. Down BT34 4HT","tel":"028 4176 5859","images":null,"lat":"54.113962","lng":"-6.03841"},"fields":{"slug":"/section-directory-content/hostels/mournehostel-cnocnafeola/"}}},{"node":{"frontmatter":{"title":"Morning Star House","category":"Hostels","county":"Antrim","type":"Content","excerpt":null,"address":"2-12, Divis St, Belfast, Co. Antrim BT12 4AL","tel":"028 9033 3500","images":null,"lat":"54.599764","lng":"-5.938705"},"fields":{"slug":"/section-directory-content/hostels/morning-star-house/"}}},{"node":{"frontmatter":{"title":"Newcastle Youth Hostel","category":"Hostels","county":"Down","type":"Content","excerpt":null,"address":"30, Downs Rd, Newcastle, Co. Down BT33 0AG","tel":"028 4372 2133","images":null,"lat":"54.214153","lng":"-5.886706"},"fields":{"slug":"/section-directory-content/hostels/newcastle-youth-hostel/"}}},{"node":{"frontmatter":{"title":"Derry City Independent Hostel","category":"Hostels","county":"Derry","type":"Content","excerpt":null,"address":"44, Great James St, Derry, Co. Derry BT48 7DB","tel":"028 7137 7989","images":null,"lat":"55","lng":"-7.32584"},"fields":{"slug":"/section-directory-content/hostels/derry-city-independent-hostel/"}}},{"node":{"frontmatter":{"title":"Portrush Holiday Hostel","category":"Hostels","county":"Antrim","type":"Content","excerpt":null,"address":"24, Princess Street, Portush, Co. Antrim, BT56 8AX","tel":"028 7082 1288","images":null,"lat":"055.2091290000","lng":"-006.6578360000"},"fields":{"slug":"/section-directory-content/hostels/portrush-holiday-hostel/"}}},{"node":{"frontmatter":{"title":"Northern Ireland Institute for the Disabled (Men's Hostel)","category":"Hostels","county":"Antrim","type":"Content","excerpt":null,"address":"3, Utility St, Belfast, Co. Antrim BT12 5JS","tel":"028 9032 1132","images":null,"lat":"54.589422","lng":"-5.94182"},"fields":{"slug":"/section-directory-content/hostels/northern-ireland-institute-for-the-disabled-mens-hostel/"}}},{"node":{"frontmatter":{"title":"Farset International Ltd","category":"Hostels","county":"Antrim","type":"Content","excerpt":null,"address":"466, Springfield Rd, Belfast, Co. Antrim BT12 7DW","tel":"028 9089 9833","images":null,"lat":"54.600311","lng":"-5.970114"},"fields":{"slug":"/section-directory-content/hostels/farset-international-ltd/"}}},{"node":{"frontmatter":{"title":"Rathgormack Hostel and Hiking Centre","category":"Hostels","county":"Tipperary","type":"Content","excerpt":null,"address":"Rathgormack Carrick-on-suir Co. Tipperary","tel":"(051)646969","images":null,"lat":"52.350197","lng":"-7.408518"},"fields":{"slug":"/section-directory-content/hostels/rathgormack-hostel-and-hiking-centre/"}}},{"node":{"frontmatter":{"title":"Paddys Palace Hostel","category":"Hostels","county":"Antrim","type":"Content","excerpt":null,"address":"70, Fitzwilliam St, Belfast, Co. Antrim BT9 6AX","tel":"028 9033 3367","images":null,"lat":"54.586148","lng":"-5.9401"},"fields":{"slug":"/section-directory-content/hostels/paddys-palace-hostel/"}}},{"node":{"frontmatter":{"title":"Rolf's Country House and Restaurant","category":"Hostels","county":"Cork","type":"Content","excerpt":null,"address":"Baltimore West Cork Co. Cork","tel":"(028)20289","images":null,"lat":"51.48231021","lng":"-9.368641572"},"fields":{"slug":"/section-directory-content/hostels/rolfs-country-house-and-restaurant/"}}},{"node":{"frontmatter":{"title":"Residential Centre W.E.L.B","category":"Hostels","county":"Tyrone","type":"Content","excerpt":null,"address":"Ulster American Folk Park, 2, Mellon Rd, Omagh, Co. Tyrone BT78 5QU","tel":"028 8224 0918","images":null,"lat":"54.658619","lng":"-7.331744"},"fields":{"slug":"/section-directory-content/hostels/residential-centre-welb/"}}},{"node":{"frontmatter":{"title":"Sheep Island View Accommodation","category":"Hostels","county":"Antrim","type":"Content","excerpt":null,"address":"42a, Main St, Ballintoy, Ballycastle, Co. Antrim BT54 6LX","tel":"028 2076 9391","images":null,"lat":"55.236474","lng":"-6.35766"},"fields":{"slug":"/section-directory-content/hostels/sheep-island-view-accommodation/"}}},{"node":{"frontmatter":{"title":"Rick's Causeway Coast Hostel","category":"Hostels","county":"Derry","type":"Content","excerpt":null,"address":"4, Victoria Terrace, Portstewart, Co. Derry BT55 7BA","tel":"028 7083 3789","images":null,"lat":"55.188562","lng":"-6.718222"},"fields":{"slug":"/section-directory-content/hostels/ricks-causeway-coast-hostel/"}}},{"node":{"frontmatter":{"title":"The Salvation Army","category":"Hostels","county":"Antrim","type":"Content","excerpt":null,"address":"Centenary House and Calder Fountain, 2, Victoria St, Belfast, Co. Antrim BT1 3GG","tel":"028 9032 0320","images":null,"lat":"54.601768","lng":"-5.9247"},"fields":{"slug":"/section-directory-content/hostels/the-salvation-army/"}}},{"node":{"frontmatter":{"title":"Garranes Farmhouse Hostel","category":"Hostels","county":"Cork","type":"Content","excerpt":null,"address":"Garranes Cahermore Castletownbere Co. Cork","tel":"(027)73147","images":null,"lat":"51.652286","lng":"-9.909254"},"fields":{"slug":"/section-directory-content/hostels/garranes-farmhouse-hostel/"}}},{"node":{"frontmatter":{"title":"Sheltered Help","category":"Hostels","county":"Antrim","type":"Content","excerpt":null,"address":"459, Springfield Rd, Belfast, Co. Antrim BT12 7DL","tel":"028 9080 5088","images":null,"lat":"54.599924","lng":"-5.970862"},"fields":{"slug":"/section-directory-content/hostels/sheltered-help/"}}},{"node":{"frontmatter":{"title":"Simon Community Northern Ireland","category":"Hostels","county":"Antrim","type":"Content","excerpt":null,"address":"Mill House, 2-4, Henry St, Harryvale, Ballymena, Co. Antrim BT42 3AH","tel":"028 2564 8049","images":null,"lat":"54.861237","lng":"-6.27722"},"fields":{"slug":"/section-directory-content/hostels/simon-community-northern-ireland/"}}},{"node":{"frontmatter":{"title":"Backpackers Ireland Seaside Hostel","category":"Hostels","county":"Derry","type":"Content","excerpt":null,"address":"Magheragallon Derrybeg Co. Donegal","tel":"(074)9532244","images":null,"lat":"55.05775298","lng":"-8.311023222"},"fields":{"slug":"/section-directory-content/hostels/backpackers-ireland-seaside-hostel/"}}},{"node":{"frontmatter":{"title":"Thompson House","category":"Hostels","county":"Antrim","type":"Content","excerpt":null,"address":"426-428, Antrim Rd, Belfast, Co. Antrim BT15 5GA","tel":"028 9037 0923","images":null,"lat":"54.625086","lng":"-5.938225"},"fields":{"slug":"/section-directory-content/hostels/thompson-house/"}}},{"node":{"frontmatter":{"title":"Ark Housing Association Ltd","category":"Hostels","county":"Antrim","type":"Content","excerpt":null,"address":"Roseville House, 23, Rossmore Drive,Ormeau Rd, Belfast, Co. Antrim BT7 3LB","tel":"028 9064 3659","images":null,"lat":"54.572749","lng":"-5.91819"},"fields":{"slug":"/section-directory-content/hostels/ark-housing-association-ltd/"}}},{"node":{"frontmatter":{"title":"Travellers Rest Hostel","category":"Hostels","county":"Kerry","type":"Content","excerpt":null,"address":"Caher Daniel Village Killarney Kerry Co. Kerry","tel":"(066)9475175","images":null,"lat":"51.76898747","lng":"-10.09952407"},"fields":{"slug":"/section-directory-content/hostels/travellers-rest-hostel/"}}},{"node":{"frontmatter":{"title":"White Park Bay Youth Hostel","category":"Hostels","county":"Antrim","type":"Content","excerpt":null,"address":"157, Whitepark Rd, Ballintoy, Ballycastle, Co. Antrim BT54 6NH","tel":"028 2073 1745","images":null,"lat":"55.228608","lng":"-6.395228"},"fields":{"slug":"/section-directory-content/hostels/white-park-bay-youth-hostel/"}}},{"node":{"frontmatter":{"title":"Waterside House","category":"Hostels","county":"Armagh","type":"Content","excerpt":null,"address":"Oxford Island,Annaloiste Rd, Lurgan, Craigavon, Co. Armagh BT66 6NJ","tel":"028 3832 5366","images":null,"lat":"54.487251","lng":"-6.37243"},"fields":{"slug":"/section-directory-content/hostels/waterside-house/"}}},{"node":{"frontmatter":{"title":"Rosemount House Ltd","category":"Hostels","county":"Antrim","type":"Content","excerpt":null,"address":"424, Antrim Rd, Belfast, Co. Antrim BT15 5GA","tel":"028 9077 9740","images":null,"lat":"54.625381","lng":"-5.938109"},"fields":{"slug":"/section-directory-content/hostels/rosemount-house-ltd/"}}}]}},"pageContext":{"isCreatedByStatefulCreatePages":false,"slug":"/section-directory/hostels/","category":"Hostels"}}}