{"componentChunkName":"component---src-templates-section-directory-js","path":"/section-directory/bowling/","webpackCompilationHash":"","result":{"data":{"markdownRemark":{"html":"","frontmatter":{"category":"Bowling"}},"allMarkdownRemark":{"distinct":["Antrim","Cavan","Cork","Derry","Donegal","Down","Dublin","Galway","Laois","Limerick","Tyrone","Wicklow"],"edges":[{"node":{"frontmatter":{"title":"Andersonstown Leisure Centre","category":"Bowling","county":"Antrim","type":"Content","excerpt":null,"address":"Andersonstown Road, Belfast, Co. Antrim, BT11 9BY","tel":"028 9072 6311","images":null,"lat":"054.5734980000","lng":"-005.9887870000"},"fields":{"slug":"/section-directory-content/bowling/andersonstown-leisure-centre/"}}},{"node":{"frontmatter":{"title":"Arena 7 Leisure Complex","category":"Bowling","county":"Donegal","type":"Content","excerpt":null,"address":"Units 1-4 Ballyraine Retail Park, Ramelton Road, Letterkenny, Co. Donegal","tel":"+353 (0)74 912 8853","images":null,"lat":"54.95663833618164","lng":"-7.706509590148926"},"fields":{"slug":"/section-directory-content/bowling/arena-7-leisure-complex/"}}},{"node":{"frontmatter":{"title":"Ards Leisure Centre","category":"Bowling","county":"Down","type":"Content","excerpt":null,"address":"64-70, William St, Newtownards, Co. Down BT23 4EJ","tel":"028 9181 2837","images":null,"lat":"054.5908480000","lng":"-005.9399400000"},"fields":{"slug":"/section-directory-content/bowling/ards-leisure-centre/"}}},{"node":{"frontmatter":{"title":"Ballygawley Bowling Club","category":"Bowling","county":"Tyrone","type":"Content","excerpt":null,"address":"15, Main St, Ballygawley, Dungannon, Co. Tyrone BT70 2HD","tel":"028 8556 8207","images":null,"lat":"54.461044","lng":"-7.027986"},"fields":{"slug":"/section-directory-content/bowling/ballygawley-bowling-club/"}}},{"node":{"frontmatter":{"title":"Astra Bowl","category":"Bowling","county":"Cavan","type":"Content","excerpt":null,"address":"Storm Cinema Complex Townspark, Cavan Town, Co. Cavan","tel":"+353 (0)49 437 2662","images":null,"lat":"53.98970031738281","lng":"-7.358944416046143"},"fields":{"slug":"/section-directory-content/bowling/astra-bowl/"}}},{"node":{"frontmatter":{"title":"Ballinderry Parish Bowling Club","category":"Bowling","county":"Antrim","type":"Content","excerpt":null,"address":"4, Moira Rd, Ballinderry Upper, Lisburn, Co. Antrim BT28 2HG","tel":"028 9265 1332","images":null,"lat":"54.529058","lng":"-6.207105"},"fields":{"slug":"/section-directory-content/bowling/ballinderry-parish-bowling-club/"}}},{"node":{"frontmatter":{"title":"Ballymena Sportsbowl","category":"Bowling","county":"Antrim","type":"Content","excerpt":null,"address":"Ballymena Sportsbowl, Unit A1 Wakehurst Industrial Estate Wakehurst Road, Ballymena, Co. Antrim, BT42 3AZ","tel":"+44 (0)28 2564 4144","images":null,"lat":"54.857215881347656","lng":"-6.2727179527282715"},"fields":{"slug":"/section-directory-content/bowling/ballymena-sportsbowl/"}}},{"node":{"frontmatter":{"title":"Belfast Indoor Bowls Club","category":"Bowling","county":"Antrim","type":"Content","excerpt":null,"address":"115, Milltown Rd, Shaws Bridge, Belfast, Co. Antrim BT8 7XP","tel":"028 9049 1396","images":null,"lat":"54.54972","lng":"-5.94768"},"fields":{"slug":"/section-directory-content/bowling/belfast-indoor-bowls-club/"}}},{"node":{"frontmatter":{"title":"Ballywalter Bowling Club and Football Club","category":"Bowling","county":"Down","type":"Content","excerpt":null,"address":"12, Springvale Rd, Ballywalter, Newtownards, Co. Down BT22 2PE","tel":"028 4275 8874","images":null,"lat":"54.540478","lng":"-5.484081"},"fields":{"slug":"/section-directory-content/bowling/ballywalter-bowling-club-and-football-club/"}}},{"node":{"frontmatter":{"title":"Bowling Greens And Putting Greens Exploris","category":"Bowling","county":"Down","type":"Content","excerpt":null,"address":"Bowling Greens And Putting Greens Exploris, Portaferry, Down","tel":"+44 (0)28 9182 4000","images":null,"lat":"54.38182830810547","lng":"-5.546350002288818"},"fields":{"slug":"/section-directory-content/bowling/bowling-greens-and-putting-greens-exploris/"}}},{"node":{"frontmatter":{"title":"Carrickfergus Bowling Club","category":"Bowling","county":"Antrim","type":"Content","excerpt":null,"address":"Shaftsbury Park, St.Brides St, Carrickfergus, Co. Antrim BT38 8JR","tel":"028 9335 1513","images":null,"lat":"54.722468","lng":"-5.81297"},"fields":{"slug":"/section-directory-content/bowling/carrickfergus-bowling-club/"}}},{"node":{"frontmatter":{"title":"Cliftonville Bowling Club Ltd","category":"Bowling","county":"Antrim","type":"Content","excerpt":null,"address":"13-23, Knutsford Drive, Belfast, Co. Antrim BT14 6LZ","tel":"028 9074 6622","images":null,"lat":"54.620519","lng":"-5.94866"},"fields":{"slug":"/section-directory-content/bowling/cliftonville-bowling-club-ltd/"}}},{"node":{"frontmatter":{"title":"Castleton Bowling Club","category":"Bowling","county":"Antrim","type":"Content","excerpt":null,"address":"Clark Park, 60, Skegoneill Avenue, Belfast, Co. Antrim BT15 3JP","tel":"028 9077 8042","images":null,"lat":"54.624955","lng":"-5.935122"},"fields":{"slug":"/section-directory-content/bowling/castleton-bowling-club/"}}},{"node":{"frontmatter":{"title":"Brunswick Superbowl","category":"Bowling","county":"Derry","type":"Content","excerpt":null,"address":"Brunswick Superbowl, Brunswick Lane Pennyburn Industrial Estate, Derry, Derry, BT48 0LU","tel":"+44 (0)28 7137 1999","images":null,"lat":"54.9918098449707","lng":"-7.320168972015381"},"fields":{"slug":"/section-directory-content/bowling/brunswick-superbowl/"}}},{"node":{"frontmatter":{"title":"COMBER LEISURE CENTRE","category":"Bowling","county":"Down","type":"Content","excerpt":null,"address":"Enler Recreation Park, Castle St, Comber, Newtownards, Co. Down BT23 5DY","tel":"028 9187 4350","images":null,"lat":"54.596381","lng":"-5.702494"},"fields":{"slug":"/section-directory-content/bowling/comber-leisure-centre/"}}},{"node":{"frontmatter":{"title":"Bundoran Glowbowl and Macks Amusements Complex","category":"Bowling","county":"Donegal","type":"Content","excerpt":null,"address":"Main Street, Bundoran, Donegal","tel":"071 9842111","images":null,"lat":"54.47845458984375","lng":"-8.279747009277344"},"fields":{"slug":"/section-directory-content/bowling/bundoran-glowbowl-and-macks-amusements-complex/"}}},{"node":{"frontmatter":{"title":"Cavehill Bowling and Lawn Tennis Club Ltd","category":"Bowling","county":"Antrim","type":"Content","excerpt":null,"address":"20, North Circular Rd, Belfast, Co. Antrim BT15 5HB","tel":"028 9077 6758","images":null,"lat":"54.634654","lng":"-5.940737"},"fields":{"slug":"/section-directory-content/bowling/cavehill-bowling-and-lawn-tennis-club-ltd/"}}},{"node":{"frontmatter":{"title":"County Antrim Indoor Bowling Club","category":"Bowling","county":"Antrim","type":"Content","excerpt":null,"address":"Ballysavage Rd, Parkgate, Ballyclare, Co. Antrim BT39 0DX","tel":"028 9443 2937","images":null,"lat":"54.726152","lng":"-6.1151"},"fields":{"slug":"/section-directory-content/bowling/county-antrim-indoor-bowling-club/"}}},{"node":{"frontmatter":{"title":"Fitness Northern Ireland","category":"Bowling","county":"Antrim","type":"Content","excerpt":null,"address":"The Robinson Centre, Montgomery Rd, Belfast, Co. Antrim BT6 9HS","tel":"02890 704 080","images":null,"lat":"054.5778250000","lng":"-005.8819790000"},"fields":{"slug":"/section-directory-content/bowling/fitness-northern-ireland/"}}},{"node":{"frontmatter":{"title":"Ewart's Bowling Club","category":"Bowling","county":"Antrim","type":"Content","excerpt":null,"address":"Clarendon Park, Somerdale Park, Belfast, Co. Antrim BT14 7HD","tel":"028 9071 9469","images":null,"lat":"54.61565","lng":"-5.96999"},"fields":{"slug":"/section-directory-content/bowling/ewarts-bowling-club/"}}},{"node":{"frontmatter":{"title":"Dun Laoghaire Bowling Club","category":"Bowling","county":"Dublin","type":"Content","excerpt":null,"address":"Moran Park, Queens Road, Dun Laoghaire, Co. Dublin","tel":"+353 (0)12 80 9837","images":null,"lat":"53.29331970214844","lng":"-6.13215970993042"},"fields":{"slug":"/section-directory-content/bowling/dun-laoghaire-bowling-club/"}}},{"node":{"frontmatter":{"title":"Dundonald International Ice Bowl","category":"Bowling","county":"Antrim","type":"Content","excerpt":null,"address":"111, Old Dundonald Rd, Dundonald, Belfast, Co. Antrim BT16 1XT","tel":"028 9080 9100","images":null,"lat":"54.588","lng":"-5.817222"},"fields":{"slug":"/section-directory-content/bowling/dundonald-international-ice-bowl/"}}},{"node":{"frontmatter":{"title":"Jim Baker Bowling Stadium","category":"Bowling","county":"Antrim","type":"Content","excerpt":null,"address":"Jim Baker Bowling Stadium, 22 Ballysavage Road, Antrim, Antrim","tel":"+44 (0)28 9443 2937","images":null,"lat":"54.71554946899414","lng":"-6.2163801193237305"},"fields":{"slug":"/section-directory-content/bowling/jim-baker-bowling-stadium/"}}},{"node":{"frontmatter":{"title":"Falls Leisure Centre","category":"Bowling","county":"Antrim","type":"Content","excerpt":null,"address":"15-17, Falls Road, Belfast, Co. Antrim, BT12 4PB","tel":"028 9050 0510","images":null,"lat":"054.5985030000","lng":"-005.9510900000"},"fields":{"slug":"/section-directory-content/bowling/falls-leisure-centre/"}}},{"node":{"frontmatter":{"title":"Forthriver Bowling and Tennis Club","category":"Bowling","county":"Antrim","type":"Content","excerpt":null,"address":"104a, Woodvale Rd, Belfast, Co. Antrim BT13 3BU","tel":"028 9074 1772","images":null,"lat":"54.610207","lng":"-5.963271"},"fields":{"slug":"/section-directory-content/bowling/forthriver-bowling-and-tennis-club/"}}},{"node":{"frontmatter":{"title":"Grove Wellbeing Centre","category":"Bowling","county":"Antrim","type":"Content","excerpt":null,"address":"120, York Road, Belfast, Co. Antrim, BT15 3HF","tel":"028 9072 6363","images":null,"lat":"054.6172080000","lng":"-005.9240870000"},"fields":{"slug":"/section-directory-content/bowling/grove-wellbeing-centre/"}}},{"node":{"frontmatter":{"title":"National Disabled Angling Park and Bowling Green","category":"Bowling","county":"Wicklow","type":"Content","excerpt":null,"address":"Rednagh Road, Aughrim, Co. Wicklow","tel":"+353 (0)40 23 6552","images":null,"lat":"52.85576248168945","lng":"-6.330333709716797"},"fields":{"slug":"/section-directory-content/bowling/national-disabled-angling-park-and-bowling-green/"}}},{"node":{"frontmatter":{"title":"Falls Bowling and Lawn Tennis Club","category":"Bowling","county":"Antrim","type":"Content","excerpt":null,"address":"61-63, Andersonstown Rd, Belfast, Co. Antrim BT11 9AH","tel":"028 9061 1083","images":null,"lat":"54.575523","lng":"-5.982458"},"fields":{"slug":"/section-directory-content/bowling/falls-bowling-and-lawn-tennis-club/"}}},{"node":{"frontmatter":{"title":"Leisureplex Tallaght","category":"Bowling","county":"Dublin","type":"Content","excerpt":null,"address":"Village Green Centre, Tallaght, Dublin, 24","tel":"+353 (0)1 459 9411","images":null,"lat":"53.28700256347656","lng":"-6.37035608291626"},"fields":{"slug":"/section-directory-content/bowling/leisureplex-tallaght/"}}},{"node":{"frontmatter":{"title":"Provincial Towns Indoor Bowling Club","category":"Bowling","county":"Antrim","type":"Content","excerpt":null,"address":"Provincial Towns Indoor Bowling Club, Ballybrakes Business Park, Ballymoney, Antrim, BT53 6LW","tel":"+44 (0)28 2766 4806","images":null,"lat":"55.062957763671875","lng":"-6.52543306350708"},"fields":{"slug":"/section-directory-content/bowling/provincial-towns-indoor-bowling-club/"}}},{"node":{"frontmatter":{"title":"Indoor Tennis Centre and Ozone Complex","category":"Bowling","county":"Antrim","type":"Content","excerpt":null,"address":"Ormeau Embankment, Belfast, Co. Antrim, BT6 8LT","tel":"028 9045 8024","images":null,"lat":"054.5908420000","lng":"-005.9134700000"},"fields":{"slug":"/section-directory-content/bowling/indoor-tennis-centre-and-ozone-complex/"}}},{"node":{"frontmatter":{"title":"Larne Bowling and Lawn Tennis Club","category":"Bowling","county":"Antrim","type":"Content","excerpt":null,"address":"112-120, Glenarm Rd, Larne, Co. Antrim BT40 1DZ","tel":"028 2827 2599","images":null,"lat":"54.858663","lng":"-5.809168"},"fields":{"slug":"/section-directory-content/bowling/larne-bowling-and-lawn-tennis-club/"}}},{"node":{"frontmatter":{"title":"Seapark Recreational Grounds Bowling Green","category":"Bowling","county":"Down","type":"Content","excerpt":null,"address":"Seapark Recreational Grounds Bowling Green, Seapark Road, Holywood, Down, BT18 0LH","tel":"+44 (0)28 9042 2894","images":null,"lat":"54.64604949951172","lng":"-5.826961040496826"},"fields":{"slug":"/section-directory-content/bowling/seapark-recreational-grounds-bowling-green/"}}},{"node":{"frontmatter":{"title":"Rathriland Bowling Pavilion","category":"Bowling","county":"Down","type":"Content","excerpt":null,"address":"Downpatrick St, Rathfriland, Newry, Co. Down BT34 5DQ","tel":"028 4063 8320","images":null,"lat":"54.236108","lng":"-6.157925"},"fields":{"slug":"/section-directory-content/bowling/rathriland-bowling-pavilion/"}}},{"node":{"frontmatter":{"title":"Leisure World Galway","category":"Bowling","county":"Galway","type":"Content","excerpt":null,"address":"Galway Shopping Centre, Headford Road, Galway City","tel":"+353 (0)91 56 2820","images":null,"lat":"53.280799865722656","lng":"-9.047677040100098"},"fields":{"slug":"/section-directory-content/bowling/leisure-world-galway/"}}},{"node":{"frontmatter":{"title":"Salisbury Bowling Club Ltd","category":"Bowling","county":"Antrim","type":"Content","excerpt":null,"address":"41-47, Salisbury Avenue, Belfast, Co. Antrim BT15 5DZ","tel":"028 9077 0549","images":null,"lat":"54.626827","lng":"-5.941523"},"fields":{"slug":"/section-directory-content/bowling/salisbury-bowling-club-ltd/"}}},{"node":{"frontmatter":{"title":"Seven Towers Leisure Centre","category":"Bowling","county":"Antrim","type":"Content","excerpt":null,"address":"Trostan Avenue, Ballymena, Co. Antrim BT43 7BL","tel":"028 2556 8159","images":null,"lat":"054.8625160000","lng":"-006.2696740000"},"fields":{"slug":"/section-directory-content/bowling/seven-towers-leisure-centre/"}}},{"node":{"frontmatter":{"title":"Old Bleach Bowling Club","category":"Bowling","county":"Antrim","type":"Content","excerpt":null,"address":"Neillsbrook Park, Randalstown, Antrim, Co. Antrim BT41 3BQ","tel":"028 9447 3127","images":null,"lat":"54.75226","lng":"-6.321813"},"fields":{"slug":"/section-directory-content/bowling/old-bleach-bowling-club/"}}},{"node":{"frontmatter":{"title":"Shaftesbury Bowling and Recreation Club","category":"Bowling","county":"Antrim","type":"Content","excerpt":null,"address":"20a, Annadale Avenue, Belfast, Co. Antrim BT7 3JH","tel":"028 9064 2801","images":null,"lat":"54.567846","lng":"-5.915113"},"fields":{"slug":"/section-directory-content/bowling/shaftesbury-bowling-and-recreation-club/"}}},{"node":{"frontmatter":{"title":"The Planet Entertainment Centre","category":"Bowling","county":"Cork","type":"Content","excerpt":null,"address":"Fitz's Boreen, Old Mallow Road, Cork City","tel":"+353 (0)21 430 0700","images":null,"lat":"51.92166519165039","lng":"-8.483251571655273"},"fields":{"slug":"/section-directory-content/bowling/the-planet-entertainment-centre/"}}},{"node":{"frontmatter":{"title":"Superdome Tenpin Bowling","category":"Bowling","county":"Dublin","type":"Content","excerpt":null,"address":"Palmerstown Shopping Centre, Dublin City Area West, Dublin, Dublin 20","tel":"+353 (0)16 26 0700","images":null,"lat":"53.35431671142578","lng":"-6.374109268188477"},"fields":{"slug":"/section-directory-content/bowling/superdome-tenpin-bowling/"}}},{"node":{"frontmatter":{"title":"Ward Park Bowling Green","category":"Bowling","county":"Down","type":"Content","excerpt":null,"address":"Ward Park Bowling Green, Park Avenue, Bangor, Down, BT20 4JU","tel":"+44 (0)28 9145 8773","images":null,"lat":"54.65994644165039","lng":"-5.664578914642334"},"fields":{"slug":"/section-directory-content/bowling/ward-park-bowling-green/"}}},{"node":{"frontmatter":{"title":"The Planet Bowl","category":"Bowling","county":"Limerick","type":"Content","excerpt":null,"address":"Fun World, Ennis Road, Limerick, Co. Limerick","tel":"+353 (0)61 32 5088","images":null,"lat":"52.67034912109375","lng":"-8.65693473815918"},"fields":{"slug":"/section-directory-content/bowling/the-planet-bowl/"}}},{"node":{"frontmatter":{"title":"Ballysillan Leisure Centre","category":"Bowling","county":"Antrim","type":"Content","excerpt":null,"address":"Ballysillan Road, Belfast, Co. Antrim, BT14 7QP","tel":"028 9091 8731","images":null,"lat":"054.6212510000","lng":"-005.9739910000"},"fields":{"slug":"/section-directory-content/bowling/ballysillan-leisure-centre/"}}},{"node":{"frontmatter":{"title":"Shankill Leisure Centre","category":"Bowling","county":"Antrim","type":"Content","excerpt":null,"address":"100, Shankill Road, Belfast, Co. Antrim, BT13 2BD","tel":"028 9091 8750","images":null,"lat":"054.6039520000","lng":"-005.9470200000"},"fields":{"slug":"/section-directory-content/bowling/shankill-leisure-centre/"}}},{"node":{"frontmatter":{"title":"Bowling Greens And Putting Greens Derry Park","category":"Bowling","county":"Down","type":"Content","excerpt":null,"address":"Bowling Greens And Putting Greens Derry Park, Newtownards, Down","tel":"+44 (0)28 9182 4000","images":null,"lat":"54.594329833984375","lng":"-5.70030403137207"},"fields":{"slug":"/section-directory-content/bowling/bowling-greens-and-putting-greens-derry-park/"}}},{"node":{"frontmatter":{"title":"Roll n Bowl","category":"Bowling","county":"Laois","type":"Content","excerpt":null,"address":"Portlaoise Entertainment Centre, Clonminam Business Park, Portlaoise, Co. Laois","tel":"+353 (0)57 867 0005","images":null,"lat":"53.026119232177734","lng":"-7.310261249542236"},"fields":{"slug":"/section-directory-content/bowling/roll-n-bowl/"}}},{"node":{"frontmatter":{"title":"Ulster Transport Bowling Club","category":"Bowling","county":"Antrim","type":"Content","excerpt":null,"address":"Lynda Avenue, Jordanstown, Newtownabbey, Co. Antrim BT37 0NX","tel":"028 9086 3331","images":null,"lat":"54.68711","lng":"-5.897731"},"fields":{"slug":"/section-directory-content/bowling/ulster-transport-bowling-club/"}}},{"node":{"frontmatter":{"title":"Sportsbowl Limited","category":"Bowling","county":"Antrim","type":"Content","excerpt":null,"address":"Sportsbowl Limited, Wakehurst Road, Ballymena, Antrim, BT42 3AZ","tel":"+44 (0)28 2564 4144","images":null,"lat":"54.857215881347656","lng":"-6.2727179527282715"},"fields":{"slug":"/section-directory-content/bowling/sportsbowl-limited/"}}},{"node":{"frontmatter":{"title":"Super Strikes Bowling Alley","category":"Bowling","county":"Derry","type":"Content","excerpt":null,"address":"Riverside Park, Coleraine, Co. Derry, BT51 3WA","tel":"+44 (0)28 7035 0005","images":null,"lat":"55.131710052490234","lng":"-6.6742401123046875"},"fields":{"slug":"/section-directory-content/bowling/super-strikes-bowling-alley/"}}}]}},"pageContext":{"isCreatedByStatefulCreatePages":false,"slug":"/section-directory/bowling/","category":"Bowling"}}}