{"componentChunkName":"component---src-templates-section-directory-js","path":"/section-directory/hotels/","webpackCompilationHash":"","result":{"data":{"markdownRemark":{"html":"","frontmatter":{"category":"Hotels"}},"allMarkdownRemark":{"distinct":["Antrim","Armagh","Cork","Down","Dublin","Fermanagh","Galway","Kerry","Limerick","Meath","Tipperary","Tyrone","Wicklow"],"edges":[{"node":{"frontmatter":{"title":"Airways Canopy and Duct Cleaning Services","category":"Hotels","county":"Dublin","type":"Content","excerpt":null,"address":"U5 Ballbrook Enterprise Centre Avonmore Rd Tallaght D 24 Co. Dublin","tel":"(01)4524762","images":null,"lat":"53.2872","lng":"-6.33955"},"fields":{"slug":"/section-directory-content/hotels/airways-canopy-and-duct-cleaning-services/"}}},{"node":{"frontmatter":{"title":"Allied Upholstery Fabrics (Dublin) Ltd","category":"Hotels","county":"Meath","type":"Content","excerpt":null,"address":"U11 The Court Ashbourne Ind Est Ashbourne Co. Meath Co. Meath","tel":"(01)8359444","images":null,"lat":"53.512909","lng":"-6.396618"},"fields":{"slug":"/section-directory-content/hotels/allied-upholstery-fabrics-dublin-ltd/"}}},{"node":{"frontmatter":{"title":"Advanced Air Conditioning and Refrigeration","category":"Hotels","county":"Dublin","type":"Content","excerpt":null,"address":"Unit E1 Riverview Business Pk Clondalkin Dublin 12 Co. Dublin","tel":"(01)4568776","images":null,"lat":"53.327913","lng":"-6.374303"},"fields":{"slug":"/section-directory-content/hotels/advanced-air-conditioning-and-refrigeration/"}}},{"node":{"frontmatter":{"title":"Abbey Court Hotel- Lodges- Conference and Leisure Centre","category":"Hotels","county":"Tipperary","type":"Content","excerpt":null,"address":"Dublin Rd Nenagh Co. Tipperary Co. Tipperary","tel":"(067)41111","images":null,"lat":"52.8647","lng":"-8.190103"},"fields":{"slug":"/section-directory-content/hotels/abbey-court-hotel--lodges--conference-and-leisure-centre/"}}},{"node":{"frontmatter":{"title":"Bannview Bed and Breakfast","category":"Hotels","county":"Armagh","type":"Content","excerpt":null,"address":"60, Portmore Street, Portadown, Craigavon, Co. Armagh, BT62 3NF","tel":"0845 080 5104","images":null,"lat":"054.4210740000","lng":"-006.4403280000"},"fields":{"slug":"/section-directory-content/hotels/bannview-bed-and-breakfast/"}}},{"node":{"frontmatter":{"title":"Ballyrobin Country Lodge","category":"Hotels","county":"Antrim","type":"Content","excerpt":null,"address":"144, Ballyrobin Road, Aldergrove, Crumlin, Co. Antrim, BT29 4EG","tel":"0845 080 5104","images":null,"lat":"054.6673830000","lng":"-006.1934850000"},"fields":{"slug":"/section-directory-content/hotels/ballyrobin-country-lodge/"}}},{"node":{"frontmatter":{"title":"Ballykisteen Hotel and Golf Resort","category":"Hotels","county":"Limerick","type":"Content","excerpt":null,"address":"Ballykisteen Limerick Junction Co. Tipperary Co. Tipperary","tel":"(062)33333","images":null,"lat":"52.502359","lng":"-8.21678"},"fields":{"slug":"/section-directory-content/hotels/ballykisteen-hotel-and-golf-resort/"}}},{"node":{"frontmatter":{"title":"Ballycanal Manor BandB and Self Catering Cottages","category":"Hotels","county":"Armagh","type":"Content","excerpt":null,"address":"2A, Glenavy Road, Moira, Craigavon, Co. Armagh, BT67 0LT","tel":"0845 080 5104","images":null,"lat":"054.4982560000","lng":"-006.2099780000"},"fields":{"slug":"/section-directory-content/hotels/ballycanal-manor-bandb-and-self-catering-cottages/"}}},{"node":{"frontmatter":{"title":"Carrybridge Hotel and Marina","category":"Hotels","county":"Fermanagh","type":"Content","excerpt":null,"address":"171, Inishmore Rd, Carry, Enniskillen, Co. Fermanagh BT94 5NF","tel":"028 6638 7148","images":null,"lat":"54.283044","lng":"-7.55081"},"fields":{"slug":"/section-directory-content/hotels/carrybridge-hotel-and-marina/"}}},{"node":{"frontmatter":{"title":"Carlton Hotel Galway City (Formerly Days Hotel Galway)","category":"Hotels","county":"Galway","type":"Content","excerpt":null,"address":"Dublin Road, Galway City East, Galway Co. Galway","tel":"(091)381200","images":null,"lat":"53.27986295","lng":"-9.021995335"},"fields":{"slug":"/section-directory-content/hotels/carlton-hotel-galway-city-formerly-days-hotel-galway/"}}},{"node":{"frontmatter":{"title":"Chatham Mill Bed And Breakfast","category":"Hotels","county":"Antrim","type":"Content","excerpt":null,"address":"Chatham Mill, Armoy, Ballymoney, Co. Antrim, BT53 8TH","tel":"0845 080 5104","images":null,"lat":"055.1223470000","lng":"-006.3637800000"},"fields":{"slug":"/section-directory-content/hotels/chatham-mill-bed-and-breakfast/"}}},{"node":{"frontmatter":{"title":"Best Western Woodenbridge Hotel and Lodge","category":"Hotels","county":"Wicklow","type":"Content","excerpt":null,"address":"Woodenbridge Vale of Avoca Arklow Co. Wicklow Co. Wicklow","tel":"(0402)35146","images":null,"lat":"52.83133294","lng":"-6.234257671"},"fields":{"slug":"/section-directory-content/hotels/best-western-woodenbridge-hotel-and-lodge/"}}},{"node":{"frontmatter":{"title":"Belfast Welcome Centre","category":"Hotels","county":"Antrim","type":"Content","excerpt":null,"address":"Tourist Information Belfast and N.I., 47 Donegall Place, Belfast, Co. Antrim, BT1 5AD","tel":"028 9508 7532","images":null,"lat":"054.5977390000","lng":"-005.9302110000"},"fields":{"slug":"/section-directory-content/hotels/belfast-welcome-centre/"}}},{"node":{"frontmatter":{"title":"Glendarragh Valley Inn","category":"Hotels","county":"Fermanagh","type":"Content","excerpt":null,"address":"9 Castlederg Road, Ederney, Enniskillen, Co. Fermanagh, BT93 0AL","tel":"0845 080 5104","images":null,"lat":"054.5355400000","lng":"-007.6594500000"},"fields":{"slug":"/section-directory-content/hotels/glendarragh-valley-inn/"}}},{"node":{"frontmatter":{"title":"Dundrum House Hotel Golf and Leisure Resort","category":"Hotels","county":"Tipperary","type":"Content","excerpt":null,"address":"Dundrum, Cashel Co. Tipperary Co. Tipperary","tel":"(062)71116","images":null,"lat":"52.51633091","lng":"-7.888842919"},"fields":{"slug":"/section-directory-content/hotels/dundrum-house-hotel-golf-and-leisure-resort/"}}},{"node":{"frontmatter":{"title":"Corporate Apartments (Great Victoria Street)","category":"Hotels","county":"Antrim","type":"Content","excerpt":null,"address":"Wellwood Street, Belfast, Co. Antrim, BT12 5FX","tel":"0845 080 5104","images":null,"lat":"054.5919180000","lng":"-005.9361680000"},"fields":{"slug":"/section-directory-content/hotels/corporate-apartments-great-victoria-street/"}}},{"node":{"frontmatter":{"title":"Clarion Hotel Dublin IFSC","category":"Hotels","county":"Dublin","type":"Content","excerpt":null,"address":"Excise Walk International Financial Services Centre Dublin 1 Co. Dublin","tel":"(01)4338800","images":null,"lat":"53.34781726","lng":"-6.243760475"},"fields":{"slug":"/section-directory-content/hotels/clarion-hotel-dublin-ifsc/"}}},{"node":{"frontmatter":{"title":"Greenmount Bed and Breakfast","category":"Hotels","county":"Antrim","type":"Content","excerpt":null,"address":"45, Andersonstown Road, Belfast, Co. Antrim, BT11 9AF","tel":"0845 080 5104","images":null,"lat":"054.5784940000","lng":"-005.9795790000"},"fields":{"slug":"/section-directory-content/hotels/greenmount-bed-and-breakfast/"}}},{"node":{"frontmatter":{"title":"Brookhill Serviced Apartments","category":"Hotels","county":"Antrim","type":"Content","excerpt":null,"address":"41,, Eglantine Avenue, Belfast, Co. Antrim, BT9 6EW","tel":"0845 080 5104","images":null,"lat":"054.5815990000","lng":"-005.9431410000"},"fields":{"slug":"/section-directory-content/hotels/brookhill-serviced-apartments/"}}},{"node":{"frontmatter":{"title":"Holiday Inn Express Antrim","category":"Hotels","county":"Antrim","type":"Content","excerpt":null,"address":"Junction 1 Leisure Park, Ballymena Road, Antrim, BT41 4LL","tel":"02894331076","images":null,"lat":"054.7223580000","lng":"-006.2266000000"},"fields":{"slug":"/section-directory-content/hotels/holiday-inn-express-antrim/"}}},{"node":{"frontmatter":{"title":"Keef Halla Country House","category":"Hotels","county":"Antrim","type":"Content","excerpt":null,"address":"20, Tully Road, Nutts Corner, Crumlin, Co. Antrim, BT29 4SW","tel":"0845 080 5104","images":null,"lat":"054.6496750000","lng":"-006.1677060000"},"fields":{"slug":"/section-directory-content/hotels/keef-halla-country-house/"}}},{"node":{"frontmatter":{"title":"Holiday Inn Express","category":"Hotels","county":"Antrim","type":"Content","excerpt":null,"address":"Holiday Inn Express Antrim M2, Jct.1, Ballymena Road, Antrim, BT41 4LL","tel":"0871 423 4828","images":null,"lat":"054.7223580000","lng":"-006.2266000000"},"fields":{"slug":"/section-directory-content/hotels/holiday-inn-express/"}}},{"node":{"frontmatter":{"title":"Brown Trout Golf and Country Inn","category":"Hotels","county":"Antrim","type":"Content","excerpt":null,"address":"209, Agivey Road, Aghadowey, Coleraine, Co. Antrim, BT51 4AD","tel":"0845 080 5104","images":null,"lat":"055.0347100000","lng":"-006.6024880000"},"fields":{"slug":"/section-directory-content/hotels/brown-trout-golf-and-country-inn/"}}},{"node":{"frontmatter":{"title":"Hebron House Bed and Breakfast","category":"Hotels","county":"Down","type":"Content","excerpt":null,"address":"Hebron House, 68 Princetown Road, Bangor, Co. Down, BT20 3TD","tel":"0845 080 5104","images":null,"lat":"054.6637950000","lng":"-005.6763180000"},"fields":{"slug":"/section-directory-content/hotels/hebron-house-bed-and-breakfast/"}}},{"node":{"frontmatter":{"title":"Killead Lodge Guest House","category":"Hotels","county":"Antrim","type":"Content","excerpt":null,"address":"25, Killead Road, Aldergrove, Crumlin, Co. Antrim, BT29 4EL","tel":"0845 080 5104","images":null,"lat":"054.6587780000","lng":"-006.1936320000"},"fields":{"slug":"/section-directory-content/hotels/killead-lodge-guest-house/"}}},{"node":{"frontmatter":{"title":"Lisnacurran Country House BandB","category":"Hotels","county":"Down","type":"Content","excerpt":null,"address":"6, Listullycurran Road, Dromore, Co. Down, BT25 1RB","tel":"0845 080 5104","images":null,"lat":"054.4383310000","lng":"-006.1285740000"},"fields":{"slug":"/section-directory-content/hotels/lisnacurran-country-house-bandb/"}}},{"node":{"frontmatter":{"title":"Knockninny Country House and Marina","category":"Hotels","county":"Fermanagh","type":"Content","excerpt":null,"address":"Knockninny Quay, Derrylin, Enniskillen, Co. Fermanagh BT92 9JU","tel":"028 6774 8590","images":null,"lat":"54.226963","lng":"-7.57132"},"fields":{"slug":"/section-directory-content/hotels/knockninny-country-house-and-marina/"}}},{"node":{"frontmatter":{"title":"Malone Lodge Hotel","category":"Hotels","county":"Antrim","type":"Content","excerpt":null,"address":"60, Eglantine Avenue, Malone Road, Belfast, Co. Antrim, BT9 6DY","tel":"028 9038 8062","images":null,"lat":"054.5814340000","lng":"-005.9425160000"},"fields":{"slug":"/section-directory-content/hotels/malone-lodge-hotel/"}}},{"node":{"frontmatter":{"title":"Killyhevlin Hotel, Health Club and Chalets","category":"Hotels","county":"Fermanagh","type":"Content","excerpt":null,"address":"Killyhevlin, Enniskillen, Co. Fermanagh, BT74 6RW","tel":"028 6632 3481","images":null,"lat":"054.3297790000","lng":"-007.6198300000"},"fields":{"slug":"/section-directory-content/hotels/killyhevlin-hotel,-health-club-and-chalets/"}}},{"node":{"frontmatter":{"title":"M.B.A./Irelands Choice","category":"Hotels","county":"Cork","type":"Content","excerpt":null,"address":"East Park House Marina Commercial Park Centre Park Road Cork Co. Cork","tel":"(021)4323210","images":null,"lat":"51.89807784","lng":"-8.448092146"},"fields":{"slug":"/section-directory-content/hotels/mba irelands-choice/"}}},{"node":{"frontmatter":{"title":"O'Brien Roofing and Cladding Co. Ltd","category":"Hotels","county":"Dublin","type":"Content","excerpt":null,"address":"U64 Western Parkway Business pk Ballymount Dublin 12 Co. Dublin","tel":"(01)4199606","images":null,"lat":"53.313587","lng":"-6.348589"},"fields":{"slug":"/section-directory-content/hotels/obrien-roofing-and-cladding-co-ltd/"}}},{"node":{"frontmatter":{"title":"Greenwood Lodge","category":"Hotels","county":"Fermanagh","type":"Content","excerpt":null,"address":"17, Killyvilly Court, Killyvilly, Enniskillen, Co. Fermanagh, BT74 4DP","tel":"0845 080 5104","images":null,"lat":"054.3575730000","lng":"-007.5916570000"},"fields":{"slug":"/section-directory-content/hotels/greenwood-lodge/"}}},{"node":{"frontmatter":{"title":"O'Brien Marble and Granite","category":"Hotels","county":"Tipperary","type":"Content","excerpt":null,"address":"Three Bridges Business Park Pill Rd, Carrick-on-Suir Co. Tipperary","tel":"(051)645675","images":null,"lat":"52.35263","lng":"-7.38281"},"fields":{"slug":"/section-directory-content/hotels/obrien-marble-and-granite/"}}},{"node":{"frontmatter":{"title":"Muckross Park Hotel and Cloisters Spa","category":"Hotels","county":"Kerry","type":"Content","excerpt":null,"address":"Muckross Village, Lakes of Killarney, Co. Kerry Co. Kerry","tel":"(064)6623400","images":null,"lat":"52.05960851","lng":"-9.506324158"},"fields":{"slug":"/section-directory-content/hotels/muckross-park-hotel-and-cloisters-spa/"}}},{"node":{"frontmatter":{"title":"Ivanhoe Inn and Hotel","category":"Hotels","county":"Antrim","type":"Content","excerpt":null,"address":"556 Saintfield Road, Carryduff, Belfast, Co. Antrim, BT8 8EU","tel":"028 9081 2240","images":null,"lat":"054.5309790000","lng":"-005.8956800000"},"fields":{"slug":"/section-directory-content/hotels/ivanhoe-inn-and-hotel/"}}},{"node":{"frontmatter":{"title":"On Line Bar and Catering Supplies","category":"Hotels","county":"Limerick","type":"Content","excerpt":null,"address":"12/13 East Link Bus Park Tipperary rd Limerick Co. Limerick","tel":"(061)603816","images":null,"lat":"52.477422","lng":"-8.173141"},"fields":{"slug":"/section-directory-content/hotels/on-line-bar-and-catering-supplies/"}}},{"node":{"frontmatter":{"title":"Premier Inn Belfast Titanic Quarter/City Airport","category":"Hotels","county":"Antrim","type":"Content","excerpt":null,"address":"2A Queens Road, Belfast, Co. Antrim, BT3 9FB","tel":"0845 080 5104","images":null,"lat":"054.6991980000","lng":"-006.1432100000"},"fields":{"slug":"/section-directory-content/hotels/premier-inn-belfast-titanic-quarter city-airport/"}}},{"node":{"frontmatter":{"title":"Lough Erne Golf Resort","category":"Hotels","county":"Fermanagh","type":"Content","excerpt":null,"address":"Belleek Road, Ross Inner, Enniskillen, Co. Fermanagh, BT93 7ED","tel":"0845 080 5104","images":null,"lat":"054.3926370000","lng":"-007.6901000000"},"fields":{"slug":"/section-directory-content/hotels/lough-erne-golf-resort/"}}},{"node":{"frontmatter":{"title":"M.B.A./ Irelands Choice","category":"Hotels","county":"Cork","type":"Content","excerpt":null,"address":"East Park House Marina Commercial Park Centre Park Rd Cork Co. Cork","tel":"(021)4323210","images":null,"lat":"51.81659364","lng":"-8.392984057"},"fields":{"slug":"/section-directory-content/hotels/mba -irelands-choice/"}}},{"node":{"frontmatter":{"title":"Manor House Country Hotel","category":"Hotels","county":"Fermanagh","type":"Content","excerpt":null,"address":"Killadeas, Rockfield, Irvinestown, Enniskillen, Co. Fermanagh BT94 1NY","tel":"0845 080 5104","images":null,"lat":"054.4310750000","lng":"-007.6841800000"},"fields":{"slug":"/section-directory-content/hotels/manor-house-country-hotel/"}}},{"node":{"frontmatter":{"title":"Shannon Hotel Supplies (Wholesale) Ltd","category":"Hotels","county":"Limerick","type":"Content","excerpt":null,"address":"Unit 6D Docklands Business pk Dock rd Limerick Co. Limerick","tel":"(061)410622","images":null,"lat":"52.657235","lng":"-8.639622"},"fields":{"slug":"/section-directory-content/hotels/shannon-hotel-supplies-wholesale-ltd/"}}},{"node":{"frontmatter":{"title":"The Hunting Lodge Hotel","category":"Hotels","county":"Tyrone","type":"Content","excerpt":null,"address":"Baronscourt, 1, Letterbin Rd, Newtownstewart, Omagh, Co. Tyrone BT78 4HR","tel":"028 8166 2888","images":null,"lat":"54.693403","lng":"-7.463668"},"fields":{"slug":"/section-directory-content/hotels/the-hunting-lodge-hotel/"}}},{"node":{"frontmatter":{"title":"Tullylagan Country House Hotel","category":"Hotels","county":"Tyrone","type":"Content","excerpt":null,"address":"40B, Tullylagan Road, Cookstown, Co. Tyrone, BT80 8UP","tel":"02886 441177","images":null,"lat":"054.5940520000","lng":"-006.7741000000"},"fields":{"slug":"/section-directory-content/hotels/tullylagan-country-house-hotel/"}}},{"node":{"frontmatter":{"title":"The Customs House Country Inn","category":"Hotels","county":"Fermanagh","type":"Content","excerpt":null,"address":"25-27, Main St, Belcoo, Enniskillen, Co. Fermanagh BT93 5FB","tel":"028 6638 6285","images":null,"lat":"54.295753","lng":"-7.871981"},"fields":{"slug":"/section-directory-content/hotels/the-customs-house-country-inn/"}}},{"node":{"frontmatter":{"title":"Premier Filter Exchange Services Ld","category":"Hotels","county":"Dublin","type":"Content","excerpt":null,"address":"U22 block 613 Greenogue Bus pk Greenogue Ind Est Rathcoole Co. Dublin","tel":"(01)2575200","images":null,"lat":"53.30076032","lng":"-6.477412424"},"fields":{"slug":"/section-directory-content/hotels/premier-filter-exchange-services-ld/"}}},{"node":{"frontmatter":{"title":"The Weefield Bed And Breakfast","category":"Hotels","county":"Antrim","type":"Content","excerpt":null,"address":"113, Craigmore Road, Ringsend, Coleraine, Co. Antrim, BT51 4HS","tel":"0845 080 5104","images":null,"lat":"055.0428760000","lng":"-006.7638300000"},"fields":{"slug":"/section-directory-content/hotels/the-weefield-bed-and-breakfast/"}}},{"node":{"frontmatter":{"title":"Ramada Encore Belfast City Centre","category":"Hotels","county":"Antrim","type":"Content","excerpt":null,"address":"20 Talbot Street, Saint Anne's Square, Belfast, Co. Antrim, BT1 2LD","tel":"028 9002 5322","images":null,"lat":"054.6026670000","lng":"-005.9277090000"},"fields":{"slug":"/section-directory-content/hotels/ramada-encore-belfast-city-centre/"}}},{"node":{"frontmatter":{"title":"Queen's University Belfast","category":"Hotels","county":"Antrim","type":"Content","excerpt":null,"address":"Queens Elms, 78, Malone Road, Belfast, Co. Antrim, BT9 5BW","tel":"0845 080 5104","images":null,"lat":"054.5771290000","lng":"-005.9426230000"},"fields":{"slug":"/section-directory-content/hotels/queens-university-belfast/"}}},{"node":{"frontmatter":{"title":"Dunadry Hotel and Country Club","category":"Hotels","county":"Antrim","type":"Content","excerpt":null,"address":"2, Islandreagh Drive, Dunadry, Antrim, Co. Antrim BT41 2HA","tel":"0845 080 5104","images":null,"lat":"054.6991980000","lng":"-006.1432100000"},"fields":{"slug":"/section-directory-content/hotels/dunadry-hotel-and-country-club/"}}},{"node":{"frontmatter":{"title":"Holiday Inn Express-Holiday Inn Express Belfast","category":"Hotels","county":"Antrim","type":"Content","excerpt":null,"address":"106, University Street, Belfast, Co. Antrim BT7 1HP","tel":"0871 423 4828","images":null,"lat":"054.5780680000","lng":"-005.9476310000"},"fields":{"slug":"/section-directory-content/hotels/holiday-inn-express-holiday-inn-express-belfast/"}}}]}},"pageContext":{"isCreatedByStatefulCreatePages":false,"slug":"/section-directory/hotels/","category":"Hotels"}}}