{"componentChunkName":"component---src-templates-section-directory-js","path":"/section-directory/coach-hire/","webpackCompilationHash":"","result":{"data":{"markdownRemark":{"html":"","frontmatter":{"category":"Coach Hire"}},"allMarkdownRemark":{"distinct":["Antrim","Armagh","Clare","Cork","Derry","Donegal","Down","Dublin","Fermanagh","Kerry","Kilkenny","Leitrim","Limerick","Longford","Tipperary","Tyrone","Waterford","Wicklow"],"edges":[{"node":{"frontmatter":{"title":"Apple Blossom Coach Hire","category":"Coach Hire","county":"Armagh","type":"Content","excerpt":null,"address":"4, Coleman Drive, Lurgan, Craigavon, Co. Armagh BT66 6RR","tel":"028 3834 0064","images":null,"lat":"054.4776130000","lng":"-006.4037600000"},"fields":{"slug":"/section-directory-content/coach-hire/apple-blossom-coach-hire/"}}},{"node":{"frontmatter":{"title":"Carberry's Coaches","category":"Coach Hire","county":"Armagh","type":"Content","excerpt":null,"address":"8 Gallrock Road, Birches, Portadown, Co. Armagh, BT62 1NP","tel":"028 3844 9371","images":null,"lat":"054.4787790000","lng":"-006.5606770000"},"fields":{"slug":"/section-directory-content/coach-hire/carberrys-coaches/"}}},{"node":{"frontmatter":{"title":"Buckley's Tours","category":"Coach Hire","county":"Kerry","type":"Content","excerpt":null,"address":"Woodlands Industrial Estate, Killarney, Co. Kerry","tel":"+353 (0)64 663 1945","images":null,"lat":"52.06478500366211","lng":"-9.483261108398438"},"fields":{"slug":"/section-directory-content/coach-hire/buckleys-tours/"}}},{"node":{"frontmatter":{"title":"Belfast Bus Company","category":"Coach Hire","county":"Antrim","type":"Content","excerpt":null,"address":"Unit 1 Bayview Industrial Estate, Dargan Cresent, Belfast, Co. Antrim, BT3 9JP","tel":"028 9074 2444","images":null,"lat":"054.6269750000","lng":"-005.9088300000"},"fields":{"slug":"/section-directory-content/coach-hire/belfast-bus-company/"}}},{"node":{"frontmatter":{"title":"Causeway Coach and Minibus Hire","category":"Coach Hire","county":"Antrim","type":"Content","excerpt":null,"address":"6, Drumvale Rd, Bendooragh, Ballymoney, Co. Antrim BT53 7TD","tel":"028 2766 8792","images":null,"lat":"055.0486320000","lng":"-006.5531020000"},"fields":{"slug":"/section-directory-content/coach-hire/causeway-coach-and-minibus-hire/"}}},{"node":{"frontmatter":{"title":"Agnew Travel","category":"Coach Hire","county":"Armagh","type":"Content","excerpt":null,"address":"15, Tannaghmore North Rd, Lurgan, Craigavon, Co. Armagh BT67 9JA","tel":"028 3832 6755","images":null,"lat":"054.4819130000","lng":"-006.3417110000"},"fields":{"slug":"/section-directory-content/coach-hire/agnew-travel/"}}},{"node":{"frontmatter":{"title":"Corporate Coaching","category":"Coach Hire","county":"Antrim","type":"Content","excerpt":null,"address":"Corporate Coaching, 58 Galdanagh Road, Ballymena, Antrim, BT44 9DB","tel":"+44 (0)28 276 5720","images":null,"lat":"55.01116180419922","lng":"-6.411159038543701"},"fields":{"slug":"/section-directory-content/coach-hire/corporate-coaching/"}}},{"node":{"frontmatter":{"title":"CFT International Coach Hire","category":"Coach Hire","county":"Antrim","type":"Content","excerpt":null,"address":"160A Glen Road, Belfast, Co. Antrim, BT11 8BN","tel":"028 90 603342","images":null,"lat":"054.5807700000","lng":"-005.9901800000"},"fields":{"slug":"/section-directory-content/coach-hire/cft-international-coach-hire/"}}},{"node":{"frontmatter":{"title":"Coastalbus","category":"Coach Hire","county":"Derry","type":"Content","excerpt":null,"address":"61 Maghera Street Kilrea, Coleraine, Co. Derry, BT51 5QL","tel":"+44 (0)28 2954 2490","images":null,"lat":"54.95136642456055","lng":"-6.557219982147217"},"fields":{"slug":"/section-directory-content/coach-hire/coastalbus/"}}},{"node":{"frontmatter":{"title":"Dick Martin Coaches","category":"Coach Hire","county":"Limerick","type":"Content","excerpt":null,"address":"Unit 7, Annacotty Business Park, Biddyford, Annacotty, Co. Limerick","tel":"+061 (0)353 333100","images":null,"lat":"52.664527893066406","lng":"-8.533197402954102"},"fields":{"slug":"/section-directory-content/coach-hire/dick-martin-coaches/"}}},{"node":{"frontmatter":{"title":"Dublin Mini Coaches and Chauffeur Drive","category":"Coach Hire","county":"Dublin","type":"Content","excerpt":null,"address":"Wasdale House Old Naas Road,, 14 Camac Park Old Naas Road, Dublin, Co. Dublin, Dublin 12","tel":"+353 (0)18 6178 0049","images":null,"lat":"53.33038330078125","lng":"-6.348361968994141"},"fields":{"slug":"/section-directory-content/coach-hire/dublin-mini-coaches-and-chauffeur-drive/"}}},{"node":{"frontmatter":{"title":"Donnelly Buses","category":"Coach Hire","county":"Tyrone","type":"Content","excerpt":null,"address":"33, Springwell Drive, Sixmilecross, Omagh, Co. Tyrone, BT79 0BS","tel":"028 8075 8716","images":null,"lat":"054.5482960000","lng":"-007.1649220000"},"fields":{"slug":"/section-directory-content/coach-hire/donnelly-buses/"}}},{"node":{"frontmatter":{"title":"Dualway Coaches","category":"Coach Hire","county":"Dublin","type":"Content","excerpt":null,"address":"Keatings Park, Rathcoole, Co. Dublin, South County","tel":"+353 (0)1 458 0054","images":null,"lat":"53.27522277832031","lng":"-6.486161708831787"},"fields":{"slug":"/section-directory-content/coach-hire/dualway-coaches/"}}},{"node":{"frontmatter":{"title":"Dundrum Coach Hire","category":"Coach Hire","county":"Dublin","type":"Content","excerpt":null,"address":"12 The Meadow, Woodpark, Ballinteer, Co. Dublin","tel":"+353 (0)12 98 1533","images":null,"lat":"53.27689743041992","lng":"-6.251312255859375"},"fields":{"slug":"/section-directory-content/coach-hire/dundrum-coach-hire/"}}},{"node":{"frontmatter":{"title":"Bernard Kavanagh Bus Coaches","category":"Coach Hire","county":"Kilkenny","type":"Content","excerpt":null,"address":"Bridge Garage, Urlingford, Co. Kilkenny","tel":"+353 (0)56 883 1189","images":null,"lat":"52.717899322509766","lng":"-7.600019931793213"},"fields":{"slug":"/section-directory-content/coach-hire/bernard-kavanagh-bus-coaches/"}}},{"node":{"frontmatter":{"title":"Easy Travel","category":"Coach Hire","county":"Derry","type":"Content","excerpt":null,"address":"23a Turnaface Road, Moneymore, Magherafelt, Co. Derry, BT45 7YP","tel":"02890 776688","images":null,"lat":"054.6937190000","lng":"-006.6839100000"},"fields":{"slug":"/section-directory-content/coach-hire/easy-travel/"}}},{"node":{"frontmatter":{"title":"Fona-Coach","category":"Coach Hire","county":"Antrim","type":"Content","excerpt":null,"address":"Twin Spires Complex, 155 Northumberland Street, Belfast, Co. Antrim, BT13 2JF","tel":"028 9023 6464","images":null,"lat":"054.6001110000","lng":"-005.9468580000"},"fields":{"slug":"/section-directory-content/coach-hire/fona-coach/"}}},{"node":{"frontmatter":{"title":"Charabanc Coaches","category":"Coach Hire","county":"Antrim","type":"Content","excerpt":null,"address":"8 Glenhurst Gardens, Newtownabbey, Co. Antrim, BT36 7JW","tel":"028 9028 7952","images":null,"lat":"054.6482310000","lng":"-005.9309210000"},"fields":{"slug":"/section-directory-content/coach-hire/charabanc-coaches/"}}},{"node":{"frontmatter":{"title":"Compass Coach Travel","category":"Coach Hire","county":"Down","type":"Content","excerpt":null,"address":"76, Cootehall Road, Crawfordsburn, Bangor, Co. Down, BT19 1UW","tel":"028 9185 2880","images":null,"lat":"054.6517050000","lng":"-005.7244360000"},"fields":{"slug":"/section-directory-content/coach-hire/compass-coach-travel/"}}},{"node":{"frontmatter":{"title":"Farrelly's Coaches","category":"Coach Hire","county":"Longford","type":"Content","excerpt":null,"address":"The Old Presbytery, Kenagh, Co. Longford","tel":"+353 (0)43 332 2222","images":null,"lat":"53.62329864501953","lng":"-7.813927173614502"},"fields":{"slug":"/section-directory-content/coach-hire/farrellys-coaches/"}}},{"node":{"frontmatter":{"title":"Cross Country Coaches Ltd","category":"Coach Hire","county":"Antrim","type":"Content","excerpt":null,"address":"31 Ballylintagh Road, Coleraine, Co. Antrim, BT51 3SP","tel":"02870 868989","images":null,"lat":"055.0680900000","lng":"-006.6578300000"},"fields":{"slug":"/section-directory-content/coach-hire/cross-country-coaches-ltd/"}}},{"node":{"frontmatter":{"title":"Britton's Coach Tours","category":"Coach Hire","county":"Tyrone","type":"Content","excerpt":null,"address":"21, Coolermoney Rd, Artigarvan, Strabane, Co. Tyrone BT82 0JX","tel":"028 7184 1815","images":null,"lat":"054.8721120000","lng":"-007.3975250000"},"fields":{"slug":"/section-directory-content/coach-hire/brittons-coach-tours/"}}},{"node":{"frontmatter":{"title":"Glynn's Coach Hire Ltd","category":"Coach Hire","county":"Clare","type":"Content","excerpt":null,"address":"Knockaderry, Tulla Road, Ennis, Co. Clare","tel":"+353 (0)65 682 8234","images":null,"lat":"52.84111404418945","lng":"-8.993844032287598"},"fields":{"slug":"/section-directory-content/coach-hire/glynns-coach-hire-ltd/"}}},{"node":{"frontmatter":{"title":"JJ Kavanagh Coach Hire Service","category":"Coach Hire","county":"Kilkenny","type":"Content","excerpt":null,"address":"Main Street, Urlingford, Co. Kilkenny","tel":"+353 (0)56 883 1106","images":null,"lat":"52.717899322509766","lng":"-7.59987211227417"},"fields":{"slug":"/section-directory-content/coach-hire/jj-kavanagh-coach-hire-service/"}}},{"node":{"frontmatter":{"title":"Fone-a-Coach","category":"Coach Hire","county":"Antrim","type":"Content","excerpt":null,"address":"Twin Spires Complex, 155, Northumberland St, Belfast, Co. Antrim BT13 2JF","tel":"028 9023 6464","images":null,"lat":"54.600111","lng":"-5.946858"},"fields":{"slug":"/section-directory-content/coach-hire/fone-a-coach/"}}},{"node":{"frontmatter":{"title":"J O'Callaghan and Sons","category":"Coach Hire","county":"Kerry","type":"Content","excerpt":null,"address":"Rockfield, Tralee Road, Killarney, Co. Kerry","tel":"+353 (0)64 663 1095","images":null,"lat":"52.08974075317383","lng":"-9.513821601867676"},"fields":{"slug":"/section-directory-content/coach-hire/j-ocallaghan-and-sons/"}}},{"node":{"frontmatter":{"title":"Executive Travel Coach Hire","category":"Coach Hire","county":"Derry","type":"Content","excerpt":null,"address":"Executive Travel Coach Hire, 22 Daisyhill Park, Derry, BT48 8EZ","tel":"+44 (0)28 7135 4013","images":null,"lat":"54.9918098449707","lng":"-7.320168972015381"},"fields":{"slug":"/section-directory-content/coach-hire/executive-travel-coach-hire/"}}},{"node":{"frontmatter":{"title":"Joe Moroney Coaches","category":"Coach Hire","county":"Wicklow","type":"Content","excerpt":null,"address":"Oldcourt Industrial Estate, Boghall Road, Bray, Co. Wicklow","tel":"+353 (0)27 61 466","images":null,"lat":"53.19985580444336","lng":"-6.104969501495361"},"fields":{"slug":"/section-directory-content/coach-hire/joe-moroney-coaches/"}}},{"node":{"frontmatter":{"title":"Johnston's Hackney and Mini Bus Hire","category":"Coach Hire","county":"Tipperary","type":"Content","excerpt":null,"address":"43/44 Patricks St Templemore Co. Tipperary","tel":"(087)8191818","images":null,"lat":"52.79374542","lng":"-7.84339176"},"fields":{"slug":"/section-directory-content/coach-hire/johnstons-hackney-and-mini-bus-hire/"}}},{"node":{"frontmatter":{"title":"John McGinley Coaches","category":"Coach Hire","county":"Donegal","type":"Content","excerpt":null,"address":"Luxury Coach Trave;, Magheroarty, Gortahork, Co. Donegal","tel":"+353 (0)74 913 5201","images":null,"lat":"55.11775207519531","lng":"-8.137836456298828"},"fields":{"slug":"/section-directory-content/coach-hire/john-mcginley-coaches/"}}},{"node":{"frontmatter":{"title":"J. O'Callaghan and Son Luxury Transport Service","category":"Coach Hire","county":"Kerry","type":"Content","excerpt":null,"address":"Rockfield Tralee rd Killarney Co. Kerry","tel":"(064)6631095","images":null,"lat":"52.1005501","lng":"-9.518329014"},"fields":{"slug":"/section-directory-content/coach-hire/j-ocallaghan-and-son-luxury-transport-service/"}}},{"node":{"frontmatter":{"title":"Joe Lawlor Coach and Minibus Service","category":"Coach Hire","county":"Limerick","type":"Content","excerpt":null,"address":"The Old Hurling Field, Fedamore, Co. Limerick","tel":"+353 (0)61 39 0080","images":null,"lat":"52.54563522338867","lng":"-8.603144645690918"},"fields":{"slug":"/section-directory-content/coach-hire/joe-lawlor-coach-and-minibus-service/"}}},{"node":{"frontmatter":{"title":"Highwayman Executive Travel","category":"Coach Hire","county":"Down","type":"Content","excerpt":null,"address":"55 Bannanstown Road, Castlewellan, Co. Down, BT31 9BQ","tel":"07718 909635","images":null,"lat":"054.2770340000","lng":"-005.9787170000"},"fields":{"slug":"/section-directory-content/coach-hire/highwayman-executive-travel/"}}},{"node":{"frontmatter":{"title":"McComb's Executive Travel and Tours","category":"Coach Hire","county":"Antrim","type":"Content","excerpt":null,"address":"First Floor, Unit C, Loughside Industrial Estate, Dargan Cresent, Belfast, Co. Antrim, BT3 9JP","tel":"028 9077 7440","images":null,"lat":"054.6269750000","lng":"-005.9088300000"},"fields":{"slug":"/section-directory-content/coach-hire/mccombs-executive-travel-and-tours/"}}},{"node":{"frontmatter":{"title":"Liberty Tours","category":"Coach Hire","county":"Derry","type":"Content","excerpt":null,"address":"Liberty Tours, 69 Carlisle Road, Derry, Co. Derry, BT48 6JL","tel":"+44 (0)28 7130 8769","images":null,"lat":"54.9918098449707","lng":"-7.320168972015381"},"fields":{"slug":"/section-directory-content/coach-hire/liberty-tours/"}}},{"node":{"frontmatter":{"title":"Irish Coaches","category":"Coach Hire","county":"Dublin","type":"Content","excerpt":null,"address":"Ulster Bank Chambers, 2 / 5 Lower O'Connell Street, Dublin City Centre, Co. Dublin, 1","tel":"+353 (0)18 78 8898","images":null,"lat":"53.3478889465332","lng":"-6.258948802947998"},"fields":{"slug":"/section-directory-content/coach-hire/irish-coaches/"}}},{"node":{"frontmatter":{"title":"McMillan Travel Luxury Coach and Mini Bus Hire","category":"Coach Hire","county":"Antrim","type":"Content","excerpt":null,"address":"12 Mullan Road, Ballymoney, Co. Antrim, BT53 7ED","tel":"+44 (0)28 2766 6989","images":null,"lat":"55.02193832397461","lng":"-6.489933967590332"},"fields":{"slug":"/section-directory-content/coach-hire/mcmillan-travel-luxury-coach-and-mini-bus-hire/"}}},{"node":{"frontmatter":{"title":"Malahide Coaches","category":"Coach Hire","county":"Dublin","type":"Content","excerpt":null,"address":"Saint Joseph's, Coast Road, Malahide, Co. Dublin","tel":"+353 (0)18 45 3809","images":null,"lat":"53.450225830078125","lng":"-6.151220798492432"},"fields":{"slug":"/section-directory-content/coach-hire/malahide-coaches/"}}},{"node":{"frontmatter":{"title":"Patrick McElligott and Sons","category":"Coach Hire","county":"Limerick","type":"Content","excerpt":null,"address":"Clarina Cross, Clarina, Co. Limerick","tel":"+353 (0)61 35 3477","images":null,"lat":"52.632564544677734","lng":"-8.729514122009277"},"fields":{"slug":"/section-directory-content/coach-hire/patrick-mcelligott-and-sons/"}}},{"node":{"frontmatter":{"title":"PK Travel","category":"Coach Hire","county":"Clare","type":"Content","excerpt":null,"address":"PK Services Complex, Shannon Airport, Shannon, Co. Clare","tel":"+353 (0)61 47 1111","images":null,"lat":"52.815269470214844","lng":"-8.968708038330078"},"fields":{"slug":"/section-directory-content/coach-hire/pk-travel/"}}},{"node":{"frontmatter":{"title":"Kirkwood Coaches","category":"Coach Hire","county":"Antrim","type":"Content","excerpt":null,"address":"Ballykeel Business Centre, 18, Crebilly Rd, Ballymena, Co. Antrim BT42 4DN","tel":"028 2565 4400","images":null,"lat":"54.858476","lng":"-6.25817"},"fields":{"slug":"/section-directory-content/coach-hire/kirkwood-coaches/"}}},{"node":{"frontmatter":{"title":"MILLENNIUM INTERNATIONAL TRAVEL","category":"Coach Hire","county":"Derry","type":"Content","excerpt":null,"address":"86, Springhill Rd, Moneymore, Magherafelt, Co. Derry BT45 7NN","tel":"028 86440959","images":null,"lat":"054.6583050000","lng":"-006.6312600000"},"fields":{"slug":"/section-directory-content/coach-hire/millennium-international-travel/"}}},{"node":{"frontmatter":{"title":"Mangan Tours","category":"Coach Hire","county":"Donegal","type":"Content","excerpt":null,"address":"Crossview House, Port Road, Letterkenny, Co. Donegal","tel":"+353 (0)74 912 8410","images":null,"lat":"54.95115661621094","lng":"-7.736715793609619"},"fields":{"slug":"/section-directory-content/coach-hire/mangan-tours/"}}},{"node":{"frontmatter":{"title":"TM Coach Hire","category":"Coach Hire","county":"Antrim","type":"Content","excerpt":null,"address":"Unit 10, Dunmurry Industrial Estate, Dunmurry, Belfast, Co. Antrim BT17 9HU","tel":"028 9061 6666","images":null,"lat":"55.127949","lng":"-6.556778"},"fields":{"slug":"/section-directory-content/coach-hire/tm-coach-hire/"}}},{"node":{"frontmatter":{"title":"O'Halloran Michael Minibus and Taxi Services","category":"Coach Hire","county":"Leitrim","type":"Content","excerpt":null,"address":"Summerhill Carrick-on-Shannon Co. Leitrim","tel":"(071)9620015","images":null,"lat":"53.94782295","lng":"-8.085154114"},"fields":{"slug":"/section-directory-content/coach-hire/ohalloran-michael-minibus-and-taxi-services/"}}},{"node":{"frontmatter":{"title":"McDermott Coach Hire","category":"Coach Hire","county":"Antrim","type":"Content","excerpt":null,"address":"McDermott Coach Hire, 20B Cloughey Road Portaferry, Newtownards, Co. Antrim, BT22 1ND","tel":"+44 (0)28 4272 8482","images":null,"lat":"54.38707733154297","lng":"-5.533245086669922"},"fields":{"slug":"/section-directory-content/coach-hire/mcdermott-coach-hire/"}}},{"node":{"frontmatter":{"title":"Galvin's Coaches Dunmanway Ltd.","category":"Coach Hire","county":"Cork","type":"Content","excerpt":null,"address":"Main Street, Dunmanway, Co. Cork","tel":"+353 (0)23 884 5125","images":null,"lat":"51.72349166870117","lng":"-9.108954429626465"},"fields":{"slug":"/section-directory-content/coach-hire/galvins-coaches-dunmanway-ltd/"}}},{"node":{"frontmatter":{"title":"Dot 2 Dot","category":"Coach Hire","county":"Antrim","type":"Content","excerpt":null,"address":"Unit 25 Glenwood Business Centre, Dunmurry, Belfast, Co. Antrim, BT17 0QL","tel":"028 9043 1890","images":null,"lat":"054.5703720000","lng":"-006.0352900000"},"fields":{"slug":"/section-directory-content/coach-hire/dot-2-dot/"}}},{"node":{"frontmatter":{"title":"MELVIN COACH HIRE","category":"Coach Hire","county":"Fermanagh","type":"Content","excerpt":null,"address":"86, Melvin Rd, Garrison, Enniskillen, Co. Fermanagh BT93 4FB","tel":"028 6865 8109","images":null,"lat":"054.4439750000","lng":"-008.1422300000"},"fields":{"slug":"/section-directory-content/coach-hire/melvin-coach-hire/"}}},{"node":{"frontmatter":{"title":"Suirway Bus and Coach Service","category":"Coach Hire","county":"Waterford","type":"Content","excerpt":null,"address":"Suirway Bus and Coach Service Ltd, Offices at Passage East, Passage East, Co. Waterford","tel":"+353 (0)51 38 2209","images":null,"lat":"52.26154327392578","lng":"-7.121082782745361"},"fields":{"slug":"/section-directory-content/coach-hire/suirway-bus-and-coach-service/"}}}]}},"pageContext":{"isCreatedByStatefulCreatePages":false,"slug":"/section-directory/coach-hire/","category":"Coach Hire"}}}