{"componentChunkName":"component---src-templates-section-directory-js","path":"/section-directory/pike-angling/","webpackCompilationHash":"","result":{"data":{"markdownRemark":{"html":"","frontmatter":{"category":"Pike Angling"}},"allMarkdownRemark":{"distinct":["Donegal","Dublin","Fermanagh","Galway","Leitrim","Limerick","Roscommon","Westmeath"],"edges":[{"node":{"frontmatter":{"title":"Assaroe Lake","category":"Pike Angling","county":"Donegal","type":"Content","excerpt":null,"address":"Ballyshannon, Co. Donegal","tel":"+353 (0)71 985 1200","images":null,"lat":"54.493980407714844","lng":"-8.143418312072754"},"fields":{"slug":"/section-directory-content/pike-angling/assaroe-lake/"}}},{"node":{"frontmatter":{"title":"Lough Erne Resort Angling","category":"Pike Angling","county":"Fermanagh","type":"Content","excerpt":null,"address":"Lough Erne Resort, Belleek Road, Enniskillen, Fermanagh, BT93 7ED","tel":"+44 (0)28 6632 3230","images":null,"lat":"54.346771240234375","lng":"-7.645120143890381"},"fields":{"slug":"/section-directory-content/pike-angling/lough-erne-resort-angling/"}}},{"node":{"frontmatter":{"title":"Corrib Angling Services","category":"Pike Angling","county":"Galway","type":"Content","excerpt":null,"address":"Mr Larry McCarthy, Glencorrib, Headford, Co. Galway","tel":"+353 (0)93 35 139","images":null,"lat":"53.47030258178711","lng":"-9.0983304977417"},"fields":{"slug":"/section-directory-content/pike-angling/corrib-angling-services/"}}},{"node":{"frontmatter":{"title":"Lough Ree","category":"Pike Angling","county":"Dublin","type":"Content","excerpt":null,"address":"The Central Fisheries Board, Unit 4, Swords Business Campus, Balheary Road, Swords, Dublin","tel":"+353 (0)1 8842 600","images":null,"lat":"53.51365280151367","lng":"-7.977115154266357"},"fields":{"slug":"/section-directory-content/pike-angling/lough-ree/"}}},{"node":{"frontmatter":{"title":"Pike Fishing Ireland","category":"Pike Angling","county":"Roscommon","type":"Content","excerpt":null,"address":"Mr Alastair Rawlings, Pike Fishing Ireland, Boyle, Roscommon","tel":"+353 (0)71 966 4962","images":null,"lat":"53.96666717529297","lng":"-8.300000190734863"},"fields":{"slug":"/section-directory-content/pike-angling/pike-fishing-ireland/"}}},{"node":{"frontmatter":{"title":"Lough Allen","category":"Pike Angling","county":"Leitrim","type":"Content","excerpt":null,"address":"Carrick Road, Drumshanbo, Leitrim","tel":"+353 (0)71 964 1057","images":null,"lat":"54.04832458496094","lng":"-8.046109199523926"},"fields":{"slug":"/section-directory-content/pike-angling/lough-allen/"}}},{"node":{"frontmatter":{"title":"Lough Derravaragh","category":"Pike Angling","county":"Westmeath","type":"Content","excerpt":null,"address":"Mullingar Tourist Office, Mullingar, Co. Westmeath","tel":"+353 (0)44 934 8650","images":null,"lat":"53.65121841430664","lng":"-7.37468147277832"},"fields":{"slug":"/section-directory-content/pike-angling/lough-derravaragh/"}}},{"node":{"frontmatter":{"title":"River Fergus System and Lakes","category":"Pike Angling","county":"Limerick","type":"Content","excerpt":null,"address":"Shannon Regional Fisheries Board, Ashbourne Business Park Dock Road, Limerick, Co. Limerick","tel":"+353 (0)61 30 0238","images":null,"lat":"52.655372619628906","lng":"-8.651154518127441"},"fields":{"slug":"/section-directory-content/pike-angling/river-fergus-system-and-lakes/"}}},{"node":{"frontmatter":{"title":"Suck Valley Visitor Conference Centre and Riverside Cafe","category":"Pike Angling","county":"Roscommon","type":"Content","excerpt":null,"address":"Suck Valley Visitor Conference Centre and Riverside Cafe, Athleague, Co. Roscommon","tel":"+353 (0)90 666 3602","images":null,"lat":"53.56753158569336","lng":"-8.254749298095703"},"fields":{"slug":"/section-directory-content/pike-angling/suck-valley-visitor-conference-centre-and-riverside-cafe/"}}},{"node":{"frontmatter":{"title":"Sea Fishing John McLaughlin","category":"Pike Angling","county":"Donegal","type":"Content","excerpt":null,"address":"Inisowen Boating, Carrowmore, Culdaff, Donegal","tel":"+353 (0)74 937 0605","images":null,"lat":"55.276058197021484","lng":"-7.1669487953186035"},"fields":{"slug":"/section-directory-content/pike-angling/sea-fishing-john-mclaughlin/"}}},{"node":{"frontmatter":{"title":"Shannons Lough Derg Pike and Coarse fishery","category":"Pike Angling","county":"Limerick","type":"Content","excerpt":null,"address":"Shannon Regional Fisheries Board Ashbourne Business Park Dock Road Limerick City Ireland, Ashbourne Business Park, Limerick, Limerick","tel":"+353 (0)61 30 0238","images":null,"lat":"52.65628433227539","lng":"-8.652350425720215"},"fields":{"slug":"/section-directory-content/pike-angling/shannons-lough-derg-pike-and-coarse-fishery/"}}}]}},"pageContext":{"isCreatedByStatefulCreatePages":false,"slug":"/section-directory/pike-angling/","category":"Pike Angling"}}}