{"componentChunkName":"component---src-templates-section-directory-js","path":"/section-directory/churches-and-settlements/","webpackCompilationHash":"","result":{"data":{"markdownRemark":{"html":"","frontmatter":{"category":"Churches And Settlements"}},"allMarkdownRemark":{"distinct":["Antrim","Armagh","Derry","Down","Dublin","Galway","Kerry","Kildare","Laois","Limerick","Louth","Meath","Tipperary","Tyrone","Wicklow"],"edges":[{"node":{"frontmatter":{"title":"Baltinglass Abbey","category":"Churches And Settlements","county":"Wicklow","type":"Content","excerpt":null,"address":"For information contact your local Tourist Office, Baltinglass, Co. Wicklow","tel":"+353 (0)40 46 9117","images":null,"lat":"52.93704605102539","lng":"-6.720506191253662"},"fields":{"slug":"/section-directory-content/churches-and-settlements/baltinglass-abbey/"}}},{"node":{"frontmatter":{"title":"Arbour Hill Cemetery","category":"Churches And Settlements","county":"Dublin","type":"Content","excerpt":null,"address":"Arbour Hill, Stoneybatter, Dublin City Area West, Co. Dublin, Dublin 7","tel":"+353 (0)1 605 7700","images":null,"lat":"53.34952163696289","lng":"-6.2858991622924805"},"fields":{"slug":"/section-directory-content/churches-and-settlements/arbour-hill-cemetery/"}}},{"node":{"frontmatter":{"title":"Belfast Cathedral  St Annes Cathedral","category":"Churches And Settlements","county":"Antrim","type":"Content","excerpt":null,"address":"Church of Ireland Donegall Street, Belfast, Co. Antrim, BT1 2HB","tel":"+44 (0)28 9032 8332","images":null,"lat":"54.59572982788086","lng":"-5.936308860778809"},"fields":{"slug":"/section-directory-content/churches-and-settlements/belfast-cathedral-st-annes-cathedral/"}}},{"node":{"frontmatter":{"title":"Bangor Church Of Christ","category":"Churches And Settlements","county":"Down","type":"Content","excerpt":null,"address":"Signal Business Centre, 2, Innotec Drive, Baloo Road, Bangor, Co. Down, BT19 7PD","tel":"028 9146 5540","images":null,"lat":"054.6407680000","lng":"-005.6760100000"},"fields":{"slug":"/section-directory-content/churches-and-settlements/bangor-church-of-christ/"}}},{"node":{"frontmatter":{"title":"Castlereagh Presbyterian Church","category":"Churches And Settlements","county":"Antrim","type":"Content","excerpt":null,"address":"Castlereagh Presbyterian Church, 79 Church Road Castlereagh, Belfast, Co. Antrim, BT6 9SA","tel":"+44 (0)28 9024 6609","images":null,"lat":"54.59572982788086","lng":"-5.936308860778809"},"fields":{"slug":"/section-directory-content/churches-and-settlements/castlereagh-presbyterian-church/"}}},{"node":{"frontmatter":{"title":"Carmelite Fathers Termonbacca","category":"Churches And Settlements","county":"Derry","type":"Content","excerpt":null,"address":"The Carmelite Retreat Centre, Termonbacca, Southway, Derry, BT48 9XE","tel":"028 7122 2193","images":null,"lat":"054.9798520000","lng":"-007.3728100000"},"fields":{"slug":"/section-directory-content/churches-and-settlements/carmelite-fathers-termonbacca/"}}},{"node":{"frontmatter":{"title":"Covenanters Memorial Free Presbyterian Church","category":"Churches And Settlements","county":"Tyrone","type":"Content","excerpt":null,"address":"292, Melmount Rd, Victoria Bridge, Strabane, Co. Tyrone BT82 9JG","tel":"028 8165 8506","images":null,"lat":"54.755478","lng":"-7.449539"},"fields":{"slug":"/section-directory-content/churches-and-settlements/covenanters-memorial-free-presbyterian-church/"}}},{"node":{"frontmatter":{"title":"Edgehill Theological College","category":"Churches And Settlements","county":"Antrim","type":"Content","excerpt":null,"address":"Edgehill Theological College, 9 Lennoxvale, Belfast, Antrim, BT9 5BY","tel":"+44 (0)28 9066 5870","images":null,"lat":"54.59572982788086","lng":"-5.936308860778809"},"fields":{"slug":"/section-directory-content/churches-and-settlements/edgehill-theological-college/"}}},{"node":{"frontmatter":{"title":"Castle Rheban","category":"Churches And Settlements","county":"Kildare","type":"Content","excerpt":null,"address":"For further information, contact your local Tourist Office, Athy, Co. Kildare","tel":"+353 (0)45 52 1240","images":null,"lat":"53.011051177978516","lng":"-7.001674175262451"},"fields":{"slug":"/section-directory-content/churches-and-settlements/castle-rheban/"}}},{"node":{"frontmatter":{"title":"Cranfield Church And Holy Well","category":"Churches And Settlements","county":"Antrim","type":"Content","excerpt":null,"address":"Cranfield Church And Holy Well, Churchtown Point Cranfield Road Cranfield, Randalstown, Co. Antrim","tel":"NOVAL","images":null,"lat":"54.7049446105957","lng":"-6.368021488189697"},"fields":{"slug":"/section-directory-content/churches-and-settlements/cranfield-church-and-holy-well/"}}},{"node":{"frontmatter":{"title":"Dromore Cathedral (Church of Ireland)","category":"Churches And Settlements","county":"Down","type":"Content","excerpt":null,"address":"Banbridge Gateway Tourist Information Centre, FE McWilliam Gallery and Studio 200 Newry Road, Banbridge, Down, BT32 3NB","tel":"+44 (0)28 4062 3322","images":null,"lat":"54.41469955444336","lng":"-6.149199962615967"},"fields":{"slug":"/section-directory-content/churches-and-settlements/dromore-cathedral-church-of-ireland/"}}},{"node":{"frontmatter":{"title":"Cathedral of St. Patrick and St. Colman","category":"Churches And Settlements","county":"Down","type":"Content","excerpt":null,"address":"Saint Patricks and Saint Colmans, Hill Street, Newry, Down, BT34 1JE","tel":"NOVAL","images":null,"lat":"54.17401123046875","lng":"-6.338120937347412"},"fields":{"slug":"/section-directory-content/churches-and-settlements/cathedral-of-st-patrick-and-st-colman/"}}},{"node":{"frontmatter":{"title":"First Presbyterian Church","category":"Churches And Settlements","county":"Tyrone","type":"Content","excerpt":null,"address":"First Presbyterian Church, Dublin Road, Omagh, Tyrone, BT78 1TT","tel":"+44 (0)28 8224 7831","images":null,"lat":"54.589942932128906","lng":"-7.291532039642334"},"fields":{"slug":"/section-directory-content/churches-and-settlements/first-presbyterian-church/"}}},{"node":{"frontmatter":{"title":"Killevy (Killeavy) Old Churches","category":"Churches And Settlements","county":"Down","type":"Content","excerpt":null,"address":"Newry Tourist Information Centre, Bagenal's Castle Castle Street, Newry, Co. Down, BT34 2DA","tel":"+44 (0)28 3031 3170","images":null,"lat":"54.13569259643555","lng":"-6.407581329345703"},"fields":{"slug":"/section-directory-content/churches-and-settlements/killevy-killeavy-old-churches/"}}},{"node":{"frontmatter":{"title":"First Derry Presbyterian Church","category":"Churches And Settlements","county":"Derry","type":"Content","excerpt":null,"address":"First Derry Presbyterian Church, Upper Magazine Street, Derry, Derry, BT48 6HH","tel":"+44 (0)28 7126 1550","images":null,"lat":"54.996910095214844","lng":"-7.321229457855225"},"fields":{"slug":"/section-directory-content/churches-and-settlements/first-derry-presbyterian-church/"}}},{"node":{"frontmatter":{"title":"Kilwarlin Moravian Church","category":"Churches And Settlements","county":"Down","type":"Content","excerpt":null,"address":"Kilwarlin Moravian Church, Kilwarlin Road, Hillsborough, Down, BT26 6DZ","tel":"+44 (0)28 9268 9717","images":null,"lat":"54.466041564941406","lng":"-6.128857135772705"},"fields":{"slug":"/section-directory-content/churches-and-settlements/kilwarlin-moravian-church/"}}},{"node":{"frontmatter":{"title":"Na Seacht Teampaill","category":"Churches And Settlements","county":"Galway","type":"Content","excerpt":null,"address":"Tourist Information Office, Kilronan, Inis M??r, Aran Islands,, Co. Galway","tel":"+353 (0)99 61 263","images":null,"lat":"53.12818145751953","lng":"-9.686467170715332"},"fields":{"slug":"/section-directory-content/churches-and-settlements/na-seacht-teampaill/"}}},{"node":{"frontmatter":{"title":"Down Cathedral and Saint Patricks Grave","category":"Churches And Settlements","county":"Down","type":"Content","excerpt":null,"address":"English Street, Downpatrick, Co. Down, BT30 6AB","tel":"+44 (0)28 4461 4922","images":null,"lat":"54.328590393066406","lng":"-5.718432903289795"},"fields":{"slug":"/section-directory-content/churches-and-settlements/down-cathedral-and-saint-patricks-grave/"}}},{"node":{"frontmatter":{"title":"Omagh Methodist Church","category":"Churches And Settlements","county":"Tyrone","type":"Content","excerpt":null,"address":"Omagh Methodist Church, Church Street, Omagh, Tyrone, BT78 1DG","tel":"+44 (0)28 8224 7831","images":null,"lat":"54.60166931152344","lng":"-7.300020217895508"},"fields":{"slug":"/section-directory-content/churches-and-settlements/omagh-methodist-church/"}}},{"node":{"frontmatter":{"title":"Free Presbyterian Church Mission Board","category":"Churches And Settlements","county":"Down","type":"Content","excerpt":null,"address":"3, Kilkeel Free Presbyterian Church, Carrigenagh Rd, Kilkeel, Newry, Co. Down BT34 4NE","tel":"028 4176 5574","images":null,"lat":"54.07085","lng":"-5.99044"},"fields":{"slug":"/section-directory-content/churches-and-settlements/free-presbyterian-church-mission-board/"}}},{"node":{"frontmatter":{"title":"Relignaman Womens Graveyard Carrickmore","category":"Churches And Settlements","county":"Tyrone","type":"Content","excerpt":null,"address":"Relignaman Women???s Graveyard, Carrickmore, Omagh, Co. Tyrone","tel":"+44 (0)28 8076 1112","images":null,"lat":"54.60166931152344","lng":"-7.300020217895508"},"fields":{"slug":"/section-directory-content/churches-and-settlements/relignaman-womens-graveyard-carrickmore/"}}},{"node":{"frontmatter":{"title":"Saint Cronans Church Cross And Round Tower","category":"Churches And Settlements","county":"Limerick","type":"Content","excerpt":null,"address":"Tourist Information Office, Limerick, Co. Limerick","tel":"+353 (0)61 31 7522","images":null,"lat":"52.952491760253906","lng":"-7.805856704711914"},"fields":{"slug":"/section-directory-content/churches-and-settlements/saint-cronans-church-cross-and-round-tower/"}}},{"node":{"frontmatter":{"title":"Rock Of Dunamase","category":"Churches And Settlements","county":"Laois","type":"Content","excerpt":null,"address":"Portlaoise Tourist Office, James Fintan Lawlor Avenue, Portlaoise, Co. Laois","tel":"+353 (0)57 862 1178","images":null,"lat":"53.031097412109375","lng":"-7.299629211425781"},"fields":{"slug":"/section-directory-content/churches-and-settlements/rock-of-dunamase/"}}},{"node":{"frontmatter":{"title":"Saint Eugenes Cathedral","category":"Churches And Settlements","county":"Derry","type":"Content","excerpt":null,"address":"Saint Eugenes Cathedral, Creggan Street, Derry, Derry, BT48 9AP","tel":"+44 (0)28 7126 2894","images":null,"lat":"54.9918098449707","lng":"-7.320168972015381"},"fields":{"slug":"/section-directory-content/churches-and-settlements/saint-eugenes-cathedral/"}}},{"node":{"frontmatter":{"title":"Saint Malachys Church Coleraine","category":"Churches And Settlements","county":"Derry","type":"Content","excerpt":null,"address":"Saint Malachys Church Coleraine, 72 Nursery Avenue, Coleraine, Derry, BT52 1LR","tel":"NOVAL","images":null,"lat":"55.131710052490234","lng":"-6.6742401123046875"},"fields":{"slug":"/section-directory-content/churches-and-settlements/saint-malachys-church-coleraine/"}}},{"node":{"frontmatter":{"title":"Saint Columbs Cathedral","category":"Churches And Settlements","county":"Derry","type":"Content","excerpt":null,"address":"Saint Columb's Cathedral, London Street, Derry, Co. Derry, BT48 6RQ","tel":"+44 (0)28 7126 7313","images":null,"lat":"54.9918098449707","lng":"-7.320168972015381"},"fields":{"slug":"/section-directory-content/churches-and-settlements/saint-columbs-cathedral/"}}},{"node":{"frontmatter":{"title":"Roscrea Castle Church High Cross and Round Tower","category":"Churches And Settlements","county":"Tipperary","type":"Content","excerpt":null,"address":"Roscrea Heritage, Castle Street, Roscrea, Co. Tipperary","tel":"+353 (0)50 52 1850","images":null,"lat":"52.95527267456055","lng":"-7.797794818878174"},"fields":{"slug":"/section-directory-content/churches-and-settlements/roscrea-castle-church-high-cross-and-round-tower/"}}},{"node":{"frontmatter":{"title":"Saint Patricks Cathedral (Roman Catholic)","category":"Churches And Settlements","county":"Armagh","type":"Content","excerpt":null,"address":"Saint Patrick's Cathedral (Roman Catholic), Cathedral Road, Armagh, Armagh, BT61 8BE","tel":"+44 (0)28 3752 2802","images":null,"lat":"54.357051849365234","lng":"-6.679078102111816"},"fields":{"slug":"/section-directory-content/churches-and-settlements/saint-patricks-cathedral-roman-catholic/"}}},{"node":{"frontmatter":{"title":"Saint Marks Church","category":"Churches And Settlements","county":"Antrim","type":"Content","excerpt":null,"address":"Saint Mark's Church, St. Mark's Church (Church of Ireland) Holywood Road, Belfast, Co. Antrim, BT4 1SJ","tel":"+44 (0)28 9024 6609","images":null,"lat":"54.59572982788086","lng":"-5.936308860778809"},"fields":{"slug":"/section-directory-content/churches-and-settlements/saint-marks-church/"}}},{"node":{"frontmatter":{"title":"Saint Malachys Church","category":"Churches And Settlements","county":"Antrim","type":"Content","excerpt":null,"address":"Saint Malachys Church, Alfred Street, Belfast, Antrim, BT2 8EN","tel":"+44 (0)28 9024 6609","images":null,"lat":"54.59572982788086","lng":"-5.936308860778809"},"fields":{"slug":"/section-directory-content/churches-and-settlements/saint-malachys-church/"}}},{"node":{"frontmatter":{"title":"Saint Patricks Cathedral","category":"Churches And Settlements","county":"Armagh","type":"Content","excerpt":null,"address":"Saint Patrick's Church Of Ireland Cathedral, Cathedral Close, Armagh, Armagh","tel":"+44 (0)28 3752 3142","images":null,"lat":"54.34708023071289","lng":"-6.648488998413086"},"fields":{"slug":"/section-directory-content/churches-and-settlements/saint-patricks-cathedral/"}}},{"node":{"frontmatter":{"title":"Saint Marys Church Belfast","category":"Churches And Settlements","county":"Antrim","type":"Content","excerpt":null,"address":"Saint Mary's Church Belfast, Chapel Lane, Belfast, Antrim, BT1 1HH","tel":"+44 (0)28 9024 6609","images":null,"lat":"54.59572982788086","lng":"-5.936308860778809"},"fields":{"slug":"/section-directory-content/churches-and-settlements/saint-marys-church-belfast/"}}},{"node":{"frontmatter":{"title":"Saint Georges Church Of Ireland","category":"Churches And Settlements","county":"Antrim","type":"Content","excerpt":null,"address":"Saint Georges Church Of Ireland, High Street, Belfast, Antrim, BT1 2AG","tel":"+44 (0)28 9024 6609","images":null,"lat":"54.59572982788086","lng":"-5.936308860778809"},"fields":{"slug":"/section-directory-content/churches-and-settlements/saint-georges-church-of-ireland/"}}},{"node":{"frontmatter":{"title":"Saint Patricks Roman Catholic Church","category":"Churches And Settlements","county":"Down","type":"Content","excerpt":null,"address":"Saint Patricks Roman Catholic Church, Dromore Street, Banbridge, Down, BT32 4BS","tel":"+44 (0)28 4062 2274","images":null,"lat":"54.34701156616211","lng":"-6.2713189125061035"},"fields":{"slug":"/section-directory-content/churches-and-settlements/saint-patricks-roman-catholic-church/"}}},{"node":{"frontmatter":{"title":"Saint Patricks Church Castlederg","category":"Churches And Settlements","county":"Tyrone","type":"Content","excerpt":null,"address":"Saint Patricks Church Castlederg, Castlefin Road, Castlederg, Tyrone, BT81 7BT","tel":"NOVAL","images":null,"lat":"54.70301055908203","lng":"-7.5950188636779785"},"fields":{"slug":"/section-directory-content/churches-and-settlements/saint-patricks-church-castlederg/"}}},{"node":{"frontmatter":{"title":"Saint Marys Catholic Church Killarney","category":"Churches And Settlements","county":"Kerry","type":"Content","excerpt":null,"address":"Saint Mary's Cathedral, New Street, Killarney, Co. Kerry","tel":"+353 (0)64 663 1014","images":null,"lat":"52.058589935302734","lng":"-9.5131196975708"},"fields":{"slug":"/section-directory-content/churches-and-settlements/saint-marys-catholic-church-killarney/"}}},{"node":{"frontmatter":{"title":"Seventeenth Century Village At Eglinton","category":"Churches And Settlements","county":"Derry","type":"Content","excerpt":null,"address":"Seventeenth Century Village At Eglinton, Derry, Derry","tel":"+44 (0)28 7126 7284","images":null,"lat":"54.9918098449707","lng":"-7.320168972015381"},"fields":{"slug":"/section-directory-content/churches-and-settlements/seventeenth-century-village-at-eglinton/"}}},{"node":{"frontmatter":{"title":"St Patricks Cathedral","category":"Churches And Settlements","county":"Dublin","type":"Content","excerpt":null,"address":"St. Patrick's Close, Dublin City Area South, Co. Dublin, Dublin 8","tel":"+353 (0)1 475 4817","images":null,"lat":"53.33955001831055","lng":"-6.271945953369141"},"fields":{"slug":"/section-directory-content/churches-and-settlements/st-patricks-cathedral/"}}},{"node":{"frontmatter":{"title":"Bective Abbey","category":"Churches And Settlements","county":"Meath","type":"Content","excerpt":null,"address":"Newgrange Tourist Office, Bru na Boinne Interpretive Centre, Donore, Co. Meath","tel":"+353 (0)41 988 0305","images":null,"lat":"53.580074310302734","lng":"-6.6975884437561035"},"fields":{"slug":"/section-directory-content/churches-and-settlements/bective-abbey/"}}},{"node":{"frontmatter":{"title":"St Peters Church Drogheda","category":"Churches And Settlements","county":"Louth","type":"Content","excerpt":null,"address":"Further information from Drogheda Tourist Office, Mayoralty Street, Drogheda, Co. Louth","tel":"+353 (0)41 983 7070","images":null,"lat":"53.71599578857422","lng":"-6.357992172241211"},"fields":{"slug":"/section-directory-content/churches-and-settlements/st-peters-church-drogheda/"}}},{"node":{"frontmatter":{"title":"Saint Thomas Church","category":"Churches And Settlements","county":"Antrim","type":"Content","excerpt":null,"address":"Saint Thomass Church, Eglantine Avenue, Belfast, Antrim, BT9 6DW","tel":"+44 (0)28 9024 6609","images":null,"lat":"54.59572982788086","lng":"-5.936308860778809"},"fields":{"slug":"/section-directory-content/churches-and-settlements/saint-thomas-church/"}}},{"node":{"frontmatter":{"title":"The Black Church","category":"Churches And Settlements","county":"Dublin","type":"Content","excerpt":null,"address":"Dublin Tourism Information Centre, Suffolk Street, Co. Dublin, Dublin 2","tel":"+353 (0)1 605 7700","images":null,"lat":"53.35459899902344","lng":"-6.268032073974609"},"fields":{"slug":"/section-directory-content/churches-and-settlements/the-black-church/"}}},{"node":{"frontmatter":{"title":"Saint Marys Parish Church","category":"Churches And Settlements","county":"Down","type":"Content","excerpt":null,"address":"Saint Marys Parish Church, Hill Street, Newry, Down, BT34 1JE","tel":"+44 (0)28 3026 8877","images":null,"lat":"54.17401123046875","lng":"-6.338120937347412"},"fields":{"slug":"/section-directory-content/churches-and-settlements/saint-marys-parish-church/"}}},{"node":{"frontmatter":{"title":"Stormont Presbyterian Church","category":"Churches And Settlements","county":"Antrim","type":"Content","excerpt":null,"address":"Stormont Presbyterian Church, 618 Upper Newtownards Road, Belfast, Antrim, BT4 3HA","tel":"+44 (0)28 9024 6609","images":null,"lat":"54.59572982788086","lng":"-5.936308860778809"},"fields":{"slug":"/section-directory-content/churches-and-settlements/stormont-presbyterian-church/"}}},{"node":{"frontmatter":{"title":"The Apostolic Church Belfast","category":"Churches And Settlements","county":"Antrim","type":"Content","excerpt":null,"address":"The Apostolic Church, Belfast, 113 Great Victoria Street, Belfast, Co. Antrim, BT2 7AH","tel":"+44 (0)28 9058 3113","images":null,"lat":"54.59572982788086","lng":"-5.936308860778809"},"fields":{"slug":"/section-directory-content/churches-and-settlements/the-apostolic-church-belfast/"}}},{"node":{"frontmatter":{"title":"The Oratory Dun Laoghaire","category":"Churches And Settlements","county":"Dublin","type":"Content","excerpt":null,"address":"Mr Fenton Mc Carthy, Development Department Dun Laoghaire/Rathdown Co. Council, Marine Road, Co. Dublin, Dun Laoghaire","tel":"+353 (0)1 205 4700","images":null,"lat":"53.29220199584961","lng":"-6.138117790222168"},"fields":{"slug":"/section-directory-content/churches-and-settlements/the-oratory-dun-laoghaire/"}}},{"node":{"frontmatter":{"title":"University Church Our Lady Seat of Wisdom","category":"Churches And Settlements","county":"Dublin","type":"Content","excerpt":null,"address":"87A St. Stephen???s Green, Dublin City Centre, Co. Dublin, D2","tel":"+353 (0)14 78 0616","images":null,"lat":"53.33000183105469","lng":"-6.25"},"fields":{"slug":"/section-directory-content/churches-and-settlements/university-church-our-lady-seat-of-wisdom/"}}},{"node":{"frontmatter":{"title":"The World Mission and Development Office Methodist Church in Ireland","category":"Churches And Settlements","county":"Antrim","type":"Content","excerpt":null,"address":"Aldersgate House, University Rd, Belfast, Co. Antrim BT7 1NA","tel":"028 9032 0078","images":null,"lat":"54.587475","lng":"-5.93661"},"fields":{"slug":"/section-directory-content/churches-and-settlements/the-world-mission-and-development-office-methodist-church-in-ireland/"}}},{"node":{"frontmatter":{"title":"Whitefriar Street Church","category":"Churches And Settlements","county":"Dublin","type":"Content","excerpt":null,"address":"Whitefriars Street, 56 Aungier Street, Dublin City Centre, Dublin, Dublin 2","tel":"+353 (0)1 475 8821","images":null,"lat":"53.3397216796875","lng":"-6.266308784484863"},"fields":{"slug":"/section-directory-content/churches-and-settlements/whitefriar-street-church/"}}},{"node":{"frontmatter":{"title":"Saint Nicholas Church Carrickfergus","category":"Churches And Settlements","county":"Antrim","type":"Content","excerpt":null,"address":"Saint Nicholas Church Carrickfergus, Market Place, Carrickfergus, Co. Antrim, BT38 7AW","tel":"+44 (0)28 9336 0061","images":null,"lat":"54.715145111083984","lng":"-5.805984973907471"},"fields":{"slug":"/section-directory-content/churches-and-settlements/saint-nicholas-church-carrickfergus/"}}}]}},"pageContext":{"isCreatedByStatefulCreatePages":false,"slug":"/section-directory/churches-and-settlements/","category":"Churches And Settlements"}}}