{"componentChunkName":"component---src-templates-section-directory-js","path":"/section-directory/go-karting/","webpackCompilationHash":"","result":{"data":{"markdownRemark":{"html":"","frontmatter":{"category":"Go Karting"}},"allMarkdownRemark":{"distinct":["Antrim","Armagh","Cork","Derry","Donegal","Down","Dublin","Galway","Kildare","Kilkenny","Limerick","Tipperary","Tyrone","Westmeath"],"edges":[{"node":{"frontmatter":{"title":"Athboy Karting Centre","category":"Go Karting","county":"Westmeath","type":"Content","excerpt":null,"address":"(3 miles from Athboy) Delvin rd Co. Westmeath Co. Westmeath","tel":"(046)9430503","images":null,"lat":"53.61609847","lng":"-6.987205191"},"fields":{"slug":"/section-directory-content/go-karting/athboy-karting-centre/"}}},{"node":{"frontmatter":{"title":"Adventure Tours Northern Ireland","category":"Go Karting","county":"Tyrone","type":"Content","excerpt":null,"address":"Adventure Tours Northern Ireland, 5 Urbalreagh Road, Ardstraw, Co. Tyrone, BT78 4LR","tel":"+44 (0)79 7163 9932","images":null,"lat":"54.7354736328125","lng":"-7.457810878753662"},"fields":{"slug":"/section-directory-content/go-karting/adventure-tours-northern-ireland/"}}},{"node":{"frontmatter":{"title":"Alltrak Rallysport","category":"Go Karting","county":"Armagh","type":"Content","excerpt":null,"address":"61, Mullantine Rd, Portadown, Craigavon, Co. Armagh BT62 4EJ","tel":"028 3833 1919","images":null,"lat":"054.4076040000","lng":"-006.4748610000"},"fields":{"slug":"/section-directory-content/go-karting/alltrak-rallysport/"}}},{"node":{"frontmatter":{"title":"Athboy Karting","category":"Go Karting","county":"Westmeath","type":"Content","excerpt":null,"address":"Addinstown, Delvin, Co. Westmeath","tel":"046 943 0503","images":null,"lat":"53.62028884887695","lng":"-6.991244792938232"},"fields":{"slug":"/section-directory-content/go-karting/athboy-karting/"}}},{"node":{"frontmatter":{"title":"Adrenalin Karting","category":"Go Karting","county":"Antrim","type":"Content","excerpt":null,"address":"Unit 1 Newtownbreda Factory Estate Cedarhurst Road, Belfast, Co. Antrim, BT8 7RH","tel":"+44 (0)28 9064 4654","images":null,"lat":"54.548545837402344","lng":"-5.913650989532471"},"fields":{"slug":"/section-directory-content/go-karting/adrenalin-karting/"}}},{"node":{"frontmatter":{"title":"Buggy World","category":"Go Karting","county":"Kildare","type":"Content","excerpt":null,"address":"Farmersvale, Kill, Co. Kildare","tel":"+353 (0)87 777 9487","images":null,"lat":"53.25515365600586","lng":"-6.531773090362549"},"fields":{"slug":"/section-directory-content/go-karting/buggy-world/"}}},{"node":{"frontmatter":{"title":"Croom Cycles and Lawnmowers","category":"Go Karting","county":"Limerick","type":"Content","excerpt":null,"address":"Town Hall Croom Limerick Co. Limerick","tel":"(061)397211","images":null,"lat":"52.5198999","lng":"-8.717694163"},"fields":{"slug":"/section-directory-content/go-karting/croom-cycles-and-lawnmowers/"}}},{"node":{"frontmatter":{"title":"Bike Rack The","category":"Go Karting","county":"Dublin","type":"Content","excerpt":null,"address":"U9 Hills Hire Ctr Johnstown rd Cabinteely Co. Dublin","tel":"(01)2840609","images":null,"lat":"53.2656815","lng":"-6.148289025"},"fields":{"slug":"/section-directory-content/go-karting/bike-rack-the/"}}},{"node":{"frontmatter":{"title":"Ballynahatty Fast Track Karting Club","category":"Go Karting","county":"Tyrone","type":"Content","excerpt":null,"address":"Ballynahatty Fast Track Karting Club, 3 Edergole Avenue, Omagh, Tyrone","tel":"+44 (0)28 8224 4031","images":null,"lat":"54.60166931152344","lng":"-7.300020217895508"},"fields":{"slug":"/section-directory-content/go-karting/ballynahatty-fast-track-karting-club/"}}},{"node":{"frontmatter":{"title":"Europower Battery Centre","category":"Go Karting","county":"Dublin","type":"Content","excerpt":null,"address":"Unit 31 Tolka Valley Business pk Glasnevin 11 Co. Dublin","tel":"(01)8300884","images":null,"lat":"53.37486","lng":"-6.304235"},"fields":{"slug":"/section-directory-content/go-karting/europower-battery-centre/"}}},{"node":{"frontmatter":{"title":"Campsie Karting Centre","category":"Go Karting","county":"Derry","type":"Content","excerpt":null,"address":"Unit 12, McLean Road, Campsie Industrial Estate, Derry, BT47 3XX","tel":"02871 814 500","images":null,"lat":"055.0391000000","lng":"-007.1980900000"},"fields":{"slug":"/section-directory-content/go-karting/campsie-karting-centre/"}}},{"node":{"frontmatter":{"title":"E I Sports","category":"Go Karting","county":"Down","type":"Content","excerpt":null,"address":"41, Balloo Rd, Bangor, Co. Down BT19 7PG","tel":"028 9145 1457","images":null,"lat":"54.64067","lng":"-5.6587"},"fields":{"slug":"/section-directory-content/go-karting/e-i-sports/"}}},{"node":{"frontmatter":{"title":"Eddie Irvine Sports","category":"Go Karting","county":"Down","type":"Content","excerpt":null,"address":"41 Balloo Road, Bangor, Co. Down, BT19 7PG","tel":"+44 (0)28 9145 1457","images":null,"lat":"54.66252136230469","lng":"-5.6714301109313965"},"fields":{"slug":"/section-directory-content/go-karting/eddie-irvine-sports/"}}},{"node":{"frontmatter":{"title":"FORMULA KARTING","category":"Go Karting","county":"Down","type":"Content","excerpt":null,"address":"Unit 4, Greenbank Industrial Estate, Newry, Co. Down BT34 2QX","tel":"028 3026 6220","images":null,"lat":"54.156245","lng":"-6.32596"},"fields":{"slug":"/section-directory-content/go-karting/formula-karting/"}}},{"node":{"frontmatter":{"title":"Bridgefield Buggies Ltd.","category":"Go Karting","county":"Cork","type":"Content","excerpt":null,"address":"The Barn, Bridgefield, Castlemartyr, Co. Cork","tel":"+353 (0)21 466 7533","images":null,"lat":"51.9096794128418","lng":"-8.05882740020752"},"fields":{"slug":"/section-directory-content/go-karting/bridgefield-buggies-ltd/"}}},{"node":{"frontmatter":{"title":"Gerry Croffey Lawnmowers","category":"Go Karting","county":"Galway","type":"Content","excerpt":null,"address":"Killure Ahascragh Ballinasloe Co. Galway","tel":"(090)9688840","images":null,"lat":"53.36005","lng":"-8.30266"},"fields":{"slug":"/section-directory-content/go-karting/gerry-croffey-lawnmowers/"}}},{"node":{"frontmatter":{"title":"Indoor Karting Phibsboro","category":"Go Karting","county":"Dublin","type":"Content","excerpt":null,"address":"Cross Guns Bridge, Dublin City Area North, Dublin, Dublin 7","tel":"+353 (0)18 30 8777","images":null,"lat":"53.363609313964844","lng":"-6.269619464874268"},"fields":{"slug":"/section-directory-content/go-karting/indoor-karting-phibsboro/"}}},{"node":{"frontmatter":{"title":"Go Pro Kart Racing","category":"Go Karting","county":"Derry","type":"Content","excerpt":null,"address":"58, Movanagher Rd, Coleraine, Co. Derry BT51 5YJ","tel":"028 2954 1477","images":null,"lat":"54.97576","lng":"-6.55607"},"fields":{"slug":"/section-directory-content/go-karting/go-pro-kart-racing/"}}},{"node":{"frontmatter":{"title":"Gosford Karting","category":"Go Karting","county":"Armagh","type":"Content","excerpt":null,"address":"49, Dinnahorra Rd, Markethill, Armagh, Co. Armagh BT60 1RL","tel":"028 3755 1248","images":null,"lat":"54.285659","lng":"-6.48347"},"fields":{"slug":"/section-directory-content/go-karting/gosford-karting/"}}},{"node":{"frontmatter":{"title":"Kart-City Raceway","category":"Go Karting","county":"Dublin","type":"Content","excerpt":null,"address":"Old Airport Road Santry (just off M50) D 9 Co. Dublin","tel":"(01)8426144","images":null,"lat":"53.4014","lng":"-6.23914"},"fields":{"slug":"/section-directory-content/go-karting/kart-city-raceway/"}}},{"node":{"frontmatter":{"title":"Kart City Boyz Toys","category":"Go Karting","county":"Dublin","type":"Content","excerpt":null,"address":"Unit 1, Kart City, Old Airport Road (Swords Rd), Santry, Dublin 9","tel":"+353 (0)18 42 6322","images":null,"lat":"53.41078567504883","lng":"-6.243669509887695"},"fields":{"slug":"/section-directory-content/go-karting/kart-city-boyz-toys/"}}},{"node":{"frontmatter":{"title":"KartWorld Adventure Centre","category":"Go Karting","county":"Cork","type":"Content","excerpt":null,"address":"Watergrasshill, Co. Cork","tel":"+353 (0)21 488 9477","images":null,"lat":"52.008304595947266","lng":"-8.349356651306152"},"fields":{"slug":"/section-directory-content/go-karting/kartworld-adventure-centre/"}}},{"node":{"frontmatter":{"title":"J.W.Tools","category":"Go Karting","county":"Galway","type":"Content","excerpt":null,"address":"Unit 8 Oranmore Business Pk Galway Co. Galway","tel":"(091)795597","images":null,"lat":"53.27762","lng":"-8.93002"},"fields":{"slug":"/section-directory-content/go-karting/jwtools/"}}},{"node":{"frontmatter":{"title":"Castlefinn X-treme Karting","category":"Go Karting","county":"Donegal","type":"Content","excerpt":null,"address":"Sessiagh Long Castlefinn Co. Donegal","tel":"(074)9143774","images":null,"lat":"54.80708238","lng":"-7.589812078"},"fields":{"slug":"/section-directory-content/go-karting/castlefinn-x-treme-karting/"}}},{"node":{"frontmatter":{"title":"Kart Shop","category":"Go Karting","county":"Antrim","type":"Content","excerpt":null,"address":"308, Upper Ballynahinch Rd, Lisburn, Co. Antrim BT27 6XG","tel":"028 9263 8312","images":null,"lat":"54.474109","lng":"-6.00309"},"fields":{"slug":"/section-directory-content/go-karting/kart-shop/"}}},{"node":{"frontmatter":{"title":"Kylemore Indoor Karting","category":"Go Karting","county":"Dublin","type":"Content","excerpt":null,"address":"Unit 1A Kylemore Ind Est Killeen rd Dublin 10 Co. Dublin","tel":"(01)6261444","images":null,"lat":"53.3323","lng":"-6.35451"},"fields":{"slug":"/section-directory-content/go-karting/kylemore-indoor-karting/"}}},{"node":{"frontmatter":{"title":"Kilcornan Karting","category":"Go Karting","county":"Limerick","type":"Content","excerpt":null,"address":"Kilcornan, Co. Limerick","tel":"+353 (0)61 39 3728","images":null,"lat":"52.61874008178711","lng":"-8.877870559692383"},"fields":{"slug":"/section-directory-content/go-karting/kilcornan-karting/"}}},{"node":{"frontmatter":{"title":"Kiltorcan Raceway","category":"Go Karting","county":"Kilkenny","type":"Content","excerpt":null,"address":"Kiltorcan Ballyhale Co. Kilkenny Co. Kilkenny","tel":"(056)7768914","images":null,"lat":"52.463624","lng":"-7.182158"},"fields":{"slug":"/section-directory-content/go-karting/kiltorcan-raceway/"}}},{"node":{"frontmatter":{"title":"Kirkistown Motor Racing Circuit","category":"Go Karting","county":"Down","type":"Content","excerpt":null,"address":"Kirkistown Motor Racing Circuit, Rubane Road Kircubbin, Newtownards, Co. Down, BT22 1AU","tel":"+44 (0)28 4277 1325","images":null,"lat":"54.594329833984375","lng":"-5.70030403137207"},"fields":{"slug":"/section-directory-content/go-karting/kirkistown-motor-racing-circuit/"}}},{"node":{"frontmatter":{"title":"Letterkenny Karting Centre","category":"Go Karting","county":"Donegal","type":"Content","excerpt":null,"address":"Ballymaleel, Letterkenny, Donegal","tel":"+353 (0)74 912 9077","images":null,"lat":"54.98350143432617","lng":"-7.673422336578369"},"fields":{"slug":"/section-directory-content/go-karting/letterkenny-karting-centre/"}}},{"node":{"frontmatter":{"title":"M Sport Karting","category":"Go Karting","county":"Antrim","type":"Content","excerpt":null,"address":"54, Ballybogy Rd, Ballymoney, Co. Antrim BT53 6NY","tel":"07710 287242","images":null,"lat":"55.115256","lng":"-6.547034"},"fields":{"slug":"/section-directory-content/go-karting/m-sport-karting/"}}},{"node":{"frontmatter":{"title":"Pallas Karting","category":"Go Karting","county":"Galway","type":"Content","excerpt":null,"address":"Tynagh, Loughrea, Co. Galway","tel":"+353 (0)90 974 5147","images":null,"lat":"53.13285446166992","lng":"-8.355290412902832"},"fields":{"slug":"/section-directory-content/go-karting/pallas-karting/"}}},{"node":{"frontmatter":{"title":"Need For Speed Karting Limited","category":"Go Karting","county":"Antrim","type":"Content","excerpt":null,"address":"11 Kilbride Road, Doagh, Ballyclare, Co. Antrim, BT39 0QA","tel":"028 9334 2777","images":null,"lat":"054.7457430000","lng":"-006.0492820000"},"fields":{"slug":"/section-directory-content/go-karting/need-for-speed-karting-limited/"}}},{"node":{"frontmatter":{"title":"Puddenhill Activity Centre","category":"Go Karting","county":"Dublin","type":"Content","excerpt":null,"address":"Moorepark, Garristown, Co. Dublin / Meath","tel":"+353 (0)18 35 4444","images":null,"lat":"53.56586837768555","lng":"-6.378221035003662"},"fields":{"slug":"/section-directory-content/go-karting/puddenhill-activity-centre/"}}},{"node":{"frontmatter":{"title":"Need For Speed Karting","category":"Go Karting","county":"Antrim","type":"Content","excerpt":null,"address":"Speedway Indoor Karting, Unit 3-4 Doagh Business Pk 11 Kilbride Rd, Doagh, Co. Antrim, BT39 0QA","tel":"+44 (0)28 9334 2777","images":null,"lat":"54.74597930908203","lng":"-6.0509352684021"},"fields":{"slug":"/section-directory-content/go-karting/need-for-speed-karting/"}}},{"node":{"frontmatter":{"title":"Pollard Karting","category":"Go Karting","county":"Westmeath","type":"Content","excerpt":null,"address":"Mullengar Road Castlepollard Co. Westmeath","tel":"(044)9661674","images":null,"lat":"53.6768","lng":"-7.30272"},"fields":{"slug":"/section-directory-content/go-karting/pollard-karting/"}}},{"node":{"frontmatter":{"title":"GoProKart Racing","category":"Go Karting","county":"Derry","type":"Content","excerpt":null,"address":"GoProKart Racing, 58 Movanagher Road Kilrea, Coleraine, Co. Derry, BT51 5YJ","tel":"+44 (0)28 2954 1477","images":null,"lat":"54.974945068359375","lng":"-6.561493396759033"},"fields":{"slug":"/section-directory-content/go-karting/goprokart-racing/"}}},{"node":{"frontmatter":{"title":"Race School Ireland","category":"Go Karting","county":"Down","type":"Content","excerpt":null,"address":"Race School Ireland, 130 Rubane Road Kircubbin, Newtownards, Co. Down, BT22 1AU","tel":"+44 (0)28 9050 7010","images":null,"lat":"54.46803665161133","lng":"-5.495671272277832"},"fields":{"slug":"/section-directory-content/go-karting/race-school-ireland/"}}},{"node":{"frontmatter":{"title":"Race 4 Real","category":"Go Karting","county":"Antrim","type":"Content","excerpt":null,"address":"Unit 2a, Ballybrakes Rd, Ballymoney, Co. Antrim BT53 7PL","tel":"028 2766 3774","images":null,"lat":"55.064305","lng":"-6.5375"},"fields":{"slug":"/section-directory-content/go-karting/race-4-real/"}}},{"node":{"frontmatter":{"title":"Red Dragon Go-Karting","category":"Go Karting","county":"Antrim","type":"Content","excerpt":null,"address":"31, Woodvale Pass, Belfast, Co. Antrim BT13 3FN","tel":"07806 856293","images":null,"lat":"54.604958","lng":"-5.963997"},"fields":{"slug":"/section-directory-content/go-karting/red-dragon-go-karting/"}}},{"node":{"frontmatter":{"title":"Raceview Indoor Karting","category":"Go Karting","county":"Antrim","type":"Content","excerpt":null,"address":"Raceview Indoor Karting, 1 Woodside Road, Ballymena, Antrim, BT42 4HX","tel":"+44 (0)28 2565 1000","images":null,"lat":"54.87750244140625","lng":"-6.238974094390869"},"fields":{"slug":"/section-directory-content/go-karting/raceview-indoor-karting/"}}},{"node":{"frontmatter":{"title":"Tipperary Karting and Motorsports Centre","category":"Go Karting","county":"Tipperary","type":"Content","excerpt":null,"address":"Rosegreen Cashel Co. Tipperary","tel":"(062)62974","images":null,"lat":"52.46643672","lng":"-7.830015784"},"fields":{"slug":"/section-directory-content/go-karting/tipperary-karting-and-motorsports-centre/"}}},{"node":{"frontmatter":{"title":"Superdrive Motorsports Centre","category":"Go Karting","county":"Armagh","type":"Content","excerpt":null,"address":"Superdrive Motorsports Centre, Superdrive Motorsports Centre 7 Derryneskan Road, Craigavon, Co. Armagh, BT62 1UH","tel":"+44 (0)28 3885 2545","images":null,"lat":"54.47176742553711","lng":"-6.492785930633545"},"fields":{"slug":"/section-directory-content/go-karting/superdrive-motorsports-centre/"}}},{"node":{"frontmatter":{"title":"West of Ireland Driving School","category":"Go Karting","county":"Galway","type":"Content","excerpt":null,"address":"Tynagh Loughrea Co. Galway Co. Galway","tel":"(090)9745147","images":null,"lat":"53.13084114","lng":"-8.363813339"},"fields":{"slug":"/section-directory-content/go-karting/west-of-ireland-driving-school/"}}},{"node":{"frontmatter":{"title":"Raceview Karting","category":"Go Karting","county":"Antrim","type":"Content","excerpt":null,"address":"1, Woodside Rd Industrial Estate, Woodside Rd, Ballymena, Co. Antrim BT42 4QJ","tel":"028 2565 1000","images":null,"lat":"54.862892","lng":"-6.216565"},"fields":{"slug":"/section-directory-content/go-karting/raceview-karting/"}}},{"node":{"frontmatter":{"title":"SUPERDRIVE","category":"Go Karting","county":"Armagh","type":"Content","excerpt":null,"address":"7, Derryneskan Rd, Portadown, Craigavon, Co. Armagh BT62 1UH","tel":"028 3844 2880","images":null,"lat":"054.4719300000","lng":"-006.4927310000"},"fields":{"slug":"/section-directory-content/go-karting/superdrive/"}}},{"node":{"frontmatter":{"title":"Trabolgan Holiday and Visitor Attraction Centre","category":"Go Karting","county":"Cork","type":"Content","excerpt":null,"address":"Whitegate, Midleton, Co. Cork","tel":"+353 (0)21 466 1551","images":null,"lat":"51.80155944824219","lng":"-8.235557556152344"},"fields":{"slug":"/section-directory-content/go-karting/trabolgan-holiday-and-visitor-attraction-centre/"}}},{"node":{"frontmatter":{"title":"Kart-e-Quip","category":"Go Karting","county":"Antrim","type":"Content","excerpt":null,"address":"56a, Kilrea Rd, Portglenone, Ballymena, Co. Antrim BT44 8JB","tel":"028 2582 2397","images":null,"lat":"54.878","lng":"-6.50128"},"fields":{"slug":"/section-directory-content/go-karting/kart-e-quip/"}}}]}},"pageContext":{"isCreatedByStatefulCreatePages":false,"slug":"/section-directory/go-karting/","category":"Go Karting"}}}