{"componentChunkName":"component---src-templates-section-directory-js","path":"/section-directory/diving/","webpackCompilationHash":"","result":{"data":{"markdownRemark":{"html":"","frontmatter":{"category":"Diving"}},"allMarkdownRemark":{"distinct":["Antrim","Clare","Cork","Derry","Donegal","Down","Fermanagh","Galway","Kerry","Mayo","Sligo"],"edges":[{"node":{"frontmatter":{"title":"Aquaholics Dive Centre","category":"Diving","county":"Derry","type":"Content","excerpt":null,"address":"Aquaholics Dive Centre, 14 Portmore Road, Portstewart, Co. Derry, BT55 7BE","tel":"+44 (0)28 7083 2584","images":null,"lat":"55.183570861816406","lng":"-6.71859884262085"},"fields":{"slug":"/section-directory-content/diving/aquaholics-dive-centre/"}}},{"node":{"frontmatter":{"title":"Aquaventures","category":"Diving","county":"Cork","type":"Content","excerpt":null,"address":"Baltimore, Co. Cork","tel":"+353 (0)28 20 511","images":null,"lat":"51.479339599609375","lng":"-9.377132415771484"},"fields":{"slug":"/section-directory-content/diving/aquaventures/"}}},{"node":{"frontmatter":{"title":"Aquaholics","category":"Diving","county":"Derry","type":"Content","excerpt":null,"address":"14, Portmore Rd, Portstewart, Co. Derry BT55 7BE","tel":"028 7083 2584","images":null,"lat":"55.188293","lng":"-6.716"},"fields":{"slug":"/section-directory-content/diving/aquaholics/"}}},{"node":{"frontmatter":{"title":"Achill Sea Angling - Mr Tony Burke","category":"Diving","county":"Mayo","type":"Content","excerpt":null,"address":"Cashel, Achill Island, Co. Mayo","tel":"+353 (0)98 47 257","images":null,"lat":"53.968502044677734","lng":"-10.012261390686035"},"fields":{"slug":"/section-directory-content/diving/achill-sea-angling---mr-tony-burke/"}}},{"node":{"frontmatter":{"title":"Ballinskelligs Watersports","category":"Diving","county":"Kerry","type":"Content","excerpt":null,"address":"Dungegan, Ballinskelligs, Co. Kerry","tel":"+353 (0)86 417 6612","images":null,"lat":"51.834136962890625","lng":"-10.263077735900879"},"fields":{"slug":"/section-directory-content/diving/ballinskelligs-watersports/"}}},{"node":{"frontmatter":{"title":"Atlantic Shores Scuba","category":"Diving","county":"Fermanagh","type":"Content","excerpt":null,"address":"2, Corfannan, Maguiresbridge, Enniskillen, Co. Fermanagh BT94 4PE","tel":"028 6638 7801","images":null,"lat":"54.297216","lng":"-7.48037"},"fields":{"slug":"/section-directory-content/diving/atlantic-shores-scuba/"}}},{"node":{"frontmatter":{"title":"Bluefin Chartering","category":"Diving","county":"Donegal","type":"Content","excerpt":null,"address":"Churchtown, Kilcar, Co. Donegal","tel":"+353 (0)74 973 8495","images":null,"lat":"54.631507873535156","lng":"-8.601153373718262"},"fields":{"slug":"/section-directory-content/diving/bluefin-chartering/"}}},{"node":{"frontmatter":{"title":"Big Blue Squid","category":"Diving","county":"Down","type":"Content","excerpt":null,"address":"30, Creevytenant Rd, Ballynahinch, Co. Down BT24 8UW","tel":"028 9263 9992","images":null,"lat":"54.444709","lng":"-5.904053"},"fields":{"slug":"/section-directory-content/diving/big-blue-squid/"}}},{"node":{"frontmatter":{"title":"Connemara Coastal Charter","category":"Diving","county":"Derry","type":"Content","excerpt":null,"address":"Mr Shane Bisgood, Derryinver, Letterfrack, Co. Galway","tel":"+353 (0)86 279 5118","images":null,"lat":"53.550968170166016","lng":"-10.084157943725586"},"fields":{"slug":"/section-directory-content/diving/connemara-coastal-charter/"}}},{"node":{"frontmatter":{"title":"D V Diving","category":"Diving","county":"Down","type":"Content","excerpt":null,"address":"D V Diving, D V Diving 138 Mountstewart Road, Newtownards, Co. Down, BT20 5JP","tel":"+44 (0)28 9146 4671","images":null,"lat":"54.66252136230469","lng":"-5.6714301109313965"},"fields":{"slug":"/section-directory-content/diving/d-v-diving/"}}},{"node":{"frontmatter":{"title":"Burren Adventures Ltd Ballyvaughan and Doolin","category":"Diving","county":"Clare","type":"Content","excerpt":null,"address":"Aughinish, Co. Clare","tel":"+353 (0)65 707 8914","images":null,"lat":"52.94021987915039","lng":"-9.29327392578125"},"fields":{"slug":"/section-directory-content/diving/burren-adventures-ltd-ballyvaughan-and-doolin/"}}},{"node":{"frontmatter":{"title":"D.V Diving","category":"Diving","county":"Down","type":"Content","excerpt":null,"address":"138, Mountstewart Rd, Carrowdore, Newtownards, Co. Down BT22 2ES","tel":"028 9146 4671","images":null,"lat":"54.564165","lng":"-5.573449"},"fields":{"slug":"/section-directory-content/diving/dv-diving/"}}},{"node":{"frontmatter":{"title":"Islands West","category":"Diving","county":"Galway","type":"Content","excerpt":null,"address":"Islands West, Inishbofin, Co. Galway","tel":"+353 (0)87 222 7098","images":null,"lat":"53.80472183227539","lng":"-9.991944313049316"},"fields":{"slug":"/section-directory-content/diving/islands-west/"}}},{"node":{"frontmatter":{"title":"Jackson Sports","category":"Diving","county":"Antrim","type":"Content","excerpt":null,"address":"70, High Street, Belfast, Co. Antrim, BT1 2BE","tel":"02890 238572","images":null,"lat":"054.6003760000","lng":"-005.9258120000"},"fields":{"slug":"/section-directory-content/diving/jackson-sports/"}}},{"node":{"frontmatter":{"title":"Dingle Marina Dive Centre","category":"Diving","county":"Kerry","type":"Content","excerpt":null,"address":"Dingle Marina, Strand Street, Dingle, Co. Kerry","tel":"+353 (0)66 915 2789","images":null,"lat":"52.139305114746094","lng":"-10.272106170654297"},"fields":{"slug":"/section-directory-content/diving/dingle-marina-dive-centre/"}}},{"node":{"frontmatter":{"title":"Inishfree Charters","category":"Diving","county":"Donegal","type":"Content","excerpt":null,"address":"The Pier, Burtonport, Co. Donegal","tel":"+353 (0)74 955 1533","images":null,"lat":"54.983863830566406","lng":"-8.430791854858398"},"fields":{"slug":"/section-directory-content/diving/inishfree-charters/"}}},{"node":{"frontmatter":{"title":"North Irish Diver Ltd","category":"Diving","county":"Antrim","type":"Content","excerpt":null,"address":"161b, Low Rd, Islandmagee, Larne, Co. Antrim BT40 3RF","tel":"028 9338 2246","images":null,"lat":"54.807773","lng":"-5.72131"},"fields":{"slug":"/section-directory-content/diving/north-irish-diver-ltd/"}}},{"node":{"frontmatter":{"title":"Munster Dive and Canoe","category":"Diving","county":"Cork","type":"Content","excerpt":null,"address":"30 Saint Finbarr's Road, Cork City","tel":"+353 (0)21 431 2510","images":null,"lat":"51.89232635498047","lng":"-8.484301567077637"},"fields":{"slug":"/section-directory-content/diving/munster-dive-and-canoe/"}}},{"node":{"frontmatter":{"title":"Kilkee Diving And Watersports Centre","category":"Diving","county":"Clare","type":"Content","excerpt":null,"address":"East End, Kilkee, Co. Clare","tel":"+353 (0)65 905 6707","images":null,"lat":"52.68075180053711","lng":"-9.656612396240234"},"fields":{"slug":"/section-directory-content/diving/kilkee-diving-and-watersports-centre/"}}},{"node":{"frontmatter":{"title":"Oceanaddicts","category":"Diving","county":"Cork","type":"Content","excerpt":null,"address":"Main Pier, Kinsale, Co. Cork","tel":"+353 (0)87 790 3211","images":null,"lat":"51.70985412597656","lng":"-8.516029357910156"},"fields":{"slug":"/section-directory-content/diving/oceanaddicts/"}}},{"node":{"frontmatter":{"title":"Sea Safaris","category":"Diving","county":"Antrim","type":"Content","excerpt":null,"address":"North Irish Lodge, 161B Low Road, Islandmagee, Co. Antrim, BT40 3RF","tel":"+44 (0)28 9338 2246","images":null,"lat":"54.808189392089844","lng":"-5.721969127655029"},"fields":{"slug":"/section-directory-content/diving/sea-safaris/"}}},{"node":{"frontmatter":{"title":"Rosguill Charter Hire","category":"Diving","county":"Down","type":"Content","excerpt":null,"address":"Fishermans Village Lodge, Atlantic Drive, Downings, Co. Donegal","tel":"+353 (0)74 915 5080","images":null,"lat":"55.19552230834961","lng":"-7.816474437713623"},"fields":{"slug":"/section-directory-content/diving/rosguill-charter-hire/"}}},{"node":{"frontmatter":{"title":"TDI-SDI UK","category":"Diving","county":"Down","type":"Content","excerpt":null,"address":"27, Manse Rd, Crossgar, Downpatrick, Co. Down BT30 9LY","tel":"028 4483 2992","images":null,"lat":"54.438011","lng":"-5.731501"},"fields":{"slug":"/section-directory-content/diving/tdi-sdi-uk/"}}},{"node":{"frontmatter":{"title":"Waterworld Tralee","category":"Diving","county":"Kerry","type":"Content","excerpt":null,"address":"Upper Rock Street, Tralee, Co. Kerry","tel":"+353 (0)66 712 5803","images":null,"lat":"52.27553939819336","lng":"-9.702323913574219"},"fields":{"slug":"/section-directory-content/diving/waterworld-tralee/"}}},{"node":{"frontmatter":{"title":"Scubadive West","category":"Diving","county":"Galway","type":"Content","excerpt":null,"address":"Scubadive West, Glassillaun Beach, Renvyle, Co. Galway","tel":"+353 (0)95 43 922","images":null,"lat":"53.6213493347168","lng":"-9.86221694946289"},"fields":{"slug":"/section-directory-content/diving/scubadive-west/"}}},{"node":{"frontmatter":{"title":"West Cork Adventures","category":"Diving","county":"Cork","type":"Content","excerpt":null,"address":"c/o Aquaventures, Baltimore, Co. Cork","tel":"+353 (0)28 20 511","images":null,"lat":"51.48128890991211","lng":"-9.368711471557617"},"fields":{"slug":"/section-directory-content/diving/west-cork-adventures/"}}},{"node":{"frontmatter":{"title":"Whale Watch with Colin Barnes","category":"Diving","county":"Cork","type":"Content","excerpt":null,"address":"Union Hall, Co. Cork","tel":"+353 (0)28 36 832","images":null,"lat":"51.55792999267578","lng":"-9.141534805297852"},"fields":{"slug":"/section-directory-content/diving/whale-watch-with-colin-barnes/"}}},{"node":{"frontmatter":{"title":"MV Spirit","category":"Diving","county":"Sligo","type":"Content","excerpt":null,"address":"Rosses Point, Co. Sligo","tel":"+353 (0)860675833","images":null,"lat":"54.26969909667969","lng":"-8.596647262573242"},"fields":{"slug":"/section-directory-content/diving/mv-spirit/"}}},{"node":{"frontmatter":{"title":"North Irish Dive Centre","category":"Diving","county":"Antrim","type":"Content","excerpt":null,"address":"North Irish Lodge Dive Centre, 161B Low Road, Islandmagee, Co. Antrim, BT40 3RF","tel":"+44 (0)28 9338 2246","images":null,"lat":"54.808189392089844","lng":"-5.721969127655029"},"fields":{"slug":"/section-directory-content/diving/north-irish-dive-centre/"}}},{"node":{"frontmatter":{"title":"Youghal Dive Charters","category":"Diving","county":"Cork","type":"Content","excerpt":null,"address":"Seafield, Youghal, Co. Cork","tel":"+353 (0)24 90 437","images":null,"lat":"51.956539154052734","lng":"-7.850132465362549"},"fields":{"slug":"/section-directory-content/diving/youghal-dive-charters/"}}}]}},"pageContext":{"isCreatedByStatefulCreatePages":false,"slug":"/section-directory/diving/","category":"Diving"}}}