{"componentChunkName":"component---src-templates-section-directory-js","path":"/section-directory/parks/","webpackCompilationHash":"","result":{"data":{"markdownRemark":{"html":"","frontmatter":{"category":"Parks"}},"allMarkdownRemark":{"distinct":["Antrim","Armagh","Cork","Derry","Donegal","Down","Dublin","Fermanagh","Galway","Kilkenny","Offaly","Roscommon","Sligo","Tyrone"],"edges":[{"node":{"frontmatter":{"title":"Antrim Lough Shore Park","category":"Parks","county":"Antrim","type":"Content","excerpt":null,"address":"Antrim Lough Shore Park, Lough Road, Antrim, BT41 4DG","tel":"+44 (0)28 9442 8331","images":null,"lat":"54.71342849731445","lng":"-6.22117280960083"},"fields":{"slug":"/section-directory-content/parks/antrim-lough-shore-park/"}}},{"node":{"frontmatter":{"title":"Alderman Tommy Patton Memorial Park","category":"Parks","county":"Antrim","type":"Content","excerpt":null,"address":"Alderman Tommy Patton Memorial Park, Belfast, Antrim","tel":"+44 (0)28 9024 6609","images":null,"lat":"54.59572982788086","lng":"-5.936308860778809"},"fields":{"slug":"/section-directory-content/parks/alderman-tommy-patton-memorial-park/"}}},{"node":{"frontmatter":{"title":"Binevenagh Forest","category":"Parks","county":"Derry","type":"Content","excerpt":null,"address":"Binevenagh Forest, 6 Forest Road, Derry, Derry, BT51 5EF","tel":"+44 (0)28 2955 6000","images":null,"lat":"54.98287582397461","lng":"-6.694561958312988"},"fields":{"slug":"/section-directory-content/parks/binevenagh-forest/"}}},{"node":{"frontmatter":{"title":"Blessington Street Basin (Dublins Secret Garden)","category":"Parks","county":"Dublin","type":"Content","excerpt":null,"address":"Blessington Street, Co. Dublin, Dublin 7","tel":"+353 (0)16 61 2369","images":null,"lat":"53.357208251953125","lng":"-6.2711405754089355"},"fields":{"slug":"/section-directory-content/parks/blessington-street-basin-dublins-secret-garden/"}}},{"node":{"frontmatter":{"title":"Carnfunnock Country Park","category":"Parks","county":"Antrim","type":"Content","excerpt":null,"address":"Carnfunnock Country Park, Coast Road Drains Bay, Larne, Co. Antrim, BT40 2QG","tel":"+44 (0)28 2827 0541","images":null,"lat":"54.88861846923828","lng":"-5.843435287475586"},"fields":{"slug":"/section-directory-content/parks/carnfunnock-country-park/"}}},{"node":{"frontmatter":{"title":"Castle Archdale Country Park Co.Fermanagh","category":"Parks","county":"Fermanagh","type":"Content","excerpt":null,"address":"Castle Archdale Country Park, Lisnarick, Irvinestown,  Co.Fermanagh, BT94 1PP","tel":"+44 (0)28 6862 1588","images":null,"lat":"54.346771240234375","lng":"-7.645120143890381"},"fields":{"slug":"/section-directory-content/parks/castle-archdale-country-park-cofermanagh/"}}},{"node":{"frontmatter":{"title":"Coney Island","category":"Parks","county":"Armagh","type":"Content","excerpt":null,"address":"Kinnego Marina Caravan Park, Kinnego Marina Oxford island Annaloiste Road, Lurgan, Co. Armagh, BT66 6NJ","tel":"+44 (0)28 3832 7573","images":null,"lat":"54.462921142578125","lng":"-6.33630895614624"},"fields":{"slug":"/section-directory-content/parks/coney-island/"}}},{"node":{"frontmatter":{"title":"Castle Espie Wetland Centre","category":"Parks","county":"Down","type":"Content","excerpt":null,"address":"78, Ballydrain Road, Comber, Newtownards, Co. Down, BT23 6EA","tel":"028 9187 4146","images":null,"lat":"054.5241320000","lng":"-005.6906700000"},"fields":{"slug":"/section-directory-content/parks/castle-espie-wetland-centre/"}}},{"node":{"frontmatter":{"title":"Ballypatrick Forest","category":"Parks","county":"Derry","type":"Content","excerpt":null,"address":"North District Office 6 Forest Road, Garvagh, Co. Derry, BT51 5EF","tel":"+44 (0)28 2955 6000","images":null,"lat":"55.20366287231445","lng":"-6.243484020233154"},"fields":{"slug":"/section-directory-content/parks/ballypatrick-forest/"}}},{"node":{"frontmatter":{"title":"Brickfield Park","category":"Parks","county":"Dublin","type":"Content","excerpt":null,"address":"Iveagh Ground, Drimnagh, Dublin City Area South, Co. Dublin, Dublin 12","tel":"+353 (0)14 54 2555","images":null,"lat":"53.331146240234375","lng":"-6.306811809539795"},"fields":{"slug":"/section-directory-content/parks/brickfield-park/"}}},{"node":{"frontmatter":{"title":"Creggan Country Park","category":"Parks","county":"Derry","type":"Content","excerpt":null,"address":"Creggan Country Park, Creggan Country Park Westway, Derry City, Co. Derry, BT48 9NU","tel":"+44 (0)28 7136 3133","images":null,"lat":"54.9918098449707","lng":"-7.320168972015381"},"fields":{"slug":"/section-directory-content/parks/creggan-country-park/"}}},{"node":{"frontmatter":{"title":"Corkagh Park","category":"Parks","county":"Dublin","type":"Content","excerpt":null,"address":"C/O South Dublin Co. Council, Co. Hall, Tallaght, Co. Dublin, Dublin 24","tel":"+353 (0)1 414 9000","images":null,"lat":"53.31195068359375","lng":"-6.413862228393555"},"fields":{"slug":"/section-directory-content/parks/corkagh-park/"}}},{"node":{"frontmatter":{"title":"Crom Estate Co. Fermanagh","category":"Parks","county":"Fermanagh","type":"Content","excerpt":null,"address":"Crom Demesne, Upper Lough Erne Newtownbutler, Co. Fermanagh, BT92 8AP","tel":"+44 (0)28 6773 8118","images":null,"lat":"54.1820182800293","lng":"-7.360599040985107"},"fields":{"slug":"/section-directory-content/parks/crom-estate-co-fermanagh/"}}},{"node":{"frontmatter":{"title":"Castle Caldwell Forest","category":"Parks","county":"Fermanagh","type":"Content","excerpt":null,"address":"7km east of Belleek on A47, Belleek, Fermanagh","tel":"+44 (0)28 6634 3165","images":null,"lat":"54.51969909667969","lng":"-7.891289234161377"},"fields":{"slug":"/section-directory-content/parks/castle-caldwell-forest/"}}},{"node":{"frontmatter":{"title":"Cave Hill Country Park","category":"Parks","county":"Antrim","type":"Content","excerpt":null,"address":"Cave Hill Country Park, Antrim Road, Belfast, Antrim, BT5 5GR","tel":"+44 (0)28 9077 6925","images":null,"lat":"54.59572982788086","lng":"-5.936308860778809"},"fields":{"slug":"/section-directory-content/parks/cave-hill-country-park/"}}},{"node":{"frontmatter":{"title":"Ellenfield Park","category":"Parks","county":"Dublin","type":"Content","excerpt":null,"address":"Whitehall, Co. Dublin, Dublin City Area North, Co. Dublin","tel":"+353 (0)18 42 1182","images":null,"lat":"53.3847541809082","lng":"-6.240654468536377"},"fields":{"slug":"/section-directory-content/parks/ellenfield-park/"}}},{"node":{"frontmatter":{"title":"Colin Glen Forest Park","category":"Parks","county":"Antrim","type":"Content","excerpt":null,"address":"Colin Glen Forest Park, 163 Stewartstown Road, Belfast, Co. Antrim, BT17 0HW","tel":"+44 (0)28 9061 4115","images":null,"lat":"54.59572982788086","lng":"-5.936308860778809"},"fields":{"slug":"/section-directory-content/parks/colin-glen-forest-park/"}}},{"node":{"frontmatter":{"title":"Glenveagh National Park and Castle","category":"Parks","county":"Donegal","type":"Content","excerpt":null,"address":"Glenveagh, Churchhill, Letterkenny, Co. Donegal","tel":"+353 (0)74 913 7090","images":null,"lat":"54.982975006103516","lng":"-7.890971660614014"},"fields":{"slug":"/section-directory-content/parks/glenveagh-national-park-and-castle/"}}},{"node":{"frontmatter":{"title":"Glengarriff Woods Nature Reserve","category":"Parks","county":"Cork","type":"Content","excerpt":null,"address":"The Main Gate Lodge, Glengarriff, Co. Cork","tel":"+353 (0)27 63 636","images":null,"lat":"51.747344970703125","lng":"-9.549015998840332"},"fields":{"slug":"/section-directory-content/parks/glengarriff-woods-nature-reserve/"}}},{"node":{"frontmatter":{"title":"Glenshane Forest","category":"Parks","county":"Derry","type":"Content","excerpt":null,"address":"Glenshane Forest, 6 Forest Road, Limavady, Derry, BT51 5EF","tel":"+44 (0)28 2955 6003","images":null,"lat":"54.98287582397461","lng":"-6.694561958312988"},"fields":{"slug":"/section-directory-content/parks/glenshane-forest/"}}},{"node":{"frontmatter":{"title":"Derrynoyd Forest","category":"Parks","county":"Derry","type":"Content","excerpt":null,"address":"Derrynoyd Forest, 6 Forest Road, Draperstown, Derry, BT51 5EF","tel":"+44 (0)28 2955 6003","images":null,"lat":"54.98287582397461","lng":"-6.694561958312988"},"fields":{"slug":"/section-directory-content/parks/derrynoyd-forest/"}}},{"node":{"frontmatter":{"title":"Dungannon Park Lake","category":"Parks","county":"Tyrone","type":"Content","excerpt":null,"address":"Dungannon Park Lake, Moy Road, Dungannon, Tyrone, BT71 7DT","tel":"+44 (0)28 8772 7327","images":null,"lat":"54.505088806152344","lng":"-6.764308929443359"},"fields":{"slug":"/section-directory-content/parks/dungannon-park-lake/"}}},{"node":{"frontmatter":{"title":"Hazelwood Sculpture Trail Sligo","category":"Parks","county":"Sligo","type":"Content","excerpt":null,"address":"North West Tourism, Temple Street, Co. Sligo","tel":"+353 (0)71 916 1201","images":null,"lat":"54.26777648925781","lng":"-8.475066184997559"},"fields":{"slug":"/section-directory-content/parks/hazelwood-sculpture-trail-sligo/"}}},{"node":{"frontmatter":{"title":"Hillsborough Forest","category":"Parks","county":"Antrim","type":"Content","excerpt":null,"address":"Hillsborough Forest, Hillsborough, Co. Antrim, BT26 6DP","tel":"+44 (0)28 9064 7256","images":null,"lat":"54.46516799926758","lng":"-6.074091911315918"},"fields":{"slug":"/section-directory-content/parks/hillsborough-forest/"}}},{"node":{"frontmatter":{"title":"Hazelbank and Jordanstown Parks","category":"Parks","county":"Antrim","type":"Content","excerpt":null,"address":"Hazelbank and Jordanstown Parks, Hazelbank Park, Newtownabbey, Co. Antrim","tel":"+44 (0)28 9034 0000","images":null,"lat":"54.66537094116211","lng":"-5.946498870849609"},"fields":{"slug":"/section-directory-content/parks/hazelbank-and-jordanstown-parks/"}}},{"node":{"frontmatter":{"title":"Maghery Country Park","category":"Parks","county":"Armagh","type":"Content","excerpt":null,"address":"Maghery Country Park, Maghery Country Park, Craigavon, Co. Armagh","tel":"+44 (0)28 3832 2205","images":null,"lat":"54.45169448852539","lng":"-6.397026062011719"},"fields":{"slug":"/section-directory-content/parks/maghery-country-park/"}}},{"node":{"frontmatter":{"title":"Greenville Park","category":"Parks","county":"Antrim","type":"Content","excerpt":null,"address":"Greenville Park, Castlereagh Road, Belfast, Antrim, BT5 5FE","tel":"+44 (0)28 9024 6609","images":null,"lat":"54.59572982788086","lng":"-5.936308860778809"},"fields":{"slug":"/section-directory-content/parks/greenville-park/"}}},{"node":{"frontmatter":{"title":"Lough Key Forest and Activity Park","category":"Parks","county":"Roscommon","type":"Content","excerpt":null,"address":"Lough Key Forest and Activity Park, Boyle, Co. Roscommon","tel":"+353 (0)71 967 3122","images":null,"lat":"53.976078033447266","lng":"-8.304198265075684"},"fields":{"slug":"/section-directory-content/parks/lough-key-forest-and-activity-park/"}}},{"node":{"frontmatter":{"title":"Gosford Forest Park","category":"Parks","county":"Armagh","type":"Content","excerpt":null,"address":"Gosford Forest Park, 7 Gosford Demesne, Markethill, Armagh, BT60 1GD","tel":"+44 (0)28 3755 1277","images":null,"lat":"54.296939849853516","lng":"-6.5217390060424805"},"fields":{"slug":"/section-directory-content/parks/gosford-forest-park/"}}},{"node":{"frontmatter":{"title":"Minnowburn Beeches","category":"Parks","county":"Antrim","type":"Content","excerpt":null,"address":"Warden's Office, Minnowburn Warden's Office Ballynahatty Road, Belfast, Co. Antrim, BT8 8LE","tel":"+44 (0)28 9064 7787","images":null,"lat":"54.59572982788086","lng":"-5.936308860778809"},"fields":{"slug":"/section-directory-content/parks/minnowburn-beeches/"}}},{"node":{"frontmatter":{"title":"Lagan Valley Regional Park","category":"Parks","county":"Antrim","type":"Content","excerpt":null,"address":"Lagan Valley Regional Park, 3 Lock Keeper's Lane, Belfast, Antrim, BT8 7XT","tel":"+44 (0)28 9049 1922","images":null,"lat":"54.59572982788086","lng":"-5.936308860778809"},"fields":{"slug":"/section-directory-content/parks/lagan-valley-regional-park/"}}},{"node":{"frontmatter":{"title":"Peatlands Park","category":"Parks","county":"Armagh","type":"Content","excerpt":null,"address":"Peatlands Park, 33 Derryhubbert Road, Dungannon, Co. Armagh, BT71 6NW","tel":"+44 (0)28 3885 1102","images":null,"lat":"54.505088806152344","lng":"-6.764308929443359"},"fields":{"slug":"/section-directory-content/parks/peatlands-park/"}}},{"node":{"frontmatter":{"title":"Seaforde Tropical Butterfly House","category":"Parks","county":"Down","type":"Content","excerpt":null,"address":"Seaforde Gardens, Seaforde Demesne, Seaforde, Downpatrick, Co. Down BT30 8PG","tel":"028 4481 1225","images":null,"lat":"54.319497","lng":"-5.84685"},"fields":{"slug":"/section-directory-content/parks/seaforde-tropical-butterfly-house/"}}},{"node":{"frontmatter":{"title":"Running Trail Lagan Valley Regional Park","category":"Parks","county":"Antrim","type":"Content","excerpt":null,"address":"Running Trail Lagan Valley Regional Park, Lagan Valley Regional Park, Belfast, Antrim","tel":"+44 (0)28 9049 1922","images":null,"lat":"54.59572982788086","lng":"-5.936308860778809"},"fields":{"slug":"/section-directory-content/parks/running-trail-lagan-valley-regional-park/"}}},{"node":{"frontmatter":{"title":"Moydamlaght Forest","category":"Parks","county":"Derry","type":"Content","excerpt":null,"address":"Moydamlaght Forest, 6 Forest Road, Magherafelt, Derry, BT51 5EF","tel":"+44 (0)28 2955 6003","images":null,"lat":"54.98287582397461","lng":"-6.694561958312988"},"fields":{"slug":"/section-directory-content/parks/moydamlaght-forest/"}}},{"node":{"frontmatter":{"title":"Rinville Park","category":"Parks","county":"Galway","type":"Content","excerpt":null,"address":"Galway Co. Council, Co. Hall, Prospect Hill, Galway City.","tel":"+353 (0)91 50 9000","images":null,"lat":"53.263160705566406","lng":"-8.928675651550293"},"fields":{"slug":"/section-directory-content/parks/rinville-park/"}}},{"node":{"frontmatter":{"title":"Slieve Bloom Walks","category":"Parks","county":"Offaly","type":"Content","excerpt":null,"address":"Slieve Bloom Walks, Ardmore House, Kinnitty, Co. Offaly","tel":"+353 (0)57 913 7009","images":null,"lat":"53.09555435180664","lng":"-7.721388816833496"},"fields":{"slug":"/section-directory-content/parks/slieve-bloom-walks/"}}},{"node":{"frontmatter":{"title":"Riverside Park","category":"Parks","county":"Antrim","type":"Content","excerpt":null,"address":"Riverside Park, Armour Avenue, Ballymoney, Antrim, BT53 7AG","tel":"+44 (0)28 2766 4962","images":null,"lat":"55.068546295166016","lng":"-6.507205963134766"},"fields":{"slug":"/section-directory-content/parks/riverside-park/"}}},{"node":{"frontmatter":{"title":"Sir Thomas and Lady Dixon Park","category":"Parks","county":"Antrim","type":"Content","excerpt":null,"address":"Sir Thomas And Lady Dixon Park, Belfast, Upper Malone Road, Belfast, Antrim, BT17 9LA","tel":"+44 (0)28 9032 0202 (Parks Info)","images":null,"lat":"54.53864288330078","lng":"-5.983414649963379"},"fields":{"slug":"/section-directory-content/parks/sir-thomas-and-lady-dixon-park/"}}},{"node":{"frontmatter":{"title":"Thrills And Spills Warrenpoint","category":"Parks","county":"Down","type":"Content","excerpt":null,"address":"Thrills And Spills Warrenpoint, Warrenpoint, Down","tel":"+44 (0)28 4175 2852","images":null,"lat":"54.10100173950195","lng":"-6.253808975219727"},"fields":{"slug":"/section-directory-content/parks/thrills-and-spills-warrenpoint/"}}},{"node":{"frontmatter":{"title":"The Lagan Towpath Section 1","category":"Parks","county":"Antrim","type":"Content","excerpt":null,"address":"The Lagan Towpath Section 1, Lagan Valley Regional Park, Belfast, Antrim","tel":"+44 (0)28 9049 1922","images":null,"lat":"54.59572982788086","lng":"-5.936308860778809"},"fields":{"slug":"/section-directory-content/parks/the-lagan-towpath-section-1/"}}},{"node":{"frontmatter":{"title":"Tollymore Forest Park","category":"Parks","county":"Down","type":"Content","excerpt":null,"address":"Tollymore Forest Park, East District Forest Office Castlewellan Forest Park, Castlewellan, Co. Down, BT31 9BU","tel":"+44 (0)28 4372 2428","images":null,"lat":"54.2081298828125","lng":"-5.8950958251953125"},"fields":{"slug":"/section-directory-content/parks/tollymore-forest-park/"}}},{"node":{"frontmatter":{"title":"War Memorial Gardens","category":"Parks","county":"Dublin","type":"Content","excerpt":null,"address":"South Circular Road, Islandbridge, Co. Dublin, Dublin 8","tel":"+353 (0)1 475 7816","images":null,"lat":"53.3446044921875","lng":"-6.319131374359131"},"fields":{"slug":"/section-directory-content/parks/war-memorial-gardens/"}}},{"node":{"frontmatter":{"title":"Warrenpoint Municipal Park And Gardens","category":"Parks","county":"Down","type":"Content","excerpt":null,"address":"Warrenpoint Municipal Park And Gardens, Warrenpoint, Down","tel":"+44 (0)28 4175 2256","images":null,"lat":"54.10100173950195","lng":"-6.253808975219727"},"fields":{"slug":"/section-directory-content/parks/warrenpoint-municipal-park-and-gardens/"}}},{"node":{"frontmatter":{"title":"Windmill Woodland","category":"Parks","county":"Tyrone","type":"Content","excerpt":null,"address":"Windmill Woodland, c/o Dungannon Park, Dungannon, Tyrone","tel":"+44 (0)28 8772 7327","images":null,"lat":"54.505088806152344","lng":"-6.764308929443359"},"fields":{"slug":"/section-directory-content/parks/windmill-woodland/"}}},{"node":{"frontmatter":{"title":"Slieve Gullion Forest Park","category":"Parks","county":"Armagh","type":"Content","excerpt":null,"address":"Slieve Gullion Forest Park, 89 Drumintee Road Killeavy, Newry, Co. Armagh, BT35 8SW","tel":"NOVAL","images":null,"lat":"54.17662811279297","lng":"-6.339670181274414"},"fields":{"slug":"/section-directory-content/parks/slieve-gullion-forest-park/"}}},{"node":{"frontmatter":{"title":"Woodstock Gardens and Arboretum","category":"Parks","county":"Kilkenny","type":"Content","excerpt":null,"address":"Woodstock Estate, Inistioge, Co. Kilkenny","tel":"+353 (0)87 854 9785","images":null,"lat":"52.489017486572266","lng":"-7.066311836242676"},"fields":{"slug":"/section-directory-content/parks/woodstock-gardens-and-arboretum/"}}},{"node":{"frontmatter":{"title":"Lough Navar Forest Drive","category":"Parks","county":"Fermanagh","type":"Content","excerpt":null,"address":"Lough Navar Forest Drive, Enniskillen, Fermanagh","tel":"+44 (0)28 6634 3032","images":null,"lat":"54.346771240234375","lng":"-7.645120143890381"},"fields":{"slug":"/section-directory-content/parks/lough-navar-forest-drive/"}}},{"node":{"frontmatter":{"title":"Florence Court Co. Fermanagh","category":"Parks","county":"Fermanagh","type":"Content","excerpt":null,"address":"Florence Court, Florencecourt, Co. Fermanagh, Co. Fermanagh, BT92 1DB","tel":"+44 (0)28 6634 8249","images":null,"lat":"54.346771240234375","lng":"-7.645120143890381"},"fields":{"slug":"/section-directory-content/parks/florence-court-co-fermanagh/"}}},{"node":{"frontmatter":{"title":"Sentry Hill Historic House and Visitor Centre","category":"Parks","county":"Antrim","type":"Content","excerpt":null,"address":"40, Ballycraigy Road, Co. Antrim, Newtownabbey, Co. Antrim, BT36 8SX","tel":"028 9083 2363","images":null,"lat":"054.6865740000","lng":"-005.9651860000"},"fields":{"slug":"/section-directory-content/parks/sentry-hill-historic-house-and-visitor-centre/"}}}]}},"pageContext":{"isCreatedByStatefulCreatePages":false,"slug":"/section-directory/parks/","category":"Parks"}}}