{"componentChunkName":"component---src-templates-section-directory-js","path":"/section-directory/equestrian-schools/","webpackCompilationHash":"","result":{"data":{"markdownRemark":{"html":"","frontmatter":{"category":"Equestrian Schools"}},"allMarkdownRemark":{"distinct":["Antrim","Armagh","Cavan","Clare","Cork","Derry","Donegal","Down","Kerry","Kildare","Leitrim","Limerick","Mayo","Meath","Monaghan","Sligo","Tipperary","Tyrone","Waterford","Wicklow"],"edges":[{"node":{"frontmatter":{"title":"Woodfield Equestrian Centre","category":"Equestrian Schools","county":"Clare","type":"Content","excerpt":"Woodfield Equestrian Centre is located in a peaceful environment in the East Clare. Most of the equestrian classes here in the centre are accomplished...","address":"Broadford, Co. Clare","tel":"+353 (0)61 47 3909","images":["woodfield-equestrian-centre-1.jpg","197","136","woodfield-equestrian-centre-3.jpg","150","113","woodfield-equestrian-centre-4.jpg","200","207"],"lat":"57.233333587646484","lng":"-5.916666507720947"},"fields":{"slug":"/section-directory-content/equestrian-schools/woodfield-equestrian-centre/"}}},{"node":{"frontmatter":{"title":"West Cork Equine Centre","category":"Equestrian Schools","county":"Cork","type":"Content","excerpt":"West Cork Equine Centre is an A.I.R.E approved centre located in the County Cork. Being near to the beautiful mountainous range of Garryndruig, this p...","address":"Garryndruig Killbrittan Cork Co. Cork","tel":"(023)8849433","images":["west-cork-equine-centre-0.jpg","200","160","west-cork-equine-centre-4.jpg","400","155"],"lat":"51.68462945","lng":"-8.736718208"},"fields":{"slug":"/section-directory-content/equestrian-schools/west-cork-equine-centre/"}}},{"node":{"frontmatter":{"title":"Toberton Enterprises Limited","category":"Equestrian Schools","county":"Kildare","type":"Content","excerpt":"Toberton Enterprises Limited is a well known equestrian training centre located in County Kildare. It is an A.I.R.E approved centre. People of all age...","address":"Toberton Lodge, Johnstown, Naas, Co. Kildare","tel":"+353 (0)45 87 1863","images":null,"lat":"53.23118209838867","lng":"-6.6098127365112305"},"fields":{"slug":"/section-directory-content/equestrian-schools/toberton-enterprises-limited/"}}},{"node":{"frontmatter":{"title":"Bachelors Lodge Equestrian Centre","category":"Equestrian Schools","county":"Meath","type":"Content","excerpt":"The popular Bachelors Lodge Equestrian Centre provides training in horse riding and ample opportunities for trekking in the calm and pleasant countrys...","address":"Kells rd Navan Co. Meath","tel":"(046)9021736","images":["bachelors-lodge-equestrian-centre-0.jpg","200","160","bachelors-lodge-equestrian-centre-2.jpg","200","125","bachelors-lodge-equestrian-centre-3.jpg","482","500","bachelors-lodge-equestrian-centre-4.jpg","484","308","bachelors-lodge-equestrian-centre-5.jpg","262","206"],"lat":"53.65521144","lng":"-6.703581949"},"fields":{"slug":"/section-directory-content/equestrian-schools/bachelors-lodge-equestrian-centre/"}}},{"node":{"frontmatter":{"title":"Moorlands Equestrian Centre","category":"Equestrian Schools","county":"Leitrim","type":"Content","excerpt":"The Moorlands Equestrian Centre is set nearby the shores of Lough Allen in Curraghill, Drumshambo County Leitrim. A perfect scenic location for horse...","address":"Curraghill, Drumshanbo, Co. Leitrim","tel":"+353 (0)71 964 1500","images":["moorlands-equestrian-centre-0.jpg","262","206"],"lat":"54.04877471923828","lng":"-8.045193672180176"},"fields":{"slug":"/section-directory-content/equestrian-schools/moorlands-equestrian-centre/"}}},{"node":{"frontmatter":{"title":"Clonshire Equestrian and Polo Centre","category":"Equestrian Schools","county":"Limerick","type":"Content","excerpt":"The Clonshire and Polo Center is based on lush parkland covering area of 130 acres. The equestrian and polo center is 2.5 km from the mesmerizing vill...","address":"Clonshire, Adare, Co. Limerick","tel":"+353 (0)61 39 6770","images":["clonshire-equestrian-and-polo-centre-4.jpg","500","333","clonshire-equestrian-and-polo-centre-9.jpg","168","112"],"lat":"52.555484771728516","lng":"-8.833290100097656"},"fields":{"slug":"/section-directory-content/equestrian-schools/clonshire-equestrian-and-polo-centre/"}}},{"node":{"frontmatter":{"title":"Stonehaven Equestrian Centre","category":"Equestrian Schools","county":"Waterford","type":"Content","excerpt":"Stonehaven Equestrian Centre, a family run equestrian is based in Waterford city. The USP of this centre is that horses of all temperaments and sizes...","address":"Gracedieu, Waterford City, Waterford","tel":"+353 (0)51 87 3816","images":["stonehaven-equestrian-centre-0.jpg","262","206","stonehaven-equestrian-centre-4.jpg","200","149"],"lat":"52.26488494873047","lng":"-7.139191150665283"},"fields":{"slug":"/section-directory-content/equestrian-schools/stonehaven-equestrian-centre/"}}},{"node":{"frontmatter":{"title":"Eden Hill Language and Equestrian Centre","category":"Equestrian Schools","county":"Cork","type":"Content","excerpt":"Running for more than twenty years now, the Eden Hill Language and Equestrian Center is owned by the O'Callaghan family. This center has been welcomin...","address":"Eden Hill, Navigation Road, Mallow, Co. Cork","tel":"+353 (0)22 21 143","images":["eden-hill-language-and-equestrian-centre-4.jpg","450","312"],"lat":"52.13405227661133","lng":"-8.694360733032227"},"fields":{"slug":"/section-directory-content/equestrian-schools/eden-hill-language-and-equestrian-centre/"}}},{"node":{"frontmatter":{"title":"Redhills Equestrian Centre","category":"Equestrian Schools","county":"Cavan","type":"Content","excerpt":"Redhills Equestrian Centre in County Cavan has been teaching horse riding to people for the past 18 years. The centre is a family business and a place...","address":"Killynure, Redhills, Co. Cavan","tel":"+353 (0)47 55 042","images":["redhills-equestrian-centre-1.jpg","350","233","redhills-equestrian-centre-2.jpg","262","206","redhills-equestrian-centre-3.jpg","250","166"],"lat":"54.10403060913086","lng":"-7.308368682861328"},"fields":{"slug":"/section-directory-content/equestrian-schools/redhills-equestrian-centre/"}}},{"node":{"frontmatter":{"title":"Longs Horse Riding","category":"Equestrian Schools","county":"Kerry","type":"Content","excerpt":"Longs Horse Riding housed in an old village of Ventry, County Kerry is an A.I.R.E. Approved centre. As one reaches Ventry Inn Pub in Ventry, around 20...","address":"Kilcolman, Ventry, Tralee, Co. Kerry","tel":"+353 (0)87 225 0286","images":["longs-horse-riding-4.jpg","469","282"],"lat":"52.14037322998047","lng":"-10.363105773925781"},"fields":{"slug":"/section-directory-content/equestrian-schools/longs-horse-riding/"}}},{"node":{"frontmatter":{"title":"Martinstown Lodge Equestrian Centre","category":"Equestrian Schools","county":"Meath","type":"Content","excerpt":"Located in the town Athboy of County Meath is the spectacular Martinstown Lodge Equestrian Centre. This equestrian centre is an old Dairy farm that ha...","address":"Athboy, Co. Meath","tel":"+353 (0)86 829 8669","images":["martinstown-lodge-equestrian-centre-3.jpg","262","206"],"lat":"53.633636474609375","lng":"-6.936821937561035"},"fields":{"slug":"/section-directory-content/equestrian-schools/martinstown-lodge-equestrian-centre/"}}},{"node":{"frontmatter":{"title":"Shenandoah Stables","category":"Equestrian Schools","county":"Monaghan","type":"Content","excerpt":"Located four kilometers away from the town of Castleblayney in Lough Egish, Shenandoah Stables take complete care of all the equestrian needs. Managed...","address":"Shenandoah Stables, Lough Egish, Castleblayney, Monaghan","tel":"+353 (0)42 974 5026","images":["shenandoah-stables-1.jpg","200","160"],"lat":"54.11666488647461","lng":"-6.733333110809326"},"fields":{"slug":"/section-directory-content/equestrian-schools/shenandoah-stables/"}}},{"node":{"frontmatter":{"title":"Castlewarden Pony and Country Club","category":"Equestrian Schools","county":"Kildare","type":"Content","excerpt":"Located between the townlands of Oughterard and Steelstown, Castlewarden Pony and Country Club is rested in the plains of Kildare. Spread over hundred...","address":"Saint Annes, Castlewarden, Straffan, Co. Kildare","tel":"+353 (0)14 58 0104","images":["castlewarden-pony-and-country-club-6.jpg","300","200"],"lat":"53.265777587890625","lng":"-6.535085678100586"},"fields":{"slug":"/section-directory-content/equestrian-schools/castlewarden-pony-and-country-club/"}}},{"node":{"frontmatter":{"title":"Kinsale Equestrian Centre","category":"Equestrian Schools","county":"Cork","type":"Content","excerpt":"Kinsale Equestrian Centre, overlooking the Bandon River is the newest riding centre of County Kinsale. Spread over 50 acres of lush grasslands, Kinsal...","address":"Bridgeview Kippagh Kinsale Co. Cork","tel":"(086)8530894","images":["kinsale-equestrian-centre-2.jpg","500","333","kinsale-equestrian-centre-3.jpg","150","112"],"lat":"51.7053","lng":"-8.54189"},"fields":{"slug":"/section-directory-content/equestrian-schools/kinsale-equestrian-centre/"}}},{"node":{"frontmatter":{"title":"Island View Riding Stables","category":"Equestrian Schools","county":"Sligo","type":"Content","excerpt":"Island View Riding Stables is a horse farm that is located in the west Ireland. This family run horse farm is recognized for the beach horse rides. It...","address":"Moneygold, Grange, Sligo","tel":"+353 (0)71 916 6156","images":["island-view-riding-stables-0.jpg","300","225","island-view-riding-stables-1.jpg","360","248","island-view-riding-stables-2.jpg","300","224","island-view-riding-stables-3.jpg","300","200","island-view-riding-stables-4.jpg","337","450"],"lat":"54.395351059646764","lng":"-8.517837524414062"},"fields":{"slug":"/section-directory-content/equestrian-schools/island-view-riding-stables/"}}},{"node":{"frontmatter":{"title":"Horse Holiday Farm","category":"Equestrian Schools","county":"Sligo","type":"Content","excerpt":"Horse Holiday Farm in County Sligo allows one to enjoy horse riding near the clear waters of the Atlantic Ocean. As the centre is located in the prist...","address":"Grange, Sligo","tel":"+353 (0)71 916 6152","images":["horse-holiday-farm-1.jpg","227","190","horse-holiday-farm-2.jpg","227","154","horse-holiday-farm-4.jpg","147","120"],"lat":"54.3884162902832","lng":"-8.539501190185547"},"fields":{"slug":"/section-directory-content/equestrian-schools/horse-holiday-farm/"}}},{"node":{"frontmatter":{"title":"Greenacre Stud and Equestrian Centre","category":"Equestrian Schools","county":"Donegal","type":"Content","excerpt":"Greenacre Stud and Equestrian Centre is situated in the beautiful city of County Donegal. Private and group lessons are provided for horse riding to b...","address":"Convoy, Donegal","tel":"+353 (0)74 914 7541","images":["greenacre-stud-and-equestrian-centre-2.jpg","262","206"],"lat":"54.86083221435547","lng":"-7.665555477142334"},"fields":{"slug":"/section-directory-content/equestrian-schools/greenacre-stud-and-equestrian-centre/"}}},{"node":{"frontmatter":{"title":"Calveys Equestrian and Pony Trekking Centre","category":"Equestrian Schools","county":"Mayo","type":"Content","excerpt":"Established in the year 2003, Calvey's Equestrian and Pony Trekking Centre offers exquisite scenic treks along with riding lessons to people of almost...","address":"Slievemore, Keel, Achill Island, Co. Mayo","tel":"+353 (0)87 988 1093","images":["calveys-equestrian-and-pony-trekking-centre-1.jpg","100","100","calveys-equestrian-and-pony-trekking-centre-2.jpg","262","206","calveys-equestrian-and-pony-trekking-centre-4.jpg","250","162","calveys-equestrian-and-pony-trekking-centre-5.jpg","249","162","calveys-equestrian-and-pony-trekking-centre-9.jpg","200","141"],"lat":"53.99793243408203","lng":"-10.078120231628418"},"fields":{"slug":"/section-directory-content/equestrian-schools/calveys-equestrian-and-pony-trekking-centre/"}}},{"node":{"frontmatter":{"title":"The Bridestown Towers Equestrian Centre","category":"Equestrian Schools","county":"Cork","type":"Content","excerpt":"Established in the year 2003 by Gemma Horgan and her brother Philip, the Bridestown Towers Equestrian Centre is situated in the spectacular Bride Vall...","address":"Bridestown, Kildinan, Glenville, Co. Cork","tel":"+353 (0)21 488 0286","images":["the-bridestown-towers-equestrian-centre-0.jpg","200","160","the-bridestown-towers-equestrian-centre-3.jpg","169","417"],"lat":"52.05828857421875","lng":"-8.387349128723145"},"fields":{"slug":"/section-directory-content/equestrian-schools/the-bridestown-towers-equestrian-centre/"}}},{"node":{"frontmatter":{"title":"Drumcoura City Lake Resort","category":"Equestrian Schools","county":"Leitrim","type":"Content","excerpt":"Drumcoura City Lake Resort is holiday resort located near the town of Ballinamore, Co. Leitrim. A separate horse riding arena is located near to the r...","address":"Drumcoura City, Ballinamore, Leitrim","tel":"+353 (0)71 964 5788","images":["drumcoura-city-lake-resort-3.jpg","250","200"],"lat":"54.05293900056246","lng":"-7.80029296875"},"fields":{"slug":"/section-directory-content/equestrian-schools/drumcoura-city-lake-resort/"}}},{"node":{"frontmatter":{"title":"Diamonds Lane Equestrian","category":"Equestrian Schools","county":"Down","type":"Content","excerpt":"Diamond's Lane Equestrian is situated in the sloping hills of County Down between the Ards Peninsula villages of Cloughey and Portaferry. The reason f...","address":"Diamond's Lane Equestrian, 12B Ballygalget Road Portaferry, Newtownards, Co. Down, BT22 1NE","tel":"+44 (0)28 4277 2987","images":["diamonds-lane-equestrian-3.jpg","500","390","diamonds-lane-equestrian-4.jpg","262","206","diamonds-lane-equestrian-7.jpg","256","192"],"lat":"54.405906677246094","lng":"-5.495146751403809"},"fields":{"slug":"/section-directory-content/equestrian-schools/diamonds-lane-equestrian/"}}},{"node":{"frontmatter":{"title":"Crossogue Equestrian Centre","category":"Equestrian Schools","county":"Tipperary","type":"Content","excerpt":"Crossogue Equestrian Centre is taken care of Molloy family, which has been involved with the horses for five generations. Visitors can stay at the 19t...","address":"Crossogue House, Ballycahill, Thurles, North Tipperary","tel":"+0353 (0) 504 54166","images":["crossogue-equestrian-centre-0.jpg","500","333","crossogue-equestrian-centre-1.jpg","500","374","crossogue-equestrian-centre-5.jpg","450","301","crossogue-equestrian-centre-9.jpg","300","200"],"lat":"52.68194580078125","lng":"-7.80222225189209"},"fields":{"slug":"/section-directory-content/equestrian-schools/crossogue-equestrian-centre/"}}},{"node":{"frontmatter":{"title":"Castlewhite Riding Centre","category":"Equestrian Schools","county":"Cork","type":"Content","excerpt":"Castlewhite Riding Centre, located in County Cork is owned by Kay Fitton. He along with Fiona Coughlan is the chief instructors here. A.I.R.E approved...","address":"The Viaduct Waterfall Near Cork Co. Cork","tel":"(021)4870684","images":["castlewhite-riding-centre-3.jpg","262","206","castlewhite-riding-centre-4.jpg","200","160","castlewhite-riding-centre-7.jpg","200","160","castlewhite-riding-centre-8.jpg","173","111"],"lat":"51.859823","lng":"-8.537693"},"fields":{"slug":"/section-directory-content/equestrian-schools/castlewhite-riding-centre/"}}},{"node":{"frontmatter":{"title":"Castlefergus Riding Stables","category":"Equestrian Schools","county":"Clare","type":"Content","excerpt":"Castlefergus Riding Stables is housed by a farmhouse and an equestrian centre. Easy to reach as the stables are located just 20 minutes away from Shan...","address":"Quin Co. Clare","tel":"(065)6825914","images":["castlefergus-riding-stables-4.jpg","400","300","castlefergus-riding-stables-6.jpg","500","327","castlefergus-riding-stables-8.jpg","400","300"],"lat":"52.79897084","lng":"-8.904953585"},"fields":{"slug":"/section-directory-content/equestrian-schools/castlefergus-riding-stables/"}}},{"node":{"frontmatter":{"title":"Broomfield Equestrian Centre","category":"Equestrian Schools","county":"Wicklow","type":"Content","excerpt":"Broomfield Equestrian Centre is located in the natural environment of County Wicklow. The green fields, forest tracks and an evergreen farmland make t...","address":"Broomfield, Tinahely, Co. Wicklow","tel":"+353 (0)40 23 8117","images":["broomfield-equestrian-centre-0.jpg","262","206"],"lat":"52.790252685546875","lng":"-6.473266124725342"},"fields":{"slug":"/section-directory-content/equestrian-schools/broomfield-equestrian-centre/"}}},{"node":{"frontmatter":{"title":"Blackwater Stables","category":"Equestrian Schools","county":"Kerry","type":"Content","excerpt":"Blackwater Stables is an A.I.R.E approved equestrian school. People can take a leisure ride through the area of Kenmare, Sneem and Blackwater Bridge....","address":"Blackwater Bridge, Killarney, Co. Kerry","tel":"+353 (0)64 668 2076","images":["blackwater-stables-0.jpg","392","500","blackwater-stables-2.jpg","262","206","blackwater-stables-7.jpg","50","50"],"lat":"51.85806655883789","lng":"-9.740588188171387"},"fields":{"slug":"/section-directory-content/equestrian-schools/blackwater-stables/"}}},{"node":{"frontmatter":{"title":"Banner Equestrian Centre","category":"Equestrian Schools","county":"Clare","type":"Content","excerpt":"Banner Equestrian Centre is a family run business which is approved by the British Horse Society. It sprawls over 100 acres of rugged countryside and...","address":"Toonagh, Fountain, Near Ennis, Co. Clare","tel":"+353 (0)65 682 3487","images":["banner-equestrian-centre-0.jpg","262","206","banner-equestrian-centre-2.jpg","500","480","banner-equestrian-centre-7.jpg","402","456","banner-equestrian-centre-9.jpg","500","148"],"lat":"52.889930725097656","lng":"-9.047420501708984"},"fields":{"slug":"/section-directory-content/equestrian-schools/banner-equestrian-centre/"}}},{"node":{"frontmatter":{"title":"Arnolds Hotel and Riding Stables Dunfanaghy Co. Donegal","category":"Equestrian Schools","county":"Donegal","type":"Content","excerpt":null,"address":"Dunfanaghy Riding Stables, Dunfanaghy, Co. Donegal","tel":"+353 (0)74 910 0980","images":null,"lat":"55.179054260253906","lng":"-7.958974838256836"},"fields":{"slug":"/section-directory-content/equestrian-schools/arnolds-hotel-and-riding-stables-dunfanaghy-co-donegal/"}}},{"node":{"frontmatter":{"title":"An Sibin Equestrian Centre","category":"Equestrian Schools","county":"Derry","type":"Content","excerpt":null,"address":"An Sibin Equestrian Centre, Derryoran East, Whitegate, Co. Clare","tel":"+353 (0)61 92 7411","images":null,"lat":"52.9748649597168","lng":"-8.418684959411621"},"fields":{"slug":"/section-directory-content/equestrian-schools/an-sibin-equestrian-centre/"}}},{"node":{"frontmatter":{"title":"Ballybrack Equestrian Centre","category":"Equestrian Schools","county":"Cork","type":"Content","excerpt":null,"address":"(Near Watergrasshill) Ballybrack Glenville Co. Cork Co. Cork","tel":"(087)2519405","images":null,"lat":"52.01643258","lng":"-8.381818771"},"fields":{"slug":"/section-directory-content/equestrian-schools/ballybrack-equestrian-centre/"}}},{"node":{"frontmatter":{"title":"Birr House Riding Centre","category":"Equestrian Schools","county":"Antrim","type":"Content","excerpt":null,"address":"81, Whinney Hill, Dundonald, Belfast, Co. Antrim BT16 1UA","tel":"028 9042 5858","images":null,"lat":"054.6240630000","lng":"-005.7815500000"},"fields":{"slug":"/section-directory-content/equestrian-schools/birr-house-riding-centre/"}}},{"node":{"frontmatter":{"title":"Cherry Tree Riding Centre","category":"Equestrian Schools","county":"Down","type":"Content","excerpt":null,"address":"Cherry Tree Cottage, Newcastle Rd, Portaferry, Newtownards, Co. Down BT22 1QQ","tel":"028 4272 9639","images":null,"lat":"54.397475","lng":"-5.47395"},"fields":{"slug":"/section-directory-content/equestrian-schools/cherry-tree-riding-centre/"}}},{"node":{"frontmatter":{"title":"CITY OF DERRY EQUESTRIAN CENTRE","category":"Equestrian Schools","county":"Derry","type":"Content","excerpt":null,"address":"30, Bigwood Rd, Ardmore, Derry, Co. Derry BT47 3RP","tel":"07743 100531","images":null,"lat":"054.9541640000","lng":"-007.2617320000"},"fields":{"slug":"/section-directory-content/equestrian-schools/city-of-derry-equestrian-centre/"}}},{"node":{"frontmatter":{"title":"Cloncaw Equestrian Centre","category":"Equestrian Schools","county":"Monaghan","type":"Content","excerpt":null,"address":"Cloncaw Equestrian, Emyvale Road, Glaslough, Co. Monaghan","tel":"+353 (0)47 88 882","images":null,"lat":"54.317508697509766","lng":"-6.908117294311523"},"fields":{"slug":"/section-directory-content/equestrian-schools/cloncaw-equestrian-centre/"}}},{"node":{"frontmatter":{"title":"Ecclesville Equestrian, Leisure and Community Centre","category":"Equestrian Schools","county":"Tyrone","type":"Content","excerpt":null,"address":"11, Ecclesville Rd, Fintona, Omagh, Co. Tyrone BT78 2EF","tel":"02882 840591","images":null,"lat":"054.4949090000","lng":"-007.3114030000"},"fields":{"slug":"/section-directory-content/equestrian-schools/ecclesville-equestrian,-leisure-and-community-centre/"}}},{"node":{"frontmatter":{"title":"Five Oaks Ranch","category":"Equestrian Schools","county":"Donegal","type":"Content","excerpt":null,"address":"Five Oaks Ranch, Knather, Ballyshannon, Co. Donegal","tel":"+353 (0)71 985 1030","images":null,"lat":"54.50212860107422","lng":"-8.150531768798828"},"fields":{"slug":"/section-directory-content/equestrian-schools/five-oaks-ranch/"}}},{"node":{"frontmatter":{"title":"Glendalough Equestrian and Eco Adenture Ireland","category":"Equestrian Schools","county":"Wicklow","type":"Content","excerpt":null,"address":"Glendalough Estate, Annamoe, Co. Wicklow","tel":"+353 (0)40 44 5569","images":null,"lat":"53.03195571899414","lng":"-6.256348133087158"},"fields":{"slug":"/section-directory-content/equestrian-schools/glendalough-equestrian-and-eco-adenture-ireland/"}}},{"node":{"frontmatter":{"title":"Drummindoo Stud and Equitation Centre","category":"Equestrian Schools","county":"Mayo","type":"Content","excerpt":null,"address":"Drummindoo Stud and Equitation Centre, Knockranny, Westport, Co. Mayo","tel":"+353 (0)98 25 616","images":null,"lat":"53.796417236328125","lng":"-9.5325927734375"},"fields":{"slug":"/section-directory-content/equestrian-schools/drummindoo-stud-and-equitation-centre/"}}},{"node":{"frontmatter":{"title":"Hayden Equestrian Centre","category":"Equestrian Schools","county":"Leitrim","type":"Content","excerpt":null,"address":"Bornacoola, Carrick on Shannon, Co. Leitrim","tel":"+353 (0)71 963 8049","images":null,"lat":"53.832603454589844","lng":"-7.9248270988464355"},"fields":{"slug":"/section-directory-content/equestrian-schools/hayden-equestrian-centre/"}}},{"node":{"frontmatter":{"title":"Kilotteran Equestrian Centre Ltd.","category":"Equestrian Schools","county":"Waterford","type":"Content","excerpt":null,"address":"Kilotteran, Waterford City, Waterford","tel":"+353 (0)51 38 4158","images":null,"lat":"52.243324279785156","lng":"-7.196336269378662"},"fields":{"slug":"/section-directory-content/equestrian-schools/kilotteran-equestrian-centre-ltd/"}}},{"node":{"frontmatter":{"title":"Laurel View Equestrian Centre","category":"Equestrian Schools","county":"Antrim","type":"Content","excerpt":null,"address":"18, Knowehead Rd, Templepatrick, Ballyclare, Co. Antrim BT39 0BX","tel":"028 9083 0649","images":null,"lat":"54.704531","lng":"-6.005018"},"fields":{"slug":"/section-directory-content/equestrian-schools/laurel-view-equestrian-centre/"}}},{"node":{"frontmatter":{"title":"LIME PARK EQUESTRIAN CENTRE","category":"Equestrian Schools","county":"Armagh","type":"Content","excerpt":null,"address":"5, Lime Kiln Rd, Moira, Craigavon, Co. Armagh BT67 0JD","tel":"028 9262 1139","images":null,"lat":"054.5096150000","lng":"-006.1643750000"},"fields":{"slug":"/section-directory-content/equestrian-schools/lime-park-equestrian-centre/"}}},{"node":{"frontmatter":{"title":"Maddybenny Riding Centre and Livery Yard","category":"Equestrian Schools","county":"Derry","type":"Content","excerpt":null,"address":"20, Maddybenny Park, Loguestown Rd, Portrush, Coleraine, Co. Derry BT52 2PT","tel":"028 7082 3394","images":null,"lat":"55.161161","lng":"-6.663735"},"fields":{"slug":"/section-directory-content/equestrian-schools/maddybenny-riding-centre-and-livery-yard/"}}},{"node":{"frontmatter":{"title":"Littlehill Stables And Livery Yard","category":"Equestrian Schools","county":"Kildare","type":"Content","excerpt":null,"address":"Littlehill, Boleybeg, Ballymore Eustace, Co. Kildare","tel":"+353 (0)87 204 7911","images":null,"lat":"53.10816955566406","lng":"-6.651042461395264"},"fields":{"slug":"/section-directory-content/equestrian-schools/littlehill-stables-and-livery-yard/"}}},{"node":{"frontmatter":{"title":"Narrow Water Equestrian and Trekking Centre","category":"Equestrian Schools","county":"Down","type":"Content","excerpt":null,"address":"73, Newry Rd, Warrenpoint, Newry, Co. Down BT34 3LE","tel":"07765 942300","images":null,"lat":"54.114285","lng":"-6.28278"},"fields":{"slug":"/section-directory-content/equestrian-schools/narrow-water-equestrian-and-trekking-centre/"}}},{"node":{"frontmatter":{"title":"Riding for the Disabled Association","category":"Equestrian Schools","county":"Derry","type":"Content","excerpt":null,"address":"Fort Centre, 38, Craigmore Rd, Maghera, Co. Derry BT46 5AN","tel":"028 7964 4280","images":null,"lat":"54.851978","lng":"-6.679941"},"fields":{"slug":"/section-directory-content/equestrian-schools/riding-for-the-disabled-association/"}}},{"node":{"frontmatter":{"title":"Riding for the Disabled Association (Coleraine)","category":"Equestrian Schools","county":"Derry","type":"Content","excerpt":null,"address":"184, Castleroe Rd, Coleraine, Co. Derry BT51 3RW","tel":"028 7032 0147","images":null,"lat":"055.0825760039","lng":"-006.6417164893"},"fields":{"slug":"/section-directory-content/equestrian-schools/riding-for-the-disabled-association-coleraine/"}}},{"node":{"frontmatter":{"title":"Sheans Horse Farm Equestrian Centre","category":"Equestrian Schools","county":"Antrim","type":"Content","excerpt":null,"address":"38, Coolkeeran Rd, Armoy, Ballymoney, Co. Antrim BT53 8XL","tel":"07759 320434","images":null,"lat":"55.114134","lng":"-6.313312"},"fields":{"slug":"/section-directory-content/equestrian-schools/sheans-horse-farm-equestrian-centre/"}}},{"node":{"frontmatter":{"title":"The Burn Equestrian Club","category":"Equestrian Schools","county":"Antrim","type":"Content","excerpt":null,"address":"Knockbracken Health Care Park, Saintfield Rd, Belfast, Co. Antrim BT8 8BH","tel":"028 9040 2384","images":null,"lat":"54.539717","lng":"-5.90004"},"fields":{"slug":"/section-directory-content/equestrian-schools/the-burn-equestrian-club/"}}},{"node":{"frontmatter":{"title":"Windwhistle Farm Equestrian Centre","category":"Equestrian Schools","county":"Down","type":"Content","excerpt":null,"address":"14, Manor Road, Comber, Newtownards, Co. Down, BT23 6AL","tel":"07740 987488","images":null,"lat":"054.4935590000","lng":"-005.7215720000"},"fields":{"slug":"/section-directory-content/equestrian-schools/windwhistle-farm-equestrian-centre/"}}}]}},"pageContext":{"isCreatedByStatefulCreatePages":false,"slug":"/section-directory/equestrian-schools/","category":"Equestrian Schools"}}}