{"componentChunkName":"component---src-templates-section-directory-js","path":"/section-directory/caravan-and-camping/","webpackCompilationHash":"","result":{"data":{"markdownRemark":{"html":"","frontmatter":{"category":"Caravan And Camping"}},"allMarkdownRemark":{"distinct":["Antrim","Armagh","Derry","Down","Dublin","Fermanagh","Galway","Kerry","Louth","Tyrone","Waterford","Westmeath","Wexford"],"edges":[{"node":{"frontmatter":{"title":"Ballyhalbert Holiday Park","category":"Caravan And Camping","county":"Down","type":"Content","excerpt":null,"address":"96, Shore Rd, Ballyhalbert, Newtownards, Co. Down BT22 1BJ","tel":"028 4275 7777","images":null,"lat":"54.376923","lng":"-5.545053"},"fields":{"slug":"/section-directory-content/caravan-and-camping/ballyhalbert-holiday-park/"}}},{"node":{"frontmatter":{"title":"Ballyferris Holiday Park","category":"Caravan And Camping","county":"Down","type":"Content","excerpt":null,"address":"211, Whitechurch Rd, Ballywalter, Newtownards, Co. Down BT22 2LA","tel":"028 4275 8200","images":null,"lat":"54.573745","lng":"-5.491486"},"fields":{"slug":"/section-directory-content/caravan-and-camping/ballyferris-holiday-park/"}}},{"node":{"frontmatter":{"title":"Ballymacrea Touring Caravan Park","category":"Caravan And Camping","county":"Antrim","type":"Content","excerpt":null,"address":"220, Ballybogey Rd, Portrush, Co. Antrim BT56 8NE","tel":"028 7082 4507","images":null,"lat":"55.194492","lng":"-6.59135"},"fields":{"slug":"/section-directory-content/caravan-and-camping/ballymacrea-touring-caravan-park/"}}},{"node":{"frontmatter":{"title":"Acton's Beachside Caravan and Camping Park","category":"Caravan And Camping","county":"Galway","type":"Content","excerpt":null,"address":"Claddaghduff Clifden Connemara Co. Galway","tel":"(095)44036","images":null,"lat":"53.53789959","lng":"-10.14345441"},"fields":{"slug":"/section-directory-content/caravan-and-camping/actons-beachside-caravan-and-camping-park/"}}},{"node":{"frontmatter":{"title":"Ballywhiskin Caravan and Camping Park","category":"Caravan And Camping","county":"Down","type":"Content","excerpt":null,"address":"216, Ballywalter Rd, Millisle, Newtownards, Co. Down BT22 2LY","tel":"028 9186 2262","images":null,"lat":"54.587145","lng":"-5.50584"},"fields":{"slug":"/section-directory-content/caravan-and-camping/ballywhiskin-caravan-and-camping-park/"}}},{"node":{"frontmatter":{"title":"Castle Archdale Caravan Park","category":"Caravan And Camping","county":"Fermanagh","type":"Content","excerpt":null,"address":"within Castle Archdale Country Par, Rossmore, Irvinestown, Enniskillen, Co. Fermanagh BT94 1PP","tel":"028 6862 1333","images":null,"lat":"54.4777","lng":"-7.72822"},"fields":{"slug":"/section-directory-content/caravan-and-camping/castle-archdale-caravan-park/"}}},{"node":{"frontmatter":{"title":"Benone Strand Caravans Ltd","category":"Caravan And Camping","county":"Derry","type":"Content","excerpt":null,"address":"Golden Sands Caravan Parks, 26, Benone Avenue, Bellarena, Limavady, Co. Derry BT49 0LQ","tel":"028 7775 0324","images":null,"lat":"55.161397","lng":"-6.878696"},"fields":{"slug":"/section-directory-content/caravan-and-camping/benone-strand-caravans-ltd/"}}},{"node":{"frontmatter":{"title":"Blair's Caravan Park","category":"Caravan And Camping","county":"Antrim","type":"Content","excerpt":null,"address":"29 Dhu Varren, Portstewart Road, Portush, Co. Antrim, BT56 8EW","tel":"028 7044 3105","images":null,"lat":"055.1979050000","lng":"-006.6641500000"},"fields":{"slug":"/section-directory-content/caravan-and-camping/blairs-caravan-park/"}}},{"node":{"frontmatter":{"title":"Bonalston Caravans","category":"Caravan And Camping","county":"Derry","type":"Content","excerpt":null,"address":"80, Mill Road, Portstewart, Co. Derry, BT55 7SW","tel":"028 7083 3308","images":null,"lat":"055.1785750000","lng":"-006.7089810000"},"fields":{"slug":"/section-directory-content/caravan-and-camping/bonalston-caravans/"}}},{"node":{"frontmatter":{"title":"Clogher Vally Country Caravan Park","category":"Caravan And Camping","county":"Tyrone","type":"Content","excerpt":null,"address":"9, Fardross Rd, Clogher, Co. Tyrone BT76 0HG","tel":"028 8554 8932","images":null,"lat":"54.385558","lng":"-7.201329"},"fields":{"slug":"/section-directory-content/caravan-and-camping/clogher-vally-country-caravan-park/"}}},{"node":{"frontmatter":{"title":"Clare Glen Caravan Park","category":"Caravan And Camping","county":"Armagh","type":"Content","excerpt":null,"address":"Markethill Rd, Tandragee, Craigavon, Co. Armagh BT62 2DF","tel":"028 3884 1110","images":null,"lat":"54.355364","lng":"-6.40352"},"fields":{"slug":"/section-directory-content/caravan-and-camping/clare-glen-caravan-park/"}}},{"node":{"frontmatter":{"title":"Coneyisland Caravan Park","category":"Caravan And Camping","county":"Down","type":"Content","excerpt":null,"address":"75, Killough Rd, Ardglass, Downpatrick, Co. Down BT30 7UH","tel":"028 4484 1448","images":null,"lat":"54.26106","lng":"-5.631784"},"fields":{"slug":"/section-directory-content/caravan-and-camping/coneyisland-caravan-park/"}}},{"node":{"frontmatter":{"title":"Chestnutt Holiday Parks","category":"Caravan And Camping","county":"Down","type":"Content","excerpt":null,"address":"3, Grange Rd, Cranfield West Kilkeel, Newry, Co. Down BT34 4LW","tel":"028 4176 2653","images":null,"lat":"54.035314","lng":"-6.067442"},"fields":{"slug":"/section-directory-content/caravan-and-camping/chestnutt-holiday-parks/"}}},{"node":{"frontmatter":{"title":"Cushendall Camping and Caravan Park","category":"Caravan And Camping","county":"Antrim","type":"Content","excerpt":null,"address":"62, Coast Rd, Cushendall, Ballymena, Co. Antrim BT44 0QW","tel":"028 2177 1699","images":null,"lat":"55.074594","lng":"-6.05383"},"fields":{"slug":"/section-directory-content/caravan-and-camping/cushendall-camping-and-caravan-park/"}}},{"node":{"frontmatter":{"title":"Coastview Caravan Park","category":"Caravan And Camping","county":"Down","type":"Content","excerpt":null,"address":"21, Donaghadee Rd, Millisle, Newtownards, Co. Down BT22 2BY","tel":"028 9186 1168","images":null,"lat":"54.611377","lng":"-5.52914"},"fields":{"slug":"/section-directory-content/caravan-and-camping/coastview-caravan-park/"}}},{"node":{"frontmatter":{"title":"Derravaragh Caravan and Camping Park","category":"Caravan And Camping","county":"Westmeath","type":"Content","excerpt":null,"address":"Donere Lake Shore Multyfarnham Co. Westmeath","tel":"(044)9371500","images":null,"lat":"53.63697292","lng":"-7.381789933"},"fields":{"slug":"/section-directory-content/caravan-and-camping/derravaragh-caravan-and-camping-park/"}}},{"node":{"frontmatter":{"title":"Drumhoney Holiday Park","category":"Caravan And Camping","county":"Fermanagh","type":"Content","excerpt":null,"address":"12, Drumhoney, Lisnarick, Enniskillen, Co. Fermanagh BT94 1NB","tel":"028 6862 1892","images":null,"lat":"54.465136","lng":"-7.69866"},"fields":{"slug":"/section-directory-content/caravan-and-camping/drumhoney-holiday-park/"}}},{"node":{"frontmatter":{"title":"Drumaheglis Marina and Caravan Park","category":"Caravan And Camping","county":"Antrim","type":"Content","excerpt":null,"address":"36, Glenstall Rd, Ballymoney, Co. Antrim BT53 7QN","tel":"028 2766 0280","images":null,"lat":"55.071567","lng":"-6.589786"},"fields":{"slug":"/section-directory-content/caravan-and-camping/drumaheglis-marina-and-caravan-park/"}}},{"node":{"frontmatter":{"title":"Cranfield Bay Caravan Park","category":"Caravan And Camping","county":"Down","type":"Content","excerpt":null,"address":"Ameracam Lane, Cranfield, Newry, Co. Down BT34 4LN","tel":"028 4176 5242","images":null,"lat":"54.030171","lng":"-6.076453"},"fields":{"slug":"/section-directory-content/caravan-and-camping/cranfield-bay-caravan-park/"}}},{"node":{"frontmatter":{"title":"Cottage Gardens Caravan Park","category":"Caravan And Camping","county":"Louth","type":"Content","excerpt":null,"address":"Ganderstown Clogherhead Drogheda, Co. Louth","tel":"(041)9822310","images":null,"lat":"53.76984778","lng":"-6.248168219"},"fields":{"slug":"/section-directory-content/caravan-and-camping/cottage-gardens-caravan-park/"}}},{"node":{"frontmatter":{"title":"Fitzmaurice's Caravan Park","category":"Caravan And Camping","county":"Waterford","type":"Content","excerpt":null,"address":"Riverstown Tramore Waterford Co. Waterford","tel":"(051)381968","images":null,"lat":"52.16377269","lng":"-7.139558563"},"fields":{"slug":"/section-directory-content/caravan-and-camping/fitzmaurices-caravan-park/"}}},{"node":{"frontmatter":{"title":"CRANFIELD CARAVAN PARK","category":"Caravan And Camping","county":"Down","type":"Content","excerpt":null,"address":"123, Cranfield Rd, Kilkeel, Newry, Co. Down BT34 4LJ","tel":"02841338303","images":null,"lat":"054.0295020000","lng":"-006.0586100000"},"fields":{"slug":"/section-directory-content/caravan-and-camping/cranfield-caravan-park/"}}},{"node":{"frontmatter":{"title":"Ganaway Holiday Park","category":"Caravan And Camping","county":"Down","type":"Content","excerpt":null,"address":"10, Ganaway Rd, Ballywalter, Newtownards, Co. Down BT22 2LG","tel":"028 4275 8200","images":null,"lat":"54.570057","lng":"-5.508268"},"fields":{"slug":"/section-directory-content/caravan-and-camping/ganaway-holiday-park/"}}},{"node":{"frontmatter":{"title":"Glenmore Touring Caravan and Camping Park","category":"Caravan And Camping","county":"Antrim","type":"Content","excerpt":null,"address":"94, Whitepark Rd, Ballycastle, Co. Antrim BT54 6LR","tel":"028 2076 3584","images":null,"lat":"55.228936","lng":"-6.32214"},"fields":{"slug":"/section-directory-content/caravan-and-camping/glenmore-touring-caravan-and-camping-park/"}}},{"node":{"frontmatter":{"title":"Glenville Caravan Park","category":"Caravan And Camping","county":"Antrim","type":"Content","excerpt":null,"address":"20, Glenville Rd, Cushendall, Ballymena, Co. Antrim BT44 0PB","tel":"028 2177 1520","images":null,"lat":"55.091857","lng":"-6.06269"},"fields":{"slug":"/section-directory-content/caravan-and-camping/glenville-caravan-park/"}}},{"node":{"frontmatter":{"title":"Hilly Skilly Caravan Park","category":"Caravan And Camping","county":"Dublin","type":"Content","excerpt":null,"address":"Hilly Skilly Caravan pk Golf Road, Rush, Co. Dublin Co. Dublin","tel":"(01)8437134","images":null,"lat":"53.51707906","lng":"-6.102649488"},"fields":{"slug":"/section-directory-content/caravan-and-camping/hilly-skilly-caravan-park/"}}},{"node":{"frontmatter":{"title":"Dundonald Touring Caravan Park","category":"Caravan And Camping","county":"Antrim","type":"Content","excerpt":null,"address":"111, Old Dundonald Road, Dundonald, Belfast, Co. Antrim, BT16 1XT","tel":"02890 809100","images":null,"lat":"054.5880000000","lng":"-005.8172220000"},"fields":{"slug":"/section-directory-content/caravan-and-camping/dundonald-touring-caravan-park/"}}},{"node":{"frontmatter":{"title":"Golflinks Holiday Homes","category":"Caravan And Camping","county":"Antrim","type":"Content","excerpt":null,"address":"Bushmills Rd, Portush, Co. Antrim, BT56 8JQ","tel":"028 7044 0839","images":null,"lat":"055.1991730000","lng":"-006.6339800000"},"fields":{"slug":"/section-directory-content/caravan-and-camping/golflinks-holiday-homes/"}}},{"node":{"frontmatter":{"title":"Hagans Leisure Ltd","category":"Caravan And Camping","county":"Antrim","type":"Content","excerpt":null,"address":"184, Templepatrick Road, Doagh, Ballyclare, Co. Antrim, BT39 0RA","tel":"02820449244","images":null,"lat":"054.7238320000","lng":"-006.0466410000"},"fields":{"slug":"/section-directory-content/caravan-and-camping/hagans-leisure-ltd/"}}},{"node":{"frontmatter":{"title":"Jordanstown Loughshore Caravan Park","category":"Caravan And Camping","county":"Antrim","type":"Content","excerpt":null,"address":"Shore Rd, Jordanstown, Newtownabbey, Co. Antrim BT37 9SE","tel":"028 9034 0058","images":null,"lat":"54.670549","lng":"-5.90072"},"fields":{"slug":"/section-directory-content/caravan-and-camping/jordanstown-loughshore-caravan-park/"}}},{"node":{"frontmatter":{"title":"Maghery Country Caravan Park","category":"Caravan And Camping","county":"Armagh","type":"Content","excerpt":null,"address":"Maghery Rd, Portadown, Craigavon, Co. Armagh BT62 1SZ","tel":"028 3885 2053","images":null,"lat":"54.502699","lng":"-6.55251"},"fields":{"slug":"/section-directory-content/caravan-and-camping/maghery-country-caravan-park/"}}},{"node":{"frontmatter":{"title":"Lisnaskea Caravan Park","category":"Caravan And Camping","county":"Fermanagh","type":"Content","excerpt":null,"address":"Mullynascarty, Lisnaskea, Enniskillen, Co. Fermanagh BT92 0NZ","tel":"028 6772 1040","images":null,"lat":"54.268873","lng":"-7.48427"},"fields":{"slug":"/section-directory-content/caravan-and-camping/lisnaskea-caravan-park/"}}},{"node":{"frontmatter":{"title":"McNally A (North Beach Caravan Park)","category":"Caravan And Camping","county":"Dublin","type":"Content","excerpt":null,"address":"Caravan pk Nth Beach Rush Co. Dublin","tel":"(01)8437131","images":null,"lat":"53.52611273","lng":"-6.085824722"},"fields":{"slug":"/section-directory-content/caravan-and-camping/mcnally-a-north-beach-caravan-park/"}}},{"node":{"frontmatter":{"title":"Gosford Forest Park","category":"Caravan And Camping","county":"Armagh","type":"Content","excerpt":null,"address":"7, Gosford Demesne, Markethill, Armagh, Co. Armagh BT60 1GD","tel":"028 3755 1277","images":null,"lat":"54.338554","lng":"-6.63965"},"fields":{"slug":"/section-directory-content/caravan-and-camping/gosford-forest-park/"}}},{"node":{"frontmatter":{"title":"Hugh A Warnock","category":"Caravan And Camping","county":"Down","type":"Content","excerpt":null,"address":"150, Whitechurch Rd, Ballywalter, Newtownards, Co. Down BT22 2JZ","tel":"028 4275 8342","images":null,"lat":"54.565316","lng":"-5.481069"},"fields":{"slug":"/section-directory-content/caravan-and-camping/hugh-a-warnock/"}}},{"node":{"frontmatter":{"title":"Sandycove Holiday Park","category":"Caravan And Camping","county":"Down","type":"Content","excerpt":null,"address":"191, Whitechurch Rd, Ballywalter, Newtownards, Co. Down BT22 2JZ","tel":"028 4275 8200","images":null,"lat":"54.565316","lng":"-5.481069"},"fields":{"slug":"/section-directory-content/caravan-and-camping/sandycove-holiday-park/"}}},{"node":{"frontmatter":{"title":"Sandend and Springvale Holiday Parks","category":"Caravan And Camping","county":"Down","type":"Content","excerpt":null,"address":"22c and 28, Springvale Rd, Ballywalter, Newtownards, Co. Down BT22 2RS","tel":"028 4275 8200","images":null,"lat":"54.523932","lng":"-5.477556"},"fields":{"slug":"/section-directory-content/caravan-and-camping/sandend-and-springvale-holiday-parks/"}}},{"node":{"frontmatter":{"title":"Spiddal Caravan and Camping Park","category":"Caravan And Camping","county":"Galway","type":"Content","excerpt":null,"address":"River Road Spiddal Co. Galway Co. Galway","tel":"(091)553372","images":null,"lat":"53.25585615","lng":"-9.301778242"},"fields":{"slug":"/section-directory-content/caravan-and-camping/spiddal-caravan-and-camping-park/"}}},{"node":{"frontmatter":{"title":"Silver Bay Caravan Park","category":"Caravan And Camping","county":"Down","type":"Content","excerpt":null,"address":"15, Ardminnan Rd, Portaferry, Newtownards, Co. Down BT22 1QJ","tel":"028 4277 1321","images":null,"lat":"54.417008","lng":"-5.47258"},"fields":{"slug":"/section-directory-content/caravan-and-camping/silver-bay-caravan-park/"}}},{"node":{"frontmatter":{"title":"Portballintrae Caravan Park","category":"Caravan And Camping","county":"Antrim","type":"Content","excerpt":null,"address":"80, Ballaghmore Rd, Portballintrae, Bushmills, Co. Antrim BT57 8RL","tel":"028 2073 1478","images":null,"lat":"55.215177","lng":"-6.542567"},"fields":{"slug":"/section-directory-content/caravan-and-camping/portballintrae-caravan-park/"}}},{"node":{"frontmatter":{"title":"Leisure Homes Ireland Ltd","category":"Caravan And Camping","county":"Antrim","type":"Content","excerpt":null,"address":"96, Lower Ballyboley Rd, Ballyclare, Co. Antrim BT39 9UJ","tel":"028 9334 1010","images":null,"lat":"54.792664","lng":"-5.951511"},"fields":{"slug":"/section-directory-content/caravan-and-camping/leisure-homes-ireland-ltd/"}}},{"node":{"frontmatter":{"title":"Strangford Caravan Park","category":"Caravan And Camping","county":"Down","type":"Content","excerpt":null,"address":"87, Shore Rd, Strangford, Downpatrick, Co. Down BT30 7NW","tel":"028 4488 1888","images":null,"lat":"54.349115","lng":"-5.549811"},"fields":{"slug":"/section-directory-content/caravan-and-camping/strangford-caravan-park/"}}},{"node":{"frontmatter":{"title":"Seaview Caravan Sales","category":"Caravan And Camping","county":"Down","type":"Content","excerpt":null,"address":"1, Donaghadee Rd, Millisle, Newtownards, Co. Down BT22 2BY","tel":"028 9186 1248","images":null,"lat":"54.611377","lng":"-5.52914"},"fields":{"slug":"/section-directory-content/caravan-and-camping/seaview-caravan-sales/"}}},{"node":{"frontmatter":{"title":"Morriscastle Strand Caravan/Camping Park","category":"Caravan And Camping","county":"Wexford","type":"Content","excerpt":null,"address":"Kilmuckridge Co. Wexford Co. Wexford","tel":"(053)9130124","images":null,"lat":"52.515217","lng":"-6.285321"},"fields":{"slug":"/section-directory-content/caravan-and-camping/morriscastle-strand-caravan camping-park/"}}},{"node":{"frontmatter":{"title":"West Caravan Park- Sales and Hire","category":"Caravan And Camping","county":"Kerry","type":"Content","excerpt":null,"address":"Killarney rd Killorglin Ring of Kerry Co. Kerry","tel":"(066)9761240","images":null,"lat":"52.10120275","lng":"-9.759395898"},"fields":{"slug":"/section-directory-content/caravan-and-camping/west-caravan-park--sales-and-hire/"}}},{"node":{"frontmatter":{"title":"Tara Caravan Park","category":"Caravan And Camping","county":"Down","type":"Content","excerpt":null,"address":"4, Ballyquintin Rd, Portaferry, Newtownards, Co. Down BT22 1RF","tel":"028 4272 8459","images":null,"lat":"54.357522","lng":"-5.502694"},"fields":{"slug":"/section-directory-content/caravan-and-camping/tara-caravan-park/"}}},{"node":{"frontmatter":{"title":"The Skerries Holiday Park","category":"Caravan And Camping","county":"Antrim","type":"Content","excerpt":null,"address":"126, Dunluce Rd, Portrush, Co. Antrim BT56 8NB","tel":"028 7082 2531","images":null,"lat":"055.2006920000","lng":"-006.6161020000"},"fields":{"slug":"/section-directory-content/caravan-and-camping/the-skerries-holiday-park/"}}},{"node":{"frontmatter":{"title":"Woodland Caravan Park","category":"Caravan And Camping","county":"Down","type":"Content","excerpt":null,"address":"24, Drumfad Rd, Millisle, Newtownards, Co. Down BT22 2JQ","tel":"028 9186 2349","images":null,"lat":"54.587979","lng":"-5.520916"},"fields":{"slug":"/section-directory-content/caravan-and-camping/woodland-caravan-park/"}}},{"node":{"frontmatter":{"title":"Whitechurch Caravan Park","category":"Caravan And Camping","county":"Down","type":"Content","excerpt":null,"address":"144, Whitechurch Rd, Ballywalter, Newtownards, Co. Down BT22 2JY","tel":"028 4275 8442","images":null,"lat":"54.554112","lng":"-5.482507"},"fields":{"slug":"/section-directory-content/caravan-and-camping/whitechurch-caravan-park/"}}},{"node":{"frontmatter":{"title":"Cushendun Camping and Caravan Park","category":"Caravan And Camping","county":"Antrim","type":"Content","excerpt":null,"address":"Glendun Rd, Cushendun, Ballymena, Co. Antrim BT44 0PX","tel":"028 2176 1254","images":null,"lat":"55.129417","lng":"-6.049836"},"fields":{"slug":"/section-directory-content/caravan-and-camping/cushendun-camping-and-caravan-park/"}}}]}},"pageContext":{"isCreatedByStatefulCreatePages":false,"slug":"/section-directory/caravan-and-camping/","category":"Caravan And Camping"}}}